"lineid","car","time","location","longitude","latitude"
"234070","552-UM","2016/12/21 16:43:22","新北市永和區福和路1號","121.526491666667","25.0098566666667"
"251013","180-VK","2016/12/21 16:47:56","新北市淡水區大溪8號","121.495721666667","25.19048"
"251015","182-VK","2016/12/21 16:47:50","新北市淡水區忠愛街6號","121.460786666667","25.171525"
"220013","568-UM","2016/12/21 11:40:12","新北市板橋區民生路二段17號","121.472611666667","25.016425"
"241001","3G-TL5","2016/12/21 16:47:51","桃園市楊梅區電研路100-24號","121.166106666667","24.9536433333333"
