"lineid","car","time","location","longitude","latitude"
"234070","552-UM","2016/12/21 16:43:22","新北市永和區福和路1號","121.526491666667","25.0098566666667"
"251013","180-VK","2016/12/21 20:17:56","新北市淡水區奎柔山路752巷9號","121.473531666667","25.20538"
"251015","182-VK","2016/12/21 20:17:49","新北市淡水區埤島3-23號","121.44777","25.189735"
"220013","568-UM","2016/12/21 11:40:12","新北市板橋區民生路二段17號","121.472611666667","25.016425"
"241001","3G-TL5","2016/12/21 18:06:56","桃園市楊梅區電研路100-24號","121.16611","24.9536366666667"
