"lineid","car","time","location","longitude","latitude"
"234012","149-BY","2016/12/20 12:17:53","新北市永和區福和路1號","121.526586666667","25.0099383333333"
"234078","298-R6","2016/12/20 12:17:40","新北市永和區福和路1號","121.525821666667","25.00934"
"231009","188-VK","2016/12/20 12:17:52","新北市新店區成功路265號","121.527728333333","24.88607"
"231069","189-VK","2016/12/20 12:16:35","新北市新店區安華路28-1號","121.51953","24.9607833333333"
"235031","255-BX","2016/12/20 12:03:16","新北市中和區和城路一段271巷1號","121.485566666667","24.9918183333333"
"228004","212-TW","2016/12/20 12:17:56","新北市貢寮區貢寮里長泰路22號","121.901946666667","25.0209433333333"
"228005","663-BX","2016/12/20 12:17:59","新北市貢寮區福連里福興街37-1號","121.992066666667","25.01137"
"227006","282-VK","2016/12/20 12:17:48","新北市雙溪區魚行里魚杭12-1號","121.87911","25.02659"
"207003","550-UM","2016/12/20 12:18:00","基隆市安樂區基金一路129巷1號","121.712623333333","25.13877"
