"lineid","car","time","location","longitude","latitude"
"234044","148-BY","2016/12/20 12:59:44","新北市永和區得和路373巷16弄2號","121.525213333333","25.0001216666667"
"234012","149-BY","2016/12/20 12:59:53","新北市永和區信義路10號","121.51463","25.0120783333333"
"234005","207-UY","2016/12/20 13:00:01","新北市永和區永和路二段46號","121.514821666667","25.0106833333333"
"234078","298-R6","2016/12/20 13:00:00","新北市永和區永亨路70號","121.521111666667","25.006045"
"234036","336-UY","2016/12/20 12:59:39","新北市永和區成功路二段201巷8弄1號","121.527291666667","24.996155"
"234062","337-UY","2016/12/20 12:59:47","新北市永和區秀朗路一段198號","121.519416666667","25.0031633333333"
"234084","338-UY","2016/12/20 13:00:01","新北市永和區永寧街129巷2號","121.51805","25.0054"
"234068","552-UM","2016/12/20 13:00:02","新北市永和區豫溪街57巷22號","121.517063333333","25.0108583333333"
"234052","553-UM","2016/12/20 12:59:47","新北市永和區竹林路66巷2號","121.518265","25.0133983333333"
"234015","745-BX","2016/12/20 12:59:53","新北市永和區永和路二段297號","121.516053333333","25.0160466666667"
"234028","746-BX","2016/12/20 12:59:46","新北市永和區四維街81號","121.524923333333","24.9981066666667"
"234060","839-RS","2016/12/20 12:59:59","新北市永和區福和路305號","121.516305","25.0071333333333"
"234072","847-RS","2016/12/20 12:59:02","新北市永和區環河東路二段92號","121.524243333333","25.0106"
"234040","862-TW","2016/12/20 12:59:58","新北市永和區永貞路271號","121.511723333333","25.0047733333333"
"234048","863-TW","2016/12/20 12:59:53","新北市永和區文化路135巷22弄2號","121.510508333333","25.0149283333333"
"234025","9371-KE","2016/12/20 12:59:45","新北市永和區永和路一段40-1號","121.513025","25.005365"
"234010","9381-KE","2016/12/20 12:59:55","新北市永和區文化路9巷22弄13號","121.514988333333","25.01455"
"248017","225-UY","2016/12/20 12:59:39","新北市五股區中興路二段37巷26號","121.460431666667","25.07506"
"234022","9380-KE","2016/12/20 12:59:49","新北市永和區竹林路75巷17號","121.51997","25.0139333333333"
"234076","969-R7","2016/12/20 12:59:54","新北市永和區民有街24巷15號","121.516403333333","24.995715"
"234066","AAC-212","2016/12/20 12:59:46","新北市永和區永和路一段32號","121.513083333333","25.0049016666667"
"234001","AAC-295","2016/12/20 12:59:43","新北市永和區永平路28號","121.513226666667","25.00881"
"244002","248-BX","2016/12/20 12:59:42","新北市林口區粉寮路二段20號","121.40251","25.0860816666667"
"231006","002-UM","2016/12/20 12:59:47","新北市新店區安華路28-1號","121.519746666667","24.9606566666667"
"231025","0293-UT","2016/12/20 12:59:48","新北市新店區安華路28-1號","121.519313333333","24.960585"
"231001","106-UY","2016/12/20 12:59:45","新北市新店區安華路28-1號","121.519831666667","24.9609816666667"
"231035","107-UY","2016/12/20 12:59:52","新北市新店區安華路28-1號","121.519785","24.961055"
"231023","108-UY","2016/12/20 12:59:59","新北市新店區安華路28-1號","121.519778333333","24.961005"
"231013","187-VK","2016/12/20 12:59:54","新北市新店區安華路28-1號","121.519798333333","24.961315"
"231009","188-VK","2016/12/20 12:59:52","新北市新店區新烏路二段212-1號","121.547546666667","24.9159533333333"
"231069","189-VK","2016/12/20 12:16:35","新北市新店區安華路28-1號","121.51953","24.9607833333333"
"231036","192-VK","2016/12/20 12:59:59","新北市新店區安華路28-1號","121.520063333333","24.9607233333333"
"231003","268-BY","2016/12/20 12:59:56","新北市新店區安華路28-1號","121.519476666667","24.9606016666667"
"231027","3713-VJ","2016/12/20 12:59:53","新北市新店區安華路28-1號","121.519158333333","24.960725"
"231037","4715-K9","2016/12/20 12:59:44","新北市新店區安華路28-1號","121.51957","24.96054"
"231018","513-UM","2016/12/20 12:59:49","新北市新店區安華路28-1號","121.519811666667","24.9612633333333"
"231028","617-UM","2016/12/20 12:59:52","新北市新店區安華路28-1號","121.519585","24.9610783333333"
"231002","618-UM","2016/12/20 11:19:01","新北市新店區民生路200-1號","121.527568333333","24.9796066666667"
"231005","619-UM","2016/12/20 02:39:19","新北市新店區安華路28-1號","121.519511666667","24.9609733333333"
"231015","718-UY","2016/12/20 12:59:56","新北市新店區安華路28-1號","121.519531666667","24.96108"
"231020","719-UM","2016/12/20 12:59:44","新北市新店區安華路28-1號","121.519498333333","24.9611933333333"
"231030","897-TW","2016/12/20 12:59:42","新北市新店區安華路28-1號","121.51976","24.96069"
"231024","AKT-0513","2016/12/20 12:59:51","新北市新店區安華路1-1號","121.519703333333","24.9603616666667"
"235003","097-UM","2016/12/20 12:59:53","新北市中和區和城路一段271巷1號","121.485473333333","24.9917683333333"
"235029","098-UM","2016/12/20 12:59:41","新北市中和區員山路36巷16-3號","121.485241666667","24.9911666666667"
"235004","150-BY","2016/12/20 12:59:39","新北市中和區和城路一段271巷1號","121.485561666667","24.9919266666667"
"235002","185-VK","2016/12/20 12:59:51","新北市中和區景平路365號","121.504425","24.99347"
"235031","255-BX","2016/12/20 12:59:59","新北市中和區中正路881號","121.484231666667","25.0041783333333"
"235025","378-QA","2016/12/20 12:29:59","新北市中和區員山路36巷16-2號","121.485323333333","24.9915916666667"
"235026","800-TS","2016/12/20 12:59:40","新北市中和區員山路36巷16-2號","121.485218333333","24.9913933333333"
"235001","AAC-213","2016/12/20 12:59:48","新北市中和區員山路36巷16-3號","121.484565","24.9910383333333"
"228004","212-TW","2016/12/20 12:59:56","新北市貢寮區吉林里內寮街20號","121.889791666667","24.9944316666667"
"228005","663-BX","2016/12/20 12:59:59","新北市貢寮區福隆里東興街31-1號","121.954683333333","25.0207833333333"
"208004","642-TV","2016/12/20 12:59:54","新北市金山區磺港里磺港路326號","121.645083333333","25.2290483333333"
"207002","749-BX","2016/12/20 12:59:43","新北市萬里區崁腳里內崁路2-3號","121.638583333333","25.16066"
"207003","550-UM","2016/12/20 13:00:00","新北市新店區薏仁坑路2-4號","121.501761666667","24.95855"
"207001","291-VK","2016/12/20 12:59:50","新北市萬里區萬里里獅頭路23號","121.693203333333","25.1782633333333"
"252005","AAC-283","2016/12/20 01:57:26","新北市三芝區埔坪里埔頭坑41號","121.504483333333","25.26434"
"236006","498-BY","2016/12/20 12:59:40","新北市土城區亞洲路14號","121.436615","24.9748066666667"
"221036","130-UY","2016/12/20 12:59:55","新北市汐止區大同路二段426號","121.658983333333","25.0671866666667"
"221032","280-BY","2016/12/20 12:59:59","新北市汐止區大同路二段252號","121.654241666667","25.0659666666667"
"220010","305-R5","2016/12/20 03:20:28","新北市板橋區民生路二段16號","121.472815","25.0164133333333"
