"lineid","car","time","location","longitude","latitude"
"234046","148-BY","2016/12/20 19:08:59","新北市永和區永元路50號","121.522411666667","25.001035"
"234013","149-BY","2016/12/20 19:08:56","新北市永和區保福路二段48號","121.510995","25.0121383333333"
"234007","207-UY","2016/12/20 19:08:53","新北市永和區永貞路422號","121.508656666667","25.0083133333333"
"234081","298-R6","2016/12/20 19:09:00","新北市永和區永貞路19號","121.520941666667","25.0070083333333"
"234038","336-UY","2016/12/20 19:08:48","新北市永和區民樂街69巷15號","121.527925","24.9977383333333"
"234064","337-UY","2016/12/20 19:08:39","新北市永和區秀朗路二段17號","121.520993333333","25.0026733333333"
"234086","338-UY","2016/12/20 19:08:57","新北市永和區永貞路101號","121.517968333333","25.0043633333333"
"234070","552-UM","2016/12/20 19:08:57","新北市永和區豫溪街137巷1弄13號","121.519056666667","25.0104316666667"
"234054","553-UM","2016/12/20 19:08:40","新北市永和區竹林路74號","121.51906","25.01283"
"234017","745-BX","2016/12/20 19:08:44","新北市永和區文化路90巷3弄2號","121.513865","25.0156"
"234030","746-BX","2016/12/20 19:08:59","新北市永和區厚德街95號","121.523601666667","24.9988683333333"
"234061","839-RS","2016/12/20 19:08:57","新北市永和區安樂路461號","121.514371666667","25.0052466666667"
"234074","847-RS","2016/12/20 19:08:57","新北市永和區福和路143號","121.520866666667","25.0077266666667"
"234042","862-TW","2016/12/20 19:08:43","新北市永和區永貞路305號","121.510648333333","25.00593"
"234050","863-TW","2016/12/20 19:08:53","新北市永和區仁愛路104巷7弄23號","121.511068333333","25.0141283333333"
"234026","9371-KE","2016/12/20 19:08:44","新北市永和區安樂路240號","121.514848333333","25.002705"
"234011","9381-KE","2016/12/20 19:08:54","新北市永和區仁愛路141巷5弄6號","121.511885","25.01208"
"249005","172-UM","2016/12/20 19:08:58","新北市八里區中華路三段145巷11號","121.392455","25.133"
"249001","173-UM","2016/12/20 19:08:54","新北市八里區龍米路二段228-1號","121.432746666667","25.15836"
"249001","759-BX","2016/12/20 15:32:03","新北市八里區博物館路10-1號","121.415066666667","25.1642666666667"
"248016","026-BX","2016/12/20 18:50:38","新北市五股區成泰路三段543巷50號","121.450103333333","25.10282"
"248006","077-UY","2016/12/20 19:08:09","新北市五股區四維路96號","121.467611666667","25.0733233333333"
"248020","225-UY","2016/12/20 19:00:53","新北市五股區凌雲路三段57號","121.42533","25.12503"
"248014","261-SL","2016/12/20 19:08:46","新北市五股區民義路一段107巷32號","121.432233333333","25.0844466666667"
"248012","655-BX","2016/12/20 19:08:54","新北市五股區中興路四段48巷16號","121.438663333333","25.0834283333333"
"248004","677-BX","2016/12/20 19:08:59","新北市五股區六合街3號","121.431853333333","25.0885183333333"
"248002","678-BX","2016/12/20 19:08:57","新北市五股區凌雲路一段158巷14-1號","121.447818333333","25.1035333333333"
"234023","9380-KE","2016/12/20 19:08:54","新北市永和區竹林路75巷17號","121.520053333333","25.0140216666667"
"234077","969-R7","2016/12/20 19:08:41","新北市永和區民族街25號","121.518761666667","24.9996633333333"
"234067","AAC-212","2016/12/20 19:08:54","新北市永和區保平路30巷2號","121.512005","25.0072783333333"
"234003","AAC-295","2016/12/20 19:08:58","新北市永和區保福路一段90號","121.512118333333","25.0103383333333"
"244013","069-UM","2016/12/20 19:08:56","新北市林口區麗園一街6巷3-3號","121.376168333333","25.0698216666667"
"244007","080-UY","2016/12/20 19:08:58","新北市林口區太平嶺3-8號","121.377811666667","25.1124716666667"
"244002","248-BX","2016/12/20 16:00:48","新北市林口區粉寮路二段160巷28號","121.405143333333","25.0908133333333"
"244025","402-UM","2016/12/20 19:08:52","新北市林口區文化北路一段530號","121.367775","25.0794883333333"
"244019","403-UM","2016/12/20 19:08:51","新北市林口區麗園二街12巷4-2號","121.378416666667","25.0685283333333"
"244009","410-SL","2016/12/20 19:08:46","新北市林口區竹林路358巷12號","121.392541666667","25.0839983333333"
"244023","483-VK","2016/12/20 19:08:42","新北市林口區民有街66號","121.372801666667","25.0771266666667"
"244017","485-VK","2016/12/20 19:08:47","新北市林口區忠孝路377號","121.369361666667","25.0715433333333"
"244011","701-TV","2016/12/20 19:08:54","新北市林口區粉寮路一段5號","121.39623","25.0760366666667"
"243011","297-R6","2016/12/20 19:08:55","新北市泰山區明志路二段368號","121.425505","25.04485"
"243014","380-SR","2016/12/20 19:08:53","新北市泰山區泰林路二段466號","121.425438333333","25.0640866666667"
"243016","421-VK","2016/12/20 19:08:56","新北市泰山區明志路三段1號","121.424796666667","25.043455"
"243012","539-UM","2016/12/20 19:08:55","新北市泰山區辭修路36巷1弄1號","121.428073333333","25.0583016666667"
"243009","548-UM","2016/12/20 19:09:00","新北市泰山區楓樹街15巷3號","121.434958333333","25.063025"
"243010","549-UM","2016/12/20 19:08:51","新北市泰山區明志路一段412號","121.430771666667","25.0567966666667"
"243013","646-TV","2016/12/20 19:08:55","新北市泰山區漢口街3號","121.423316666667","25.0366866666667"
"243015","680-BX","2016/12/20 19:08:58","新北市泰山區明志路一段435號","121.430806666667","25.05643"
"222003","436-BY","2016/12/20 19:08:56","新北市深坑區深南路142號","121.622985","25.0141166666667"
"222002","659-BX","2016/12/20 19:08:50","新北市深坑區烏月路1號","121.633383333333","25.0081916666667"
"222001","696-SL","2016/12/20 19:08:50","新北市深坑區北深路一段300號","121.62421","25.0057716666667"
"231060","001-UM","2016/12/20 19:08:56","新北市新店區安康路二段266號","121.508605","24.9588316666667"
"231045","002-UM","2016/12/20 19:08:47","新北市新店區北宜路一段88號","121.538815","24.9556916666667"
"231056","0293-UT","2016/12/20 19:08:52","新北市新店區二十張路46巷37弄3號","121.536471666667","24.9820716666667"
"231043","046-UY","2016/12/20 19:08:56","新北市新店區寶橋路57-1號","121.545141666667","24.9748083333333"
"231040","106-UY","2016/12/20 19:08:47","新北市新店區三民路98-3號","121.533981666667","24.9734016666667"
"231064","107-UY","2016/12/20 19:08:41","新北市新店區安忠路57巷1-2號","121.513461666667","24.959945"
"231054","108-UY","2016/12/20 19:09:00","新北市新店區新店路157號","121.53708","24.9552033333333"
"231046","110-UY","2016/12/20 19:08:45","新北市新店區華潭街1巷47號","121.527735","24.9474133333333"
"231049","187-VK","2016/12/20 19:08:45","新北市新店區二十張路25巷2號","121.538561666667","24.981955"
"231069","189-VK","2016/12/20 12:16:35","新北市新店區安華路28-1號","121.51953","24.9607833333333"
"231065","192-VK","2016/12/20 19:09:01","新北市新店區安祥路147巷1號","121.474895","24.955375"
"231048","256-BX","2016/12/20 19:09:00","新北市新店區德正街27巷26號","121.545278333333","24.9710066666667"
"231042","268-BY","2016/12/20 19:09:01","新北市新店區中興路一段172巷1號","121.542911666667","24.9645133333333"
"231058","3713-VJ","2016/12/20 19:08:54","新北市新店區光明街138巷13弄3號","121.540388333333","24.9611833333333"
"231066","4715-K9","2016/12/20 19:08:56","新北市新店區安康路二段456巷6號","121.493716666667","24.954325"
"231067","4772-VM","2016/12/20 19:08:42","新北市新店區安康路一段291巷50號","121.522915","24.9614083333333"
"231051","513-UM","2016/12/20 19:09:01","新北市新店區中正路407號","121.53438","24.9776116666667"
"231057","515-UM","2016/12/20 19:08:49","新北市新店區花園一路一段2號","121.553018333333","24.9324883333333"
"231059","617-UM","2016/12/20 19:08:46","新北市新店區安和路二段227號","121.517288333333","24.976165"
"231041","618-UM","2016/12/20 19:08:57","新北市新店區中央路151號","121.529415","24.9719033333333"
"231044","619-UM","2016/12/20 19:09:00","新北市新店區中興路三段160號","121.54431","24.9807983333333"
"231063","641-BX","2016/12/20 19:08:38","新北市新店區車子路155號","121.505358333333","24.947045"
"231050","718-UY","2016/12/20 19:08:44","新北市新店區竹林路2巷33號","121.550498333333","24.9501866666667"
"231053","719-UM","2016/12/20 19:08:54","新北市新店區自強路106巷5號","121.545618333333","24.9231383333333"
"231062","719-UY","2016/12/20 19:08:57","新北市新店區安平路30號","121.523725","24.9675166666667"
"231061","897-TW","2016/12/20 19:08:55","新北市新店區安康路一段198號","121.524451666667","24.96347"
"241022","156-TC","2016/12/20 19:08:58","新北市三重區三民街155巷6號","121.484125","25.0645333333333"
"241006","398-BY","2016/12/20 18:44:40","新北市三重區車路頭街135-1號","121.48421","25.07609"
"241035","462-BY","2016/12/20 19:08:57","新北市三重區重新路四段121號","121.484808333333","25.0520283333333"
"241029","942-UM","2016/12/20 19:08:50","新北市三重區集美街235號","121.492135","25.0553"
"235064","005-UY","2016/12/20 19:08:36","新北市中和區景平路634-4號","121.49918","24.9991033333333"
"235063","006-UY","2016/12/20 19:08:50","新北市中和區連城路319巷3弄3號","121.48932","24.9956383333333"
"235056","096-UM","2016/12/20 19:08:58","新北市中和區中正路1226號","121.479426666667","25.0109433333333"
"235039","097-UM","2016/12/20 19:08:41","新北市中和區安樂路217巷20弄6號","121.513643333333","24.99885"
"235065","098-UM","2016/12/20 19:08:54","新北市中和區勝利路35巷3弄2號","121.499166666667","25.0070066666667"
"235040","150-BY","2016/12/20 19:08:50","新北市中和區宜安路23巷39號","121.511923333333","24.99448"
"235058","151-BY","2016/12/20 19:08:50","新北市中和區連城路518巷1號","121.476735","24.991795"
"235055","183-VK","2016/12/20 19:08:42","新北市中和區民生街81號","121.468948333333","25.0048966666667"
"235038","185-VK","2016/12/20 19:08:58","新北市中和區大勇街35號","121.517473333333","24.9941933333333"
"235049","186-VK","2016/12/20 19:08:47","新北市中和區景安路177巷16號","121.506106666667","24.9942866666667"
"235067","255-BX","2016/12/20 19:09:00","新北市中和區新生街205號","121.483801666667","24.99988"
"235044","293-VK","2016/12/20 19:08:43","新北市中和區中興街113號","121.499905","24.9920966666667"
"235072","301-VK","2016/12/20 19:08:47","新北市中和區中山路二段120號","121.502781666667","25.0036666666667"
"235051","376-QA","2016/12/20 19:08:45","新北市中和區忠孝街70號","121.511945","24.9840666666667"
"235068","377-QA","2016/12/20 19:09:01","新北市中和區圓通路171號","121.497573333333","24.99524"
"235061","378-QA","2016/12/20 19:08:59","新北市中和區民享街2巷3號","121.473691666667","25.0056833333333"
"235050","4979-A6","2016/12/20 19:08:47","新北市中和區復興路249巷11弄3-1號","121.503586666667","24.9896933333333"
"235069","4980-A6","2016/12/20 19:08:45","新北市中和區南山路7號","121.502078333333","24.99943"
"235042","551-UM","2016/12/20 19:05:52","新北市中和區秀朗路三段100巷5弄2號","121.52526","24.9933"
"235070","558-UM","2016/12/20 19:08:47","新北市中和區中和路130號","121.50373","24.9997433333333"
"235045","565-BX","2016/12/20 19:08:49","新北市中和區景新街467巷4號","121.513648333333","24.9881133333333"
"235043","611-BX","2016/12/20 19:08:53","新北市中和區成功路29號","121.52631","24.9934016666667"
"235054","640-BX","2016/12/20 19:08:56","新北市中和區民享街2巷2號","121.473761666667","25.0059383333333"
"235060","647-TV","2016/12/20 19:08:55","新北市中和區中山路三段48號","121.478491666667","25.0057466666667"
"235047","732-UM","2016/12/20 19:08:57","新北市中和區興南路二段54巷2-2號","121.506255","24.9853333333333"
"235046","733-UM","2016/12/20 19:08:54","新北市中和區興南路一段135巷22弄16號","121.508923333333","24.9866083333333"
"235071","783-BX","2016/12/20 19:08:44","新北市中和區連城路469巷2號","121.483553333333","24.9956083333333"
"235026","800-TS","2016/12/20 19:08:47","新北市中和區立言街49號","121.48808","25.00705"
"235057","801-TS","2016/12/20 19:08:52","新北市中和區民安街25巷25號","121.480666666667","24.9996966666667"
"235041","802-TS","2016/12/20 19:08:47","新北市中和區中安街230號","121.512223333333","24.9986066666667"
"235052","805-TS","2016/12/20 19:08:56","新北市中和區興南路二段399巷35-2號","121.500235","24.9782483333333"
"235048","896-TW","2016/12/20 19:08:45","新北市中和區華新街143巷11弄10號","121.50686","24.9814233333333"
"235053","900-TW","2016/12/20 19:08:49","新北市中和區華順街135巷5號","121.46577","24.9960333333333"
"235066","911-UM","2016/12/20 19:08:49","新北市中和區廣福路8號","121.50586","25.0030466666667"
"235037","AAC-213","2016/12/20 19:08:50","新北市中和區秀朗路三段128巷13號","121.524456666667","24.9933116666667"
"235059","AAC-215","2016/12/20 19:08:54","新北市中和區圓通路294巷11弄2號","121.488625","24.9900616666667"
"220068","013-TV","2016/12/20 19:08:52","新北市板橋區三民路一段1巷26號","121.480005","25.024465"
"220086","073-UY","2016/12/20 19:08:44","新北市板橋區中正路250巷62號","121.45788","25.0196933333333"
"220106","075-UY","2016/12/20 15:09:32","新北市板橋區民生路二段120號","121.470448333333","25.0197"
"247018","893-R6","2016/12/20 18:55:35","新北市五股區中興路三段5號","121.44919","25.08071"
"247008","546-UM","2016/12/20 18:48:35","新北市五股區中興路三段5號","121.44932","25.0806783333333"
"247016","500-BY","2016/12/20 19:06:53","新北市五股區中興路三段5號","121.449356666667","25.0807466666667"
"247004","341-TH","2016/12/20 19:08:46","新北市五股區中興路三段2巷10號","121.448995","25.0812683333333"
"247024","336-TH","2016/12/20 18:15:05","新北市五股區中興路三段5號","121.44915","25.0807333333333"
"247012","057-VK","2016/12/20 19:08:56","新北市五股區中興路三段2巷10號","121.449096666667","25.081035"
"247014","001-UY","2016/12/20 19:08:53","新北市五股區成泰路三段320號","121.450926666667","25.0974966666667"
"226004","205-ST","2016/12/20 19:08:44","新北市平溪區十分里十分街156號","121.77797","25.0433983333333"
"228002","585-TW","2016/12/20 19:08:58","新北市貢寮區福隆里東興街106巷25弄1號","121.946443333333","25.018305"
"228001","663-BX","2016/12/20 19:09:02","新北市貢寮區真理里新港街10號","121.925495","25.0543566666667"
"228003","828-UM","2016/12/20 19:08:18","新北市貢寮區和美里和美街29號","121.913716666667","25.082875"
"224010","AGQ-8101","2016/12/20 19:08:52","新北市瑞芳區基山街139號","121.843901666667","25.10831"
"224006","676-BX","2016/12/20 19:08:53","新北市瑞芳區中山路143-3號","121.802801666667","25.1063816666667"
"224007","285-BY","2016/12/20 19:08:53","新北市瑞芳區大埔路慶安新村32號","121.762548333333","25.100055"
"224009","275-VK","2016/12/20 19:08:58","新北市瑞芳區洞頂路101巷13號","121.860641666667","25.1208133333333"
"224008","273-VK","2016/12/20 19:09:02","新北市瑞芳區逢甲路357-1號","121.797463333333","25.1124766666667"
"224005","271-BY","2016/12/20 19:09:00","新北市瑞芳區三爪子坑路123號","121.810435","25.107025"
"227003","642-TC","2016/12/20 19:08:47","新北市雙溪區平林里外平林9-4號","121.85919","25.038005"
"227009","400-TW","2016/12/20 19:08:51","新北市雙溪區牡丹里中正路50號","121.865116666667","25.0391833333333"
"253006","032-BX","2016/12/20 19:09:00","新北市石門區崁子腳58-10號","121.53089","25.2869366666667"
"253005","295-VK","2016/12/20 19:08:51","新北市石門區阿里荖33-1號","121.606573333333","25.2807333333333"
"208003","665-BX","2016/12/20 19:08:54","新北市金山區中正路55號","121.634341666667","25.221925"
"208001","761-BX","2016/12/20 19:09:00","新北市金山區福德街14號","121.639268333333","25.22173"
"251001","011-UM","2016/12/20 19:09:01","新北市淡水區自強路279-1號","121.4615","25.127655"
"251002","012-UM","2016/12/20 19:08:44","新北市淡水區中山路77號","121.442638333333","25.17047"
"251014","182-VK","2016/12/20 19:08:51","新北市淡水區小中寮19-1號","121.483716666667","25.2290966666667"
"251010","413-VK","2016/12/20 19:08:51","新北市淡水區中正路一段156巷3號","121.421185","25.1803433333333"
"251012","441-VK","2016/12/20 19:08:48","新北市淡水區中山北路三段164號","121.445685","25.196615"
"251016","442-VK","2016/12/20 19:08:43","新北市淡水區淡金路三段230號","121.44893","25.2050816666667"
"251005","443-VK","2016/12/20 19:09:00","新北市淡水區中山路135號","121.441045","25.1715333333333"
"251009","575-R6","2016/12/20 19:08:50","新北市淡水區清水街160號","121.441061666667","25.1704733333333"
"251007","577-R6","2016/12/20 19:08:48","新北市淡水區民生路145巷58號","121.468075","25.138845"
"251011","650-BX","2016/12/20 19:08:45","新北市淡水區中正東路二段143巷2弄1號","121.46072","25.14742"
"251003","673-BX","2016/12/20 19:08:54","新北市淡水區中山路190號","121.44151","25.1746"
"207003","550-UM","2016/12/20 19:09:00","新北市萬里區大鵬里萬里加投28號","121.648246666667","25.2050766666667"
"207004","225-TW","2016/12/20 19:08:56","新北市萬里區萬里里瑪鋉下街29號","121.691205","25.1787616666667"
"252002","178-VK","2016/12/20 19:08:54","新北市三芝區中正路一段16-1號","121.502928333333","25.258675"
"252003","249-BX","2016/12/20 19:08:57","新北市三芝區錫板里南勢崗6號","121.479536666667","25.26196"
"252001","292-VK","2016/12/20 19:08:55","新北市三芝區長勤街45巷2號","121.50033","25.25512"
"208002","170-UY","2016/12/20 19:08:50","新北市金山區中正路69巷21號","121.633941666667","25.220935"
"237004","078-UY","2016/12/20 19:08:50","新北市三峽區有木205-1號","121.439043333333","24.85152"
"237007","153-BY","2016/12/20 19:09:00","新北市三峽區中正路二段83巷6號","121.366903333333","24.9179083333333"
"237009","210-TH","2016/12/20 19:08:54","新北市三峽區民生街227號","121.371246666667","24.9347566666667"
"237013","252-BX","2016/12/20 19:08:59","新北市三峽區光明路69巷25號","121.37667","24.9292383333333"
"237012","275-BY","2016/12/20 19:08:47","新北市三峽區三樹路222巷254弄68-11號","121.395088333333","24.944525"
"237008","302-VK","2016/12/20 19:08:41","新北市三峽區大同路174巷10號","121.372678333333","24.92727"
"237014","433-BY","2016/12/20 19:08:41","新北市三峽區中山路277巷2號","121.361728333333","24.93721"
"237006","5529-G3","2016/12/20 19:08:49","新北市三峽區橫溪路140號","121.399126666667","24.9352433333333"
"237011","572-TV","2016/12/20 19:08:43","新北市三峽區中正路一段173號","121.372745","24.9283433333333"
"237016","649-BX","2016/12/20 19:08:59","新北市三峽區安坑40-2號","121.45543","24.93211"
"237010","706-TV","2016/12/20 19:08:32","新北市三峽區國光街33號","121.375218333333","24.937235"
"237005","AKY-6261","2016/12/20 19:08:46","新北市三峽區中山路459巷135號","121.348653333333","24.93292"
"236070","105-UM","2016/12/20 19:09:03","新北市土城區明德路二段129號","121.44968","24.982305"
"236027","269-VK","2016/12/20 19:08:45","新北市土城區中正路65號","121.444541666667","24.9755566666667"
"236015","270-VK","2016/12/20 19:08:50","新北市土城區學府路一段37巷30號","121.457306666667","24.9876"
"236038","271-VK","2016/12/20 19:09:00","新北市土城區青仁路39號","121.46112","24.9790916666667"
"236023","401-BY","2016/12/20 19:08:37","新北市土城區延峰街36巷2號","121.469685","24.984625"
"236059","912-UM","2016/12/20 19:08:50","新北市土城區金城路二段218-1號","121.456026666667","24.98259"
"236049","913-UM","2016/12/20 19:08:55","新北市土城區明德路一段398-1號","121.453648333333","24.9790916666667"
"236063","915-UM","2016/12/20 19:08:42","新北市土城區金城路三段93巷6號","121.467001666667","24.9878983333333"
"242044","441-UM","2016/12/20 19:08:44","新北市新莊區三和路12-21號","121.442045","25.0381866666667"
"242054","175-VK","2016/12/20 19:08:49","新北市新莊區新樹路306號","121.433288333333","25.005205"
"238015","755-BX","2016/12/20 19:08:45","新北市樹林區備內街158巷16號","121.407291666667","24.9899883333333"
"238023","601-UM","2016/12/20 19:08:43","新北市樹林區工興街16-1號","121.398305","25.01315"
"238019","599-UM","2016/12/20 19:08:45","新北市樹林區東華街73號","121.415638333333","24.9808383333333"
"238018","571-TV","2016/12/20 19:08:49","新北市樹林區鎮前街281-1號","121.418448333333","24.9852016666667"
"238022","312-TH","2016/12/20 19:08:58","新北市樹林區東順街90巷5號","121.408168333333","24.9763616666667"
"238021","311-TH","2016/12/20 19:08:22","新北市樹林區柑園街二段316號","121.373356666667","24.9517183333333"
"238025","303-VK","2016/12/20 19:08:34","新北市樹林區中山路三段169號","121.39487","24.9725416666667"
"238017","283-BY","2016/12/20 19:09:01","新北市樹林區光興街50號","121.409858333333","25.0027316666667"
"238014","282-BY","2016/12/20 19:08:57","新北市樹林區千歲街61巷6號","121.426368333333","24.998045"
"238026","172-UY","2016/12/20 19:07:04","新北市樹林區佳園路一段41巷30號","121.394621666667","24.9708766666667"
"238016","169-UY","2016/12/20 19:08:58","新北市樹林區復興路335巷17號","121.418763333333","24.987345"
"239007","AAC-297","2016/12/20 19:08:54","新北市鶯歌區大湖路326巷46號","121.345985","24.969325"
"239006","891-R6","2016/12/20 19:08:45","新北市鶯歌區重慶街6-1號","121.351981666667","24.9527066666667"
"239008","527-UM","2016/12/20 19:08:56","新北市鶯歌區國際二路6巷11號","121.338758333333","24.973795"
"239005","526-UM","2016/12/20 19:08:41","新北市鶯歌區大湖路361巷42號","121.330778333333","24.9776766666667"
"239001","417-VK","2016/12/20 19:08:45","新北市鶯歌區建國路550號","121.33812","24.950495"
"239003","360-BY","2016/12/20 19:08:57","新北市鶯歌區中正二路155-1號","121.345491666667","24.949875"
"239002","359-BY","2016/12/20 19:08:54","新北市鶯歌區大湖路394號","121.344533333333","24.9735566666667"
"239004","193-VK","2016/12/20 19:08:59","新北市鶯歌區二甲路106巷2號","121.33391","24.9313283333333"
"221008","129-UY","2016/12/20 19:08:47","新北市汐止區康寧街482號","121.632338333333","25.0683366666667"
"221036","130-UY","2016/12/20 19:08:39","新北市汐止區汐萬路一段220號","121.65185","25.072715"
"221015","131-UY","2016/12/20 19:08:48","新北市汐止區汐萬路一段256巷3號","121.65341","25.07473"
"221010","269-BY","2016/12/20 19:08:46","新北市汐止區康寧街901號","121.651546666667","25.0750266666667"
"221025","277-VK","2016/12/20 19:08:56","新北市汐止區仁愛路34號","121.660505","25.0628516666667"
"221012","278-VK","2016/12/20 19:09:02","新北市汐止區康寧街901號","121.650828333333","25.0752683333333"
"221023","279-VK","2016/12/20 19:00:22","新北市汐止區康寧街901號","121.650996666667","25.07518"
"221027","281-BY","2016/12/20 19:08:57","新北市汐止區康寧街901號","121.650898333333","25.0752316666667"
"221029","298-VK","2016/12/20 19:08:56","新北市汐止區康寧街901號","121.651051666667","25.0751766666667"
"221021","299-VK","2016/12/20 19:08:53","新北市汐止區康寧街901號","121.651435","25.0750066666667"
"221031","353-TW","2016/12/20 19:08:49","新北市汐止區中興路181巷1號","121.630131666667","25.0667533333333"
"221033","647-BX","2016/12/20 19:08:51","新北市汐止區南勢街1巷1號","121.62698","25.0374583333333"
"221002","707-TV","2016/12/20 19:08:46","新北市汐止區大同路一段158號","121.632953333333","25.0567033333333"
"221018","753-BX","2016/12/20 19:08:52","新北市汐止區康寧街901號","121.651445","25.0749816666667"
"220079","145-BY","2016/12/20 19:08:57","新北市板橋區民權路227號","121.457575","25.0154516666667"
"220080","200-UY","2016/12/20 19:08:45","新北市板橋區大觀路二段力行3巷97-2號","121.447851666667","24.9988316666667"
"220101","245-BX","2016/12/20 19:08:55","新北市板橋區縣民大道三段143號","121.477955","25.0235116666667"
"220017","255-TC","2016/12/20 19:08:42","新北市板橋區館前西路49號","121.457976666667","25.0063716666667"
"220088","267-BY","2016/12/20 19:08:56","新北市板橋區文化路二段318號","121.472353333333","25.0297866666667"
"220056","276-BY","2016/12/20 19:08:45","新北市板橋區信義路74巷1弄1號","121.457258333333","24.99313"
"220072","277-BY","2016/12/20 19:08:49","新北市板橋區金門街369巷57弄7-1號","121.429246666667","24.9840633333333"
"220071","283-VK","2016/12/20 19:09:00","新北市板橋區重慶路245巷28號","121.46455","25.00084"
"220094","285-UM","2016/12/20 19:08:52","新北市板橋區光武街138號","121.465366666667","25.030035"
"220053","285-VK","2016/12/20 19:08:46","新北市板橋區永豐街115號","121.474396666667","25.0195416666667"
"220083","286-VK","2016/12/20 19:08:51","新北市板橋區大觀路一段38巷1-5號","121.44269","25.0044516666667"
"220081","287-VK","2016/12/20 19:08:52","新北市板橋區南雅西路二段110巷32號","121.452935","25.0126466666667"
"220090","288-VK","2016/12/20 19:08:57","新北市板橋區裕民街45巷3-1號","121.461581666667","25.02832"
"220061","293-UM","2016/12/20 19:08:50","新北市板橋區懷仁街13號","121.476183333333","25.0199483333333"
"220084","296-UM","2016/12/20 19:08:44","新北市板橋區大觀路三段59巷17弄6-1號","121.437611666667","24.995345"
"220075","297-UM","2016/12/20 19:08:49","新北市板橋區館前西路120號","121.456753333333","25.0075783333333"
"220062","305-R5","2016/12/20 19:08:40","新北市板橋區三民路二段245巷39號","121.480485","25.012605"
"220092","307-R5","2016/12/20 19:08:53","新北市板橋區文化路二段225巷60弄9號","121.46921","25.028735"
"220098","317-R6","2016/12/20 19:08:49","新北市板橋區四維路103巷19號","121.4648","25.0241066666667"
"220064","486-VK","2016/12/20 19:08:56","新北市板橋區板新路95號","121.473088333333","25.01407"
"220089","487-VK","2016/12/20 19:08:20","新北市板橋區文化路二段421號","121.474698333333","25.03277"
"220087","491-VK","2016/12/20 19:08:41","新北市板橋區莊敬路92號","121.471385","25.0246216666667"
"220035","560-BX","2016/12/20 19:08:55","新北市板橋區中正路379巷1弄30號","121.453125","25.0217916666667"
"220103","561-BX","2016/12/20 19:08:51","新北市板橋區文化路一段188巷9弄25號","121.4687","25.0193783333333"
"220065","568-UM","2016/12/20 19:08:58","新北市板橋區民族路247巷2弄5號","121.470586666667","25.0075"
"220063","609-BX","2016/12/20 19:08:47","新北市板橋區三民路二段224號","121.478795","25.011555"
"220091","637-BX","2016/12/20 19:08:58","新北市板橋區萬板路378號","121.478366666667","25.0253316666667"
"220057","686-BX","2016/12/20 19:08:53","新北市板橋區重慶路91號","121.462068333333","25.0060783333333"
"220077","687-BX","2016/12/20 19:08:52","新北市板橋區大觀路二段123號","121.44593","25.0013466666667"
"220093","689-BX","2016/12/20 19:09:00","新北市板橋區文化路一段435巷16號","121.46752","25.02345"
"220054","741-BX","2016/12/20 19:08:42","新北市板橋區實踐路85號","121.46405","25.0055516666667"
"220082","806-UM","2016/12/20 19:08:59","新北市板橋區大觀路三段269號","121.428915","24.9924066666667"
"220055","827-TW","2016/12/20 19:08:50","新北市板橋區中山路一段152號","121.464201666667","25.0111266666667"
"220067","829-TW","2016/12/20 19:08:42","新北市板橋區三民路二段正隆巷41號","121.476941666667","25.013585"
"220102","830-TW","2016/12/20 19:09:00","新北市板橋區萬板路818巷5號","121.482946666667","25.0270816666667"
"220096","831-TW","2016/12/20 19:08:42","新北市板橋區雙十路二段47巷3號","121.476228333333","25.0260833333333"
"220074","895-R6","2016/12/20 19:08:43","新北市板橋區林園街52號","121.453678333333","25.01065"
"220073","985-R7","2016/12/20 19:08:48","新北市板橋區中正路258號","121.455366666667","25.0195266666667"
"220097","AAC-210","2016/12/20 19:08:57","新北市板橋區幸福路70巷32號","121.460078333333","25.0210066666667"
"220070","AAC-253","2016/12/20 19:08:49","新北市板橋區四川路一段262號","121.459","25.0011766666667"
