"lineid","car","time","location","longitude","latitude"
"234013","149-BY","2016/12/23 18:29:25","新北市永和區福和路1號","121.52651","25.01001"
"234081","298-R6","2016/12/23 18:29:12","新北市永和區國中路2號","121.524255","25.0043066666667"
"234086","338-UY","2016/12/23 18:29:12","新北市永和區福和路8巷1號","121.524945","25.0088533333333"
"234026","9371-KE","2016/12/23 18:29:19","新北市永和區永貞路417巷27號","121.505941666667","25.0090033333333"
"249005","172-UM","2016/12/23 18:29:09","新北市八里區中華路三段62號","121.394016666667","25.1403416666667"
"249001","173-UM","2016/12/23 18:29:11","新北市八里區龍米路一段140號","121.452975","25.1256416666667"
"249004","303-UY","2016/12/23 18:29:20","新北市八里區忠孝路70號","121.426328333333","25.160385"
"249002","305-UY","2016/12/23 18:29:19","新北市八里區龍形三街15巷2號","121.449563333333","25.1315816666667"
"249003","593-UM","2016/12/23 18:29:17","新北市八里區博物館路139號","121.40762","25.1582733333333"
"248014","025-BX","2016/12/23 18:29:04","新北市五股區自強路56號","121.433311666667","25.0737133333333"
"248016","026-BX","2016/12/23 18:29:08","新北市五股區凌雲路一段83巷22弄1號","121.449883333333","25.1007633333333"
"248006","077-UY","2016/12/23 18:29:21","新北市五股區中興路一段68號","121.467143333333","25.07301"
"248008","095-VK","2016/12/23 18:29:08","新北市五股區更洲路32巷8弄13號","121.45978","25.0794766666667"
"248018","225-UY","2016/12/23 18:29:11","新北市五股區御史路277-1號","121.420415","25.1064166666667"
"248010","272-BY","2016/12/23 18:29:03","新北市五股區成泰路一段105號","121.435736666667","25.07129"
"248012","655-BX","2016/12/23 18:29:13","新北市五股區御成路148號","121.44092","25.0944733333333"
"248004","677-BX","2016/12/23 18:29:12","新北市五股區成泰路二段226號","121.439643333333","25.0864333333333"
"248002","678-BX","2016/12/23 18:29:09","新北市五股區西雲路118-7號","121.44534","25.093945"
"234077","969-R7","2016/12/23 18:29:22","新北市永和區福和路8巷1號","121.524903333333","25.008835"
"232011","375-UM","2016/12/23 18:13:31","新北市坪林區坪雙路一段43號","121.711776666667","24.9424433333333"
"244013","069-UM","2016/12/23 18:29:11","新北市林口區中山路248號","121.386695","25.07944"
"244007","080-UY","2016/12/23 18:29:16","新北市林口區竹林路153號","121.388661666667","25.0797966666667"
"244019","403-UM","2016/12/23 18:29:05","新北市林口區忠孝路581巷7號","121.374941666667","25.068895"
"244009","410-SL","2016/12/23 18:29:23","新北市林口區福林路115號","121.377543333333","25.089305"
"244023","483-VK","2016/12/23 18:29:22","新北市林口區民享路30號","121.380696666667","25.0804866666667"
"244017","485-VK","2016/12/23 18:29:12","新北市林口區文化二路一段2-1號","121.364191666667","25.065755"
"244021","657-BX","2016/12/23 18:29:19","新北市林口區自強二街61號","121.399553333333","25.07696"
"244025","837-TS","2016/12/23 18:29:20","新北市林口區南勢六街55號","121.355673333333","25.0717633333333"
"243016","421-VK","2016/12/23 18:27:31","新北市泰山區泰林路二段422號","121.426886666667","25.0643016666667"
"243012","539-UM","2016/12/23 18:20:49","新北市泰山區黎明路25號","121.422013333333","25.0607716666667"
"243013","646-TV","2016/12/23 18:29:10","新北市泰山區明志路三段206巷3號","121.423253333333","25.0378883333333"
"222003","436-BY","2016/12/23 18:29:15","新北市深坑區旺耽路35號","121.62752","25.0041533333333"
"222002","659-BX","2016/12/23 18:29:17","新北市深坑區雲鄉路142號","121.62348","24.9979"
"222001","696-SL","2016/12/23 18:29:13","新北市深坑區北深路一段199號","121.630428333333","25.0089733333333"
"231060","001-UM","2016/12/23 18:28:58","新北市新店區安華路28-1號","121.519536666667","24.9608583333333"
"231045","002-UM","2016/12/23 18:29:04","新北市新店區安華路28-1號","121.519785","24.96082"
"231056","0291-UT","2016/12/23 18:29:10","新北市新店區中央路3號","121.533855","24.9787433333333"
"231043","046-UY","2016/12/23 18:29:19","新北市新店區安華路28-1號","121.519681666667","24.9609683333333"
"231040","106-UY","2016/12/23 18:29:16","新北市新店區安華路28-1號","121.519676666667","24.9609883333333"
"231064","107-UY","2016/12/23 18:29:08","新北市新店區安華路28-1號","121.51984","24.9610966666667"
"231054","108-UY","2016/12/23 18:29:21","新北市新店區安華路28-1號","121.519531666667","24.961045"
"231046","110-UY","2016/12/23 18:29:09","新北市新店區直潭七街60號","121.53227","24.93989"
"231049","187-VK","2016/12/23 18:29:07","新北市新店區安華路28-1號","121.519461666667","24.96119"
"231065","192-VK","2016/12/23 18:29:14","新北市新店區安華路28-1號","121.519805","24.961105"
"231048","256-BX","2016/12/23 18:29:09","新北市新店區安華路28-1號","121.519845","24.961005"
"231042","268-BY","2016/12/23 18:29:21","新北市新店區安華路28-1號","121.519466666667","24.9605916666667"
"231058","3713-VJ","2016/12/23 18:29:08","新北市新店區北新路一段45巷2號","121.537805","24.9595683333333"
"231066","4715-K9","2016/12/23 18:26:15","新北市新店區安華路28-1號","121.519246666667","24.9605783333333"
"231067","4772-VM","2016/12/23 18:29:10","新北市新店區安華路1-1號","121.519123333333","24.9605283333333"
"231051","513-UM","2016/12/23 18:29:18","新北市新店區安華路28-1號","121.519801666667","24.9612916666667"
"231057","515-UM","2016/12/23 18:29:19","新北市新店區安康路一段48號","121.530415","24.9610933333333"
"231059","617-UM","2016/12/23 18:29:23","新北市新店區安華路28-1號","121.519476666667","24.960945"
"231041","618-UM","2016/12/23 16:06:57","新北市新店區安華路28-1號","121.51957","24.9610633333333"
"231044","619-UM","2016/12/23 18:29:12","新北市新店區安華路28-1號","121.519718333333","24.960845"
"231063","641-BX","2016/12/23 18:29:08","新北市新店區安華路28-1號","121.519563333333","24.9605933333333"
"231050","718-UY","2016/12/23 18:29:12","新北市新店區安華路28-1號","121.51945","24.9609616666667"
"231053","719-UM","2016/12/23 18:29:18","新北市新店區新烏路一段9-1號","121.546973333333","24.95151"
"231062","719-UY","2016/12/23 18:29:11","新北市新店區安康路一段359-27號","121.518888333333","24.9612916666667"
"231061","897-TW","2016/12/23 18:29:09","新北市新店區安華路28-1號","121.519495","24.9607533333333"
"231055","AKT-0513","2016/12/23 18:29:07","新北市新店區中正路154巷12號","121.541943333333","24.9722316666667"
"241022","267-UM","2016/12/23 18:17:28","新北市三重區重新路四段121號","121.4849","25.0517516666667"
"241018","268-UM","2016/12/23 18:29:14","新北市三重區中正北路35號","121.491396666667","25.0626183333333"
"241006","398-BY","2016/12/23 18:29:12","新北市三重區車路頭街135-1號","121.484245","25.076095"
"235066","003-UY","2016/12/23 18:29:19","新北市中和區中山路二段123號","121.50269","25.0035516666667"
"235064","005-UY","2016/12/23 18:29:22","新北市中和區圓通路223號","121.49653","24.9942966666667"
"235063","006-UY","2016/12/23 18:29:09","新北市中和區員山路36巷16-3號","121.485078333333","24.9913666666667"
"235056","096-UM","2016/12/23 18:29:09","新北市中和區員山路611巷1號","121.477893333333","25.0112366666667"
"235039","097-UM","2016/12/23 18:29:19","新北市中和區景安路179-3號","121.505126666667","24.9939066666667"
"235065","098-UM","2016/12/23 18:29:12","新北市中和區莊敬路49巷27號","121.501571666667","25.00614"
"235040","150-BY","2016/12/23 18:29:09","新北市中和區安平路38號","121.509826666667","24.9950066666667"
"235058","151-BY","2016/12/23 18:29:17","新北市中和區圓通路369巷2號","121.491258333333","24.9895466666667"
"235055","183-VK","2016/12/23 18:29:22","新北市中和區連城路469巷79弄2號","121.483461666667","24.9937"
"235038","185-VK","2016/12/23 18:29:11","新北市中和區大智街30號","121.521433333333","24.9920916666667"
"235049","186-VK","2016/12/23 18:29:04","新北市中和區錦和路350-1號","121.490326666667","24.99356"
"235067","255-BX","2016/12/23 18:29:10","新北市中和區新生街178號","121.483708333333","24.999935"
"235072","301-VK","2016/12/23 18:29:09","新北市中和區錦和路350-1號","121.490191666667","24.993575"
"235043","352-BY","2016/12/23 18:29:15","新北市中和區景平路502號","121.504313333333","24.9935233333333"
"235051","376-QA","2016/12/23 18:29:09","新北市中和區興南路二段22-3號","121.507506666667","24.9857416666667"
"235068","377-QA","2016/12/23 18:29:15","新北市中和區中正路395號","121.489408333333","24.99356"
"235061","378-QA","2016/12/23 18:29:12","新北市中和區國光街215巷24弄2-2號","121.466746666667","25.00031"
"235050","4979-A6","2016/12/23 18:29:08","新北市中和區景新街362巷5號","121.512","24.9901133333333"
"235069","4980-A6","2016/12/23 18:29:18","新北市中和區連城路99巷40號","121.497036666667","24.9988933333333"
"235042","551-UM","2016/12/23 18:29:12","新北市中和區大仁街20巷25弄1號","121.518496666667","24.9935766666667"
"235070","558-UM","2016/12/23 18:29:15","新北市中和區圓通路208號","121.496123333333","24.9940366666667"
"235045","565-BX","2016/12/23 18:29:15","新北市中和區景安路200巷1弄2號","121.503766666667","24.9914916666667"
"235054","640-BX","2016/12/23 18:29:26","新北市中和區民享街119巷2號","121.474431666667","24.9987416666667"
"235047","732-UM","2016/12/23 18:29:18","新北市中和區中正路395號","121.489601666667","24.9934866666667"
"235046","733-UM","2016/12/23 18:29:18","新北市中和區員山路36巷16-3號","121.484856666667","24.99126"
"235057","801-TS","2016/12/23 18:29:11","新北市中和區民享街97巷19號","121.475388333333","24.99956"
"235052","805-TS","2016/12/23 18:29:18","新北市中和區南山路335號","121.505541666667","24.9909"
"235048","896-TW","2016/12/23 18:29:16","新北市中和區錦和路350-1號","121.490463333333","24.993555"
"235053","900-TW","2016/12/23 18:29:13","新北市中和區員山路36巷16-2號","121.485295","24.99147"
"235037","AAC-213","2016/12/23 18:29:08","新北市中和區景平路111巷2號","121.516465","24.9918783333333"
"220068","013-TV","2016/12/23 18:29:08","新北市板橋區民生路二段17號","121.472651666667","25.0164733333333"
"220086","073-UY","2016/12/23 18:29:07","新北市板橋區華東街1-10號","121.448245","24.99506"
"247018","893-R6","2016/12/23 18:29:20","新北市八里區中山路三段275號","121.379006666667","25.1391233333333"
"247008","546-UM","2016/12/23 18:28:20","新北市八里區荖阡坑路32號","121.403493333333","25.127265"
"247016","500-BY","2016/12/23 18:29:17","新北市八里區下罟子1-5號","121.388776666667","25.1422866666667"
"247004","341-TH","2016/12/23 18:29:16","新北市五股區中興路二段182巷3號","121.456298333333","25.0780716666667"
"247024","336-TH","2016/12/23 18:04:18","新北市五股區中興路三段2巷10號","121.4486","25.0817566666667"
"247020","002-UY","2016/12/23 18:29:14","新北市八里區商港路2-1號","121.3972","25.14408"
"247014","001-UY","2016/12/23 18:29:14","新北市五股區中興路三段5號","121.449683333333","25.0805383333333"
"226004","312-R5","2016/12/23 18:29:22","新北市平溪區靜安路二段348號","121.737433333333","25.024365"
"228002","585-TW","2016/12/23 18:29:08","新北市貢寮區福連里福連街8號","121.989258333333","25.0137883333333"
"228001","663-BX","2016/12/23 18:29:22","新北市貢寮區仁理村仁義街8號","121.923753333333","25.0520983333333"
"228003","828-UM","2016/12/23 18:28:08","新北市貢寮區和美里和美街40號","121.912443333333","25.0895633333333"
"224006","676-BX","2016/12/23 18:29:14","新北市瑞芳區明燈路二段85巷2號","121.810268333333","25.1082516666667"
"224002","639-TC","2016/12/23 18:29:11","新北市瑞芳區三爪子坑路69巷34號","121.812455","25.1063116666667"
"224007","285-BY","2016/12/23 18:29:19","新北市瑞芳區大埔路16號","121.765363333333","25.10211"
"224009","275-VK","2016/12/23 18:29:20","新北市瑞芳區祈堂路239號","121.85626","25.1090116666667"
"224008","273-VK","2016/12/23 18:29:09","新北市瑞芳區岳王路25號","121.807355","25.11097"
"224005","271-BY","2016/12/23 18:29:20","新北市瑞芳區台電新村88號","121.811705","25.1271883333333"
"227003","642-TC","2016/12/23 18:29:09","新北市雙溪區魚行里坤溪21-1號","121.870343333333","25.02858"
"227011","030-BX","2016/12/23 18:29:04","新北市雙溪區牡丹里牡丹141號","121.851301666667","25.058985"
"253006","032-BX","2016/12/23 18:29:22","新北市石門區公地20-1號","121.545791666667","25.29018"
"253005","295-VK","2016/12/23 18:29:09","新北市石門區老崩山10-4號","121.552753333333","25.2910616666667"
"253005","6251-TK","2016/12/23 18:29:16","新北市石門區老崩山10-5號","121.552688333333","25.2910633333333"
"208003","665-BX","2016/12/23 18:29:23","新北市金山區中山路192號","121.637888333333","25.221465"
"208001","761-BX","2016/12/23 18:29:13","新北市金山區文化二路4號","121.637026666667","25.22438"
"251004","009-UM","2016/12/23 18:29:11","新北市淡水區大同路113巷6號","121.46367","25.1413616666667"
"251013","180-VK","2016/12/23 18:29:17","新北市淡水區椿子林19-1號","121.480518333333","25.2039883333333"
"251008","181-VK","2016/12/23 18:29:08","新北市淡水區水源街二段346巷1弄1號","121.464388333333","25.1754916666667"
"251010","413-VK","2016/12/23 18:29:22","新北市淡水區沙崙路181巷1號","121.424166666667","25.18421"
"251012","441-VK","2016/12/23 18:29:08","新北市淡水區北新路一段275號","121.462236666667","25.1822616666667"
"251015","442-VK","2016/12/23 18:29:13","新北市淡水區興福寮88巷216號","121.486018333333","25.1666283333333"
"251001","559-UM","2016/12/23 18:29:16","新北市淡水區自強路415巷2號","121.465465","25.1343083333333"
"251006","561-UM","2016/12/23 18:29:12","新北市淡水區崁頂37-11號","121.438736666667","25.194565"
"251011","650-BX","2016/12/23 18:29:15","新北市淡水區學府路32巷27號","121.448418333333","25.1683366666667"
"251002","672-BX","2016/12/23 18:29:05","新北市淡水區竿蓁二街21號","121.453245","25.163005"
"251003","673-BX","2016/12/23 18:29:19","新北市淡水區北新路69巷26號","121.446758333333","25.18009"
"207003","550-UM","2016/12/23 18:29:22","新北市萬里區野柳里港東路152號","121.689285","25.205055"
"207004","225-TW","2016/12/23 18:29:18","新北市萬里區萬里里瑪鋉頂街43-1號","121.689175","25.1786233333333"
"252002","178-VK","2016/12/23 18:29:06","新北市三芝區中山路二段41號","121.502956666667","25.25506"
"252003","249-BX","2016/12/23 18:29:23","新北市三芝區後厝里北勢子41-7號","121.472448333333","25.2530333333333"
"252001","292-VK","2016/12/23 18:29:17","新北市三芝區中興街二段2號","121.498443333333","25.25663"
"208002","170-UY","2016/12/23 18:29:19","新北市金山區民生路31號","121.643403333333","25.2218283333333"
"237004","078-UY","2016/12/23 18:29:19","新北市三峽區金敏30號","121.389333333333","24.8738983333333"
"237007","153-BY","2016/12/23 18:29:16","新北市三峽區中正路三段70巷110號","121.355153333333","24.90552"
"237009","210-TH","2016/12/23 18:29:15","新北市三峽區大同路270巷17號","121.365225","24.9259416666667"
"237013","252-BX","2016/12/23 18:29:22","新北市三峽區光明路69巷25號","121.376678333333","24.9292516666667"
"237012","275-BY","2016/12/23 18:29:17","新北市三峽區三樹路112號","121.378305","24.9392533333333"
"237008","302-VK","2016/12/23 18:29:22","新北市三峽區白雞129-1號","121.398205","24.9057133333333"
"237014","433-BY","2016/12/23 18:29:23","新北市三峽區文化路81號","121.371541666667","24.9360833333333"
"237006","5529-G3","2016/12/23 18:29:11","新北市三峽區溪東路370號","121.413518333333","24.92797"
"237011","572-TV","2016/12/23 18:29:15","新北市三峽區溪東路367號","121.411688333333","24.9292633333333"
"237015","649-BX","2016/12/23 18:29:25","新北市三峽區紫微南路13-1號","121.4228","24.917925"
"237010","706-TV","2016/12/23 18:29:18","新北市三峽區復興路449號","121.362513333333","24.938545"
"237005","AKY-6261","2016/12/23 18:29:21","新北市三峽區民權街67號","121.36948","24.9330483333333"
"236072","105-UM","2016/12/23 18:29:19","新北市土城區永豐路255巷27弄47號","121.477088333333","24.9735633333333"
"236043","107-UM","2016/12/23 18:29:04","新北市土城區裕民路59號","121.449225","24.9878466666667"
"236079","166-UM","2016/12/23 18:29:21","新北市土城區中央路四段27巷10弄2號","121.424701666667","24.9618816666667"
"236031","253-BX","2016/12/23 18:29:20","新北市土城區中華路二段169巷5號","121.43928","24.97557"
"236027","269-VK","2016/12/23 18:29:07","新北市土城區南天母路18-3號","121.44819","24.95304"
"236015","270-VK","2016/12/23 18:29:15","新北市土城區立清街69號","121.460336666667","24.9873416666667"
"236039","271-VK","2016/12/23 18:29:24","新北市土城區青雲路483巷10弄1號","121.459538333333","24.973545"
"236022","401-BY","2016/12/23 18:29:14","新北市土城區永豐路202巷7-1號","121.466171666667","24.9832833333333"
"236006","498-BY","2016/12/23 15:37:54","新北市土城區永平街51號","121.427673333333","24.9591683333333"
"236059","912-UM","2016/12/23 18:29:18","新北市土城區中央路四段466號","121.409928333333","24.950605"
"236050","913-UM","2016/12/23 18:29:15","新北市土城區明德路一段275號","121.46101","24.97748"
"236063","915-UM","2016/12/23 18:29:10","新北市土城區延壽路115巷1號","121.469116666667","24.9941283333333"
"236055","AAC-216","2016/12/23 18:29:20","新北市土城區中華路二段87-1號","121.439346666667","24.977845"
"242027","986-R7","2016/12/23 18:29:06","新北市新莊區幸福路599號","121.453338333333","25.049155"
"242046","751-BX","2016/12/23 18:29:24","新北市新莊區民安路16-27號","121.42244","25.0281133333333"
"242060","613-BX","2016/12/23 18:29:19","新北市新莊區富國路176巷7號","121.424246666667","25.0240566666667"
"242044","441-UM","2016/12/23 18:29:12","新北市新莊區中正路新旺巷6號","121.41555","25.023405"
"242037","400-BY","2016/12/23 18:29:08","新北市新莊區新樹路67巷32號","121.44036","25.0303033333333"
"242058","362-BY","2016/12/23 18:29:21","新北市新莊區中正路879-1號","121.417856666667","25.0264483333333"
"242032","133-UY","2016/12/23 18:29:19","新北市新莊區新泰路357巷3弄57號","121.441975","25.039635"
"242042","172-VK","2016/12/23 18:29:19","新北市泰山區中山路二段757號","121.42899","25.039275"
"242011","175-VK","2016/12/23 18:29:18","新北市新莊區中平路264號","121.444926666667","25.049835"
"242054","176-VK","2016/12/23 18:29:18","新北市新莊區新樹路300-5號","121.432796666667","25.00616"
"242034","347-TH","2016/12/23 17:22:18","新北市新莊區瓊林路59-79號","121.44448","25.0267383333333"
"238015","755-BX","2016/12/23 18:29:18","新北市樹林區啟智街124巷1號","121.416068333333","24.987795"
"238023","601-UM","2016/12/23 18:29:16","新北市樹林區忠義街27巷1號","121.409781666667","25.0142183333333"
"238019","599-UM","2016/12/23 18:29:05","新北市樹林區中華路190號","121.412181666667","24.98051"
"238018","571-TV","2016/12/23 18:29:15","新北市樹林區保安街一段18-3號","121.4275","24.9934183333333"
"238024","5061-A6","2016/12/23 18:29:12","新北市樹林區中山路一段149-3號","121.42219","24.9891133333333"
"238021","311-TH","2016/12/23 18:29:07","新北市樹林區柑園街二段149巷1號","121.38234","24.9538683333333"
"238025","303-VK","2016/12/23 18:29:16","新北市樹林區保安街一段198號","121.421426666667","24.9956866666667"
"238017","283-BY","2016/12/23 18:29:13","新北市樹林區光榮街3巷1號","121.4131","25.004"
"238014","282-BY","2016/12/23 18:29:14","新北市樹林區大安路111巷11號","121.423113333333","24.9976683333333"
"238007","268-VK","2016/12/23 18:29:22","新北市樹林區三俊街21號","121.411781666667","25.015505"
"238026","172-UY","2016/12/23 18:29:24","新北市樹林區佳園路一段75巷72號","121.396016666667","24.9703633333333"
"238016","169-UY","2016/12/23 18:29:23","新北市樹林區文化街28號","121.419246666667","24.9876966666667"
"239007","AAC-297","2016/12/23 18:29:13","新北市鶯歌區中正一路建德巷22號","121.364825","24.957395"
"239006","891-R6","2016/12/23 18:29:08","新北市鶯歌區鶯桃路296巷53號","121.33581","24.96138"
"239008","527-UM","2016/12/23 18:29:20","新北市鶯歌區國際一路14號","121.3362","24.97653"
"239005","526-UM","2016/12/23 18:29:08","新北市鶯歌區鶯桃路二段48號","121.325455","24.9725883333333"
"239001","417-VK","2016/12/23 18:29:22","新北市鶯歌區建國路473號","121.339883333333","24.952465"
"239003","360-BY","2016/12/23 18:29:24","新北市鶯歌區鶯桃路479號","121.331808333333","24.9660816666667"
"239002","359-BY","2016/12/23 18:29:20","新北市鶯歌區國慶街167號","121.351221666667","24.9531"
"239004","193-VK","2016/12/23 18:29:17","新北市鶯歌區尖山路302巷18號","121.341758333333","24.9432483333333"
"221008","129-UY","2016/12/23 18:29:09","新北市汐止區康寧街901號","121.651433333333","25.0750583333333"
"221036","130-UY","2016/12/23 18:29:12","新北市汐止區長興街一段50號","121.670816666667","25.079775"
"221015","131-UY","2016/12/23 18:29:16","新北市汐止區長江街355號","121.66743","25.082445"
"221010","269-BY","2016/12/23 18:29:26","新北市汐止區汐萬路三段225號","121.643813333333","25.104485"
"221025","277-VK","2016/12/23 18:29:13","新北市汐止區仁愛路122巷18號","121.663506666667","25.063215"
"221012","278-VK","2016/12/23 18:28:33","新北市汐止區保長路51巷14號","121.673908333333","25.0789183333333"
"221023","279-VK","2016/12/23 18:29:16","新北市汐止區康寧街474巷7號","121.632223333333","25.0680183333333"
"221032","280-BY","2016/12/23 18:29:17","新北市汐止區福山街62巷3號","121.61813","25.04667"
"221027","281-BY","2016/12/23 18:29:09","新北市汐止區和平街84號","121.661386666667","25.0707983333333"
"221038","297-VK","2016/12/23 18:29:08","新北市汐止區仁愛路313號","121.664686666667","25.0675516666667"
"221029","298-VK","2016/12/23 18:29:15","新北市汐止區樟樹一路219號","121.642975","25.069725"
"221021","299-VK","2016/12/23 18:29:06","新北市汐止區新台五路一段91-2號","121.650155","25.0612816666667"
"221031","353-TW","2016/12/23 18:29:11","新北市汐止區中興路27巷4號","121.63509","25.061125"
"221033","647-BX","2016/12/23 18:29:21","新北市汐止區宜興街13號","121.621373333333","25.0416583333333"
"221002","707-TV","2016/12/23 18:29:19","新北市汐止區福德一路158號","121.636406666667","25.06657"
"221018","753-BX","2016/12/23 18:29:19","新北市汐止區茄苳路224巷3弄11號","121.670996666667","25.0682366666667"
"220080","200-UY","2016/12/23 18:29:06","新北市板橋區華東街1-9號","121.448233333333","24.9948683333333"
"220069","258-TC","2016/12/23 18:29:22","新北市板橋區民生路二段36-1號","121.472568333333","25.0165583333333"
"220056","276-BY","2016/12/23 18:29:19","新北市板橋區中山路一段285號","121.47015","25.0140783333333"
"220005","280-UM","2016/12/23 18:29:13","新北市板橋區民生路二段36-1號","121.47257","25.0165916666667"
"220094","285-UM","2016/12/23 18:29:05","新北市板橋區莊敬路208巷8弄9號","121.470565","25.0202883333333"
"220053","285-VK","2016/12/23 18:29:13","新北市板橋區民生路二段22號","121.47273","25.0166266666667"
"220084","296-UM","2016/12/23 18:26:59","新北市板橋區華東街1-9號","121.448158333333","24.9948966666667"
"220063","609-BX","2016/12/23 15:21:12","新北市板橋區民生路二段16-1號","121.473148333333","25.0164716666667"
"220070","AAC-253","2016/12/23 18:29:14","新北市板橋區民生路二段22號","121.472825","25.0165466666667"
