"lineid","car","time","location","longitude","latitude"
"234044","148-BY","2016/11/03 12:47:14","新北市永和區永元路40巷49號","121.523981666667","25.0006333333333"
"234012","149-BY","2016/11/03 12:47:05","新北市永和區保福路二段133巷34號","121.508863333333","25.0133916666667"
"234005","207-UY","2016/11/03 12:47:12","新北市永和區文化路78號","121.514113333333","25.0151866666667"
"234078","298-R6","2016/11/03 12:47:16","新北市永和區林森路100號","121.523038333333","25.0035"
"234062","337-UY","2016/11/03 12:47:21","新北市永和區福和路1號","121.526446666667","25.0099"
"234084","338-UY","2016/11/03 12:47:20","新北市中和區安平路30號","121.50955","24.9947416666667"
"234068","552-UM","2016/11/03 12:47:07","新北市永和區竹林路96巷2號","121.519291666667","25.012165"
"234052","553-UM","2016/11/03 12:47:17","新北市永和區豫溪街139號","121.520556666667","25.01034"
"234016","745-BX","2016/11/03 12:47:21","新北市永和區永和路二段405巷3號","121.515305","25.0171816666667"
"234028","746-BX","2016/11/03 12:47:18","新北市永和區得和路338號","121.52356","24.9994916666667"
"234060","839-RS","2016/11/03 12:47:16","新北市永和區福和路307號","121.516253333333","25.0072516666667"
"234072","840-RS","2016/11/03 12:47:18","新北市永和區福和路1號","121.526216666667","25.0095883333333"
"234040","862-TW","2016/11/03 12:47:15","新北市永和區永貞路267號","121.511895","25.004765"
"234048","863-TW","2016/11/03 12:47:10","新北市永和區保安路2號","121.510893333333","25.0174516666667"
"234010","9381-KE","2016/11/03 12:47:03","新北市永和區保福路二段156號","121.509143333333","25.0149966666667"
"248017","225-UY","2016/11/03 12:47:06","新北市五股區中興路二段83巷26-3號","121.46017","25.075295"
"234022","9380-KE","2016/11/03 12:47:16","新北市永和區竹林路119巷26號","121.521261666667","25.011825"
"234076","969-R7","2016/11/03 12:47:03","新北市永和區中正路68號","121.513535","24.9949633333333"
"234036","AAC-211","2016/11/03 12:47:09","新北市永和區成功路一段32號","121.526956666667","25.0046483333333"
"234066","AAC-212","2016/11/03 12:47:14","新北市永和區自由街74號","121.51327","25.0054383333333"
"234001","AAC-295","2016/11/03 12:47:18","新北市永和區福和路285號","121.517326666667","25.0073833333333"
"232010","375-UM","2016/11/03 08:20:53","新北市坪林區北宜路八段558號","121.71793","24.9092133333333"
"244006","080-UY","2016/11/03 09:57:39","新北市林口區粉寮69號","121.40499","25.0908916666667"
"244003","248-BX","2016/11/03 09:33:00","新北市林口區粉寮路二段160巷28號","121.405161666667","25.0907266666667"
"231029","001-UM","2016/11/03 12:47:19","新北市新店區安華路28-1號","121.519451666667","24.960835"
"231006","002-UM","2016/11/03 12:47:15","新北市新店區安華路28-1號","121.519586666667","24.96093"
"231004","046-UY","2016/11/03 12:47:08","新北市新店區安華路28-1號","121.519603333333","24.96096"
"231035","107-UY","2016/11/03 12:47:09","新北市新店區安華路28-1號","121.519625","24.9611983333333"
"231013","187-VK","2016/11/03 12:47:03","新北市新店區安華路28-1號","121.519501666667","24.9611183333333"
"231008","188-VK","2016/11/03 12:47:07","新北市新店區新烏路三段220巷24號","121.545891666667","24.90431"
"231007","189-VK","2016/11/03 12:03:45","新北市新店區安華路28-1號","121.519641666667","24.9611083333333"
"231036","192-VK","2016/11/03 12:47:02","新北市新店區安華路28-1號","121.51964","24.9612216666667"
"231038","3712-VJ","2016/11/03 12:47:12","新北市新店區安華路28-1號","121.519363333333","24.9607533333333"
"231027","3713-VJ","2016/11/03 12:47:10","新北市新店區安華路28-1號","121.519333333333","24.96075"
"231037","4715-K9","2016/11/03 12:47:02","新北市新店區安華路28-1號","121.519428333333","24.9606216666667"
"231018","513-UM","2016/11/03 12:47:12","新北市新店區安華路28-1號","121.519596666667","24.9613066666667"
"231026","515-UM","2016/11/03 12:47:03","新北市新店區安華路28-1號","121.519695","24.9612433333333"
"231028","617-UM","2016/11/03 12:47:18","新北市新店區安華路28-1號","121.519485","24.9608966666667"
"231005","619-UM","2016/11/03 12:47:02","新北市新店區安華路28-1號","121.519555","24.9608216666667"
"231017","718-UY","2016/11/03 01:31:30","新北市新店區安華路28-1號","121.519406666667","24.961075"
"231031","719-UY","2016/11/03 12:47:13","新北市新店區安華路28-1號","121.519363333333","24.9613666666667"
"231024","AKT-0513","2016/11/03 12:47:09","新北市新店區安華路28-1號","121.519551666667","24.9608"
"235003","097-UM","2016/11/03 12:47:04","新北市中和區和城路一段271巷1號","121.485436666667","24.991775"
"235031","255-BX","2016/11/03 12:47:11","新北市中和區新民街96號","121.481201666667","25.008505"
"235036","301-VK","2016/11/03 12:47:14","新北市中和區員山路36巷16-2號","121.48519","24.9914016666667"
"220016","013-TV","2016/11/03 12:47:02","新北市板橋區民生路二段36-1號","121.472571666667","25.0166866666667"
"223002","198-BX","2016/11/03 09:15:42","新北市石碇區小粗坑(潭邊里)9-2號","121.678493333333","24.985745"
"223005","677-TV","2016/11/03 09:40:20","新北市石碇區小粗坑(潭邊里)9-2號","121.679056666667","24.9863266666667"
"228004","212-TW","2016/11/03 12:04:55","新北市貢寮區貢寮里貢寮街69號","121.909018333333","25.0198966666667"
"228005","670-TC","2016/11/03 12:47:13","新北市貢寮區福連里福連街37號","121.98871","25.0110533333333"
"227007","400-TW","2016/11/03 08:53:50","新北市雙溪區三貂里政光路3-1號","121.850898333333","25.0630766666667"
"207002","749-BX","2016/11/03 12:47:13","新北市萬里區雙興里太和路10-1號","121.656338333333","25.1736316666667"
"207001","291-VK","2016/11/03 12:47:05","新北市萬里區萬里里瑪鋉路261-1號","121.689855","25.1795583333333"
"236001","339-SR","2016/11/03 10:45:15","新北市土城區永平街51號","121.427621666667","24.9591733333333"
"236006","498-BY","2016/11/03 11:12:08","新北市土城區永平街51號","121.427623333333","24.95914"
"221032","280-BY","2016/11/03 12:47:20","新北市汐止區大同路二段537號","121.662043333333","25.0692333333333"
"221002","488-VK","2016/11/03 10:37:25","新北市汐止區汐萬路一段256巷3號","121.652688333333","25.0744733333333"
"221018","753-BX","2016/11/03 12:47:01","新北市汐止區汐萬路一段312號","121.650601666667","25.075385"
"220020","277-BY","2016/11/03 12:47:06","新北市板橋區華東街1-9號","121.44828","24.9948733333333"
