"lineid","car","time","location","longitude","latitude"
"234081","298-R6","2016/10/22 21:41:30","新北市永和區福和路1號","121.526408333333","25.0098733333333"
"234030","746-BX","2016/10/22 21:04:45","新北市永和區福和路1號","121.526261666667","25.00961"
"249001","173-UM","2016/10/22 20:23:26","新北市八里區中華路二段586號","121.397951666667","25.144305"
"248014","025-BX","2016/10/22 19:20:11","新北市五股區民義路一段107巷32號","121.432231666667","25.0844866666667"
"248016","026-BX","2016/10/22 17:39:24","新北市五股區中興路二段83巷26-6號","121.460121666667","25.0750716666667"
"234077","969-R7","2016/10/22 21:00:46","新北市永和區福和路1號","121.526515","25.0098033333333"
"244013","069-UM","2016/10/22 20:51:49","新北市林口區粉寮69號","121.405106666667","25.090785"
"244006","080-UY","2016/10/22 19:39:22","新北市林口區後坑34-1號","121.349165","25.1288316666667"
"244023","483-VK","2016/10/22 19:38:42","新北市林口區粉寮路67-2號","121.40477","25.0907983333333"
"244017","485-VK","2016/10/22 18:25:49","新北市林口區公園路23號","121.366845","25.0677133333333"
"244011","701-TV","2016/10/22 20:46:08","新北市林口區粉寮路二段160巷28號","121.40519","25.090735"
"222002","659-BX","2016/10/22 18:09:17","新北市深坑區文化街42號","121.61905","25.00158"
"231060","001-UM","2016/10/22 21:47:38","新北市新店區安華路28-1號","121.519748333333","24.960655"
"231043","046-UY","2016/10/22 21:47:34","新北市新店區安華路16號","121.51579","24.957915"
"231040","106-UY","2016/10/22 21:47:52","新北市新店區薏仁坑路自強巷1號","121.49688","24.9582133333333"
"231012","256-BX","2016/10/22 16:47:01","新北市新店區安華路28-1號","121.519751666667","24.9610966666667"
"231067","4772-VM","2016/10/22 21:18:07","新北市新店區安德街60巷13-1號","121.510535","24.9624283333333"
"231068","512-UM","2016/10/22 19:45:14","新北市新店區安華路28-1號","121.519298333333","24.96134"
"231018","513-UM","2016/10/22 18:05:58","新北市新店區安華路28-1號","121.519665","24.961215"
"231026","515-UM","2016/10/22 21:38:00","新北市新店區安華路28-1號","121.51944","24.9611516666667"
"231050","718-UY","2016/10/22 21:47:23","新北市新店區安康路二段320巷15弄2號","121.504563333333","24.9598183333333"
"241006","398-BY","2016/10/22 21:47:24","新北市八里區中山路三段247號","121.381583333333","25.1402716666667"
"235028","005-UY","2016/10/22 21:23:32","新北市中和區員山路36巷12號","121.483975","24.99097"
"235039","097-UM","2016/10/22 21:47:36","新北市中和區和城路一段271巷1號","121.485508333333","24.9916683333333"
"235040","150-BY","2016/10/22 21:10:28","新北市中和區員山路36巷16-2號","121.48531","24.991775"
"235072","301-VK","2016/10/22 21:47:51","新北市中和區員山路36巷16-3號","121.48505","24.9912383333333"
"235070","558-UM","2016/10/22 21:47:47","新北市中和區員山路36巷16-3號","121.484695","24.9911266666667"
"235060","647-TV","2016/10/22 21:47:23","新北市中和區員山路36巷16-3號","121.48499","24.9913066666667"
"235047","732-UM","2016/10/22 20:47:05","新北市新店區薏仁坑路自強巷1號","121.496911666667","24.9581633333333"
"235026","800-TS","2016/10/22 20:40:06","新北市中和區員山路36巷16-3號","121.484961666667","24.991395"
"235037","AAC-213","2016/10/22 21:39:26","新北市中和區員山路36巷13號","121.484405","24.99109"
"220016","013-TV","2016/10/22 21:36:06","新北市板橋區民生路二段22號","121.472696666667","25.0165416666667"
"247018","893-R6","2016/10/22 19:19:09","新北市蘆洲區復興路323巷150號","121.480051666667","25.09529"
"247012","057-VK","2016/10/22 21:47:51","新北市八里區中山路三段409號","121.368621666667","25.1356016666667"
"223006","022-BY","2016/10/22 10:17:52","新北市石碇區小粗坑(潭邊里)9-2號","121.679053333333","24.9857016666667"
"223008","406-TH","2016/10/22 10:00:44","新北市石碇區小粗坑(潭邊里)2-1號","121.671495","24.9825166666667"
"224010","AGQ-810","2016/10/22 20:44:17","新北市瑞芳區明燈路二段46號","121.809501666667","25.10811"
"224009","275-VK","2016/10/22 20:15:02","新北市瑞芳區大寮路356-1號","121.784598333333","25.103255"
"253005","295-VK","2016/10/22 19:03:48","新北市石門區尖子鹿105號","121.576838333333","25.2976066666667"
"253003","6232-TK","2016/10/22 18:01:19","新北市石門區大丘田45-3號","121.54952","25.2770583333333"
"251004","009-UM","2016/10/22 21:47:47","新北市淡水區民權路233號","121.461305","25.1282383333333"
"251005","010-UM","2016/10/22 21:47:51","新北市淡水區鄧公路30巷26號","121.453416666667","25.16977"
"251014","180-VK","2016/10/22 21:47:30","新北市淡水區下圭柔山116號","121.448613333333","25.2105883333333"
"251008","181-VK","2016/10/22 21:47:26","新北市淡水區學府路104號","121.449845","25.1717533333333"
"251016","442-VK","2016/10/22 20:41:22","新北市淡水區後洲子7號","121.449133333333","25.2239083333333"
"251001","559-UM","2016/10/22 21:47:23","新北市淡水區義山路一段401巷62號","121.437086666667","25.1931883333333"
"251006","561-UM","2016/10/22 21:47:32","新北市淡水區中正路11巷1號","121.439161666667","25.16984"
"251011","650-BX","2016/10/22 20:37:42","新北市淡水區新市一路一段306號","121.436156666667","25.1862116666667"
"251002","672-BX","2016/10/22 20:52:33","新北市淡水區英專路63號","121.445628333333","25.1710733333333"
"251003","673-BX","2016/10/22 21:47:29","新北市淡水區新春街103-3號","121.440106666667","25.1819933333333"
"251010","766-UM","2016/10/22 21:47:46","新北市淡水區中正路二段397號","121.425153333333","25.191415"
"252002","178-VK","2016/10/22 21:11:32","新北市三芝區埔坪里埔頭坑41號","121.50466","25.2645716666667"
"252004","249-BX","2016/10/22 19:49:13","新北市三芝區埔坪里埔頭坑41號","121.504518333333","25.2644566666667"
"237013","252-BX","2016/10/22 20:37:55","新北市三峽區中山路459巷137號","121.349766666667","24.933765"
"237008","302-VK","2016/10/22 21:17:31","新北市三峽區中山路459巷137號","121.34976","24.9337316666667"
"237006","5529-G3","2016/10/22 20:57:01","新北市三峽區中山路459巷137號","121.349998333333","24.93401"
"236043","107-UM","2016/10/22 21:09:21","新北市土城區城林路6巷80號","121.438343333333","24.9797983333333"
"242057","705-TV","2016/10/22 19:28:10","新北市新莊區新泰路357巷3弄57號","121.442065","25.0391083333333"
"242061","613-BX","2016/10/22 19:50:22","新北市新莊區中環路一段10號","121.44284","25.0258333333333"
"242034","566-BX","2016/10/22 20:08:30","新北市新莊區華興街24號","121.446021666667","25.0356166666667"
"242032","133-UY","2016/10/22 20:30:13","新北市新莊區三和路60-19號","121.437783333333","25.0418266666667"
"242004","346-TH","2016/10/22 19:17:52","新北市新莊區三和路12-21號","121.442091666667","25.0386866666667"
"242015","348-TH","2016/10/22 20:49:27","新北市新莊區中正路222號","121.448666666667","25.0356666666667"
"238024","5061-A6","2016/10/22 17:17:51","新北市樹林區鎮前街128號","121.42478","24.9908316666667"
"238022","312-TH","2016/10/22 20:31:24","新北市樹林區育德街78-1號","121.387773333333","24.96811"
"238020","268-VK","2016/10/22 20:47:52","新北市樹林區中山路三段204號","121.386723333333","24.9681983333333"
"238016","169-UY","2016/10/22 20:08:12","新北市樹林區中山路三段204號","121.386851666667","24.9683366666667"
"239001","417-VK","2016/10/22 20:24:53","新北市鶯歌區二甲路13號","121.34393","24.9354433333333"
"221036","130-UY","2016/10/22 21:04:06","新北市汐止區汐萬路一段256巷1號","121.651783333333","25.0747916666667"
"221015","131-UY","2016/10/22 21:21:18","新北市汐止區汐萬路一段256巷1號","121.651826666667","25.0748266666667"
"221032","280-BY","2016/10/22 20:59:05","新北市汐止區汐萬路一段256巷1號","121.651906666667","25.0747966666667"
"221035","622-UM","2016/10/22 21:29:31","新北市汐止區汐萬路一段256巷1號","121.652","25.0748133333333"
"220071","283-VK","2016/10/22 21:13:10","新北市板橋區民生路二段22號","121.472768333333","25.0165433333333"
"220001","285-VK","2016/10/22 21:29:22","新北市板橋區民生路二段36-1號","121.472613333333","25.016545"
"220002","741-BX","2016/10/22 21:20:02","新北市板橋區民生路二段22號","121.472696666667","25.0165566666667"
"220070","AAC-253","2016/10/22 21:00:53","新北市樹林區環河路600號","121.404465","24.96931"
