"lineid","car","time","location","longitude","latitude"
"231008","188-VK","2016/12/24 11:03:53","新北市新店區小坑一路56-1號","121.526935","24.9091566666667"
"231007","189-VK","2016/12/24 11:06:36","新北市新店區新潭路一段160巷17號","121.529625","24.9319766666667"
"227006","282-VK","2016/12/24 11:08:40","新北市雙溪區魚行里坤溪8號","121.866333333333","25.0213333333333"
"252003","249-BX","2016/12/24 10:48:00","新北市三芝區埔坪里埔頭坑41號","121.504423333333","25.264495"
"236005","498-BY","2016/12/24 11:08:20","新北市土城區中央路三段92-2號","121.435778333333","24.9666166666667"
