"lineid","car","time","location","longitude","latitude"
"231008","188-VK","2016/12/24 11:59:27","新北市新店區成功路91號","121.537608333333","24.8953116666667"
"228005","670-TC","2016/12/24 11:59:25","新北市貢寮區貢寮里朝陽街1-2號","121.91249","25.0213583333333"
"227006","282-VK","2016/12/24 11:59:19","新北市雙溪區魚行里魚杭14號","121.875875","25.0304283333333"
"252003","249-BX","2016/12/24 10:48:00","新北市三芝區埔坪里埔頭坑41號","121.504423333333","25.264495"
"236005","498-BY","2016/12/24 11:14:46","新北市土城區永平街51號","121.427633333333","24.9591533333333"
