"lineid","car","time","location","longitude","latitude"
"231008","188-VK","2016/12/24 12:08:27","新北市新店區成功路91號","121.537591666667","24.8952816666667"
"228004","212-TW","2016/12/24 12:07:34","新北市貢寮區貢寮里貢寮街41號","121.908433333333","25.01953"
"228005","670-TC","2016/12/24 12:08:05","新北市貢寮區福隆里桂安街1-1號","121.955066666667","25.020535"
"227006","282-VK","2016/12/24 12:08:20","新北市雙溪區魚行里魚杭14號","121.875476666667","25.02902"
"207002","749-BX","2016/12/24 12:08:19","新北市萬里區中幅里中福路127-1號","121.675073333333","25.1655966666667"
"252003","249-BX","2016/12/24 10:48:00","新北市三芝區埔坪里埔頭坑41號","121.504423333333","25.264495"
"236005","498-BY","2016/12/24 11:14:46","新北市土城區永平街51號","121.427633333333","24.9591533333333"
