"lineid","car","time","location","longitude","latitude"
"243007","680-BX","2016/12/26 09:16:15","新北市泰山區黎明路25號","121.422193333333","25.0606933333333"
"231008","188-VK","2016/12/26 11:08:44","新北市新店區小坑一路21-1號","121.530138333333","24.9120383333333"
"231007","189-VK","2016/12/26 11:08:43","新北市新店區新潭路一段160巷17號","121.529591666667","24.9319983333333"
"227005","282-VK","2016/12/26 11:08:44","新北市雙溪區泰平里泰平54號","121.829768333333","24.97634"
"252006","073-UM","2016/12/26 10:51:00","新北市三芝區埔坪里埔頭坑41號","121.504455","25.2644666666667"
"252006","AAC-283","2016/12/26 01:42:00","新北市三芝區埔坪里埔頭坑41號","121.504396666667","25.2644183333333"
"242006","351-TH","2016/12/26 10:23:12","新北市新莊區新泰路357巷3弄57號","121.442058333333","25.039565"
