"lineid","car","time","location","longitude","latitude"
"243007","680-BX","2016/12/26 09:16:15","新北市泰山區黎明路25號","121.422193333333","25.0606933333333"
"231008","188-VK","2016/12/26 11:29:44","新北市新店區成功路50巷1號","121.54053","24.9000966666667"
"231007","189-VK","2016/12/26 11:29:43","新北市新店區新潭路一段1-1號","121.523241666667","24.9440016666667"
"231003","719-UM","2016/12/26 11:27:43","新北市新店區安康路二段296-3號","121.506071666667","24.9581366666667"
"227005","282-VK","2016/12/26 11:29:43","新北市雙溪區泰平里泰平1-5號","121.847616666667","24.9945016666667"
"252006","073-UM","2016/12/26 10:51:00","新北市三芝區埔坪里埔頭坑41號","121.504455","25.2644666666667"
"252006","AAC-283","2016/12/26 01:42:00","新北市三芝區埔坪里埔頭坑41號","121.504396666667","25.2644183333333"
"242006","351-TH","2016/12/26 10:23:12","新北市新莊區新泰路357巷3弄57號","121.442058333333","25.039565"
