"lineid","car","time","location","longitude","latitude"
"243007","680-BX","2016/12/26 09:16:15","新北市泰山區黎明路25號","121.422193333333","25.0606933333333"
"231008","188-VK","2016/12/26 11:31:01","新北市新店區成功路45號","121.539971666667","24.8984266666667"
"235031","255-BX","2016/12/26 11:42:56","新北市中和區和城路一段271巷1號","121.485478333333","24.991905"
"227005","282-VK","2016/12/26 11:50:23","新北市雙溪區魚行里丁子蘭坑17號","121.867196666667","25.01692"
"252006","073-UM","2016/12/26 10:51:00","新北市三芝區埔坪里埔頭坑41號","121.504455","25.2644666666667"
"252006","AAC-283","2016/12/26 01:42:00","新北市三芝區埔坪里埔頭坑41號","121.504396666667","25.2644183333333"
"242006","351-TH","2016/12/26 10:23:12","新北市新莊區新泰路357巷3弄57號","121.442058333333","25.039565"
