"lineid","car","time","location","longitude","latitude"
"234044","148-BY","2016/12/26 13:47:13","新北市永和區永元路122號","121.522953333333","25.0027716666667"
"234012","149-BY","2016/12/26 13:47:08","新北市永和區仁愛路186巷2號","121.509938333333","25.0126983333333"
"234005","207-UY","2016/12/26 13:47:18","新北市永和區中山路一段26號","121.51371","25.0106966666667"
"234078","298-R6","2016/12/26 13:47:09","新北市永和區林森路20巷7號","121.525898333333","25.0056733333333"
"234036","336-UY","2016/12/26 13:47:13","新北市永和區民樂街55巷12號","121.52791","24.998605"
"234062","337-UY","2016/12/26 13:47:16","新北市永和區中正路414號","121.517796666667","25.0020783333333"
"234084","338-UY","2016/12/26 13:47:22","新北市永和區永亨路165巷1-5號","121.526036666667","25.0041266666667"
"234068","552-UM","2016/12/26 13:47:11","新北市永和區竹林路101號","121.519798333333","25.0120166666667"
"234052","553-UM","2016/12/26 13:47:11","新北市永和區竹林路39巷28弄1號","121.519335","25.0149566666667"
"234015","745-BX","2016/12/26 13:47:10","新北市永和區文化路9巷2號","121.515286666667","25.014965"
"234028","746-BX","2016/12/26 13:47:21","新北市永和區民生路67巷25號","121.524116666667","24.997355"
"234060","839-RS","2016/12/26 13:46:40","新北市永和區民有街1號","121.515768333333","24.9974833333333"
"234072","847-RS","2016/12/26 13:47:19","新北市永和區竹林路179巷35號","121.522135","25.0102616666667"
"234040","862-TW","2016/12/26 13:47:07","新北市永和區中和路389巷16號","121.50823","25.00115"
"234048","863-TW","2016/12/26 13:47:19","新北市永和區保安路77號","121.50861","25.0149066666667"
"234025","9371-KE","2016/12/26 13:47:04","新北市永和區保生路55-1號","121.504501666667","25.010945"
"234010","9381-KE","2016/12/26 13:47:14","新北市永和區保福路二段15巷9號","121.51056","25.0109816666667"
"248015","026-BX","2016/12/26 13:47:12","新北市五股區凌雲路一段149巷42號","121.448608333333","25.1009183333333"
"248005","077-UY","2016/12/26 13:47:18","新北市五股區四維路173號","121.467936666667","25.0750516666667"
"248007","095-VK","2016/12/26 13:47:09","新北市五股區中興路一段151巷3號","121.465143333333","25.072815"
"248019","225-UY","2016/12/26 13:47:22","新北市五股區凌雲路三段92-2號","121.428175","25.1198883333333"
"248009","272-BY","2016/12/26 13:47:04","新北市五股區水碓七路1號","121.427931666667","25.0713666666667"
"248011","655-BX","2016/12/26 13:47:17","新北市五股區成泰路二段195巷1號","121.440338333333","25.087445"
"248001","678-BX","2016/12/26 13:47:20","新北市五股區成泰路三段460號","121.451423333333","25.1005066666667"
"234022","9380-KE","2016/12/26 13:47:06","新北市永和區中正路702巷18號","121.516433333333","25.01057"
"234076","969-R7","2016/12/26 13:47:16","新北市永和區民族街27巷3號","121.519121666667","24.99957"
"234066","AAC-212","2016/12/26 13:47:16","新北市永和區中山路一段177號","121.509413333333","25.008945"
"234001","AAC-295","2016/12/26 13:47:12","新北市永和區永和路一段42號","121.513058333333","25.0056333333333"
"244001","248-BX","2016/12/26 13:47:18","新北市林口區太平里11鄰35號","121.352928333333","25.1302783333333"
"243008","421-VK","2016/12/26 13:47:14","新北市泰山區明志路二段135號","121.427611666667","25.0507633333333"
"243004","539-UM","2016/12/26 13:47:14","新北市泰山區福興三街11號","121.43457","25.0577916666667"
"243005","646-TV","2016/12/26 13:47:18","新北市泰山區明志路三段206巷10號","121.423258333333","25.0380116666667"
"243007","680-BX","2016/12/26 13:47:17","新北市泰山區黎明路35號","121.421543333333","25.0603"
"231029","001-UM","2016/12/26 13:47:07","新北市新店區安康路二段125-1號","121.512358333333","24.9609983333333"
"231006","002-UM","2016/12/26 13:47:05","新北市新店區北宜路一段154號","121.540291666667","24.95375"
"231025","0291-UT","2016/12/26 13:47:13","新北市新店區中央五街15號","121.529661666667","24.9743416666667"
"231004","046-UY","2016/12/26 13:47:19","新北市新店區寶橋路41號","121.544575","24.974555"
"231001","106-UY","2016/12/26 13:47:14","新北市新店區三民路185號","121.535333333333","24.975415"
"231035","107-UY","2016/12/26 13:47:22","新北市新店區安忠路205巷8號","121.509186666667","24.954245"
"231023","108-UY","2016/12/26 13:47:22","新北市新店區國校路65巷1號","121.538355","24.954195"
"231010","110-UY","2016/12/26 13:47:20","新北市新店區平等街48巷2號","121.536115","24.972945"
"231013","187-VK","2016/12/26 13:47:13","新北市新店區建國路219號","121.537533333333","24.980965"
"231008","188-VK","2016/12/26 13:47:03","新北市新店區安康路二段218號","121.5098","24.9593466666667"
"231036","192-VK","2016/12/26 13:47:16","新北市新店區安祥路140號","121.47446","24.9559133333333"
"231011","256-BX","2016/12/26 13:47:12","新北市新店區德正街27巷29弄97號","121.545743333333","24.9726283333333"
"231003","268-BY","2016/12/26 13:47:07","新北市新店區中興路一段167號","121.542618333333","24.964375"
"231038","3712-VJ","2016/12/26 13:47:15","新北市新店區安華路30巷1號","121.519555","24.95934"
"231027","3713-VJ","2016/12/26 13:47:20","新北市新店區北宜路一段129號","121.540646666667","24.9531333333333"
"231037","4715-K9","2016/12/26 13:47:18","新北市新店區安康路三段246號","121.487698333333","24.951825"
"231018","513-UM","2016/12/26 13:47:10","新北市新店區中正路409巷26號","121.533795","24.9771516666667"
"231026","515-UM","2016/12/26 13:47:16","新北市新店區自由街47號","121.534758333333","24.9736566666667"
"231028","617-UM","2016/12/26 13:47:20","新北市新店區安和路三段29-1號","121.517503333333","24.9814183333333"
"231002","618-UM","2016/12/26 13:47:06","新北市新店區溪園路43巷3-1號","121.529768333333","24.9878366666667"
"231005","619-UM","2016/12/26 13:47:07","新北市新店區寶中路102號","121.54984","24.9790583333333"
"231034","641-BX","2016/12/26 13:47:07","新北市新店區達觀路16號","121.50303","24.9409266666667"
"231014","718-UY","2016/12/26 13:47:14","新北市新店區竹林路63號","121.552975","24.9513583333333"
"231019","719-UM","2016/12/26 13:47:18","新北市新店區新烏路169號","121.545828333333","24.9324483333333"
"231031","719-UY","2016/12/26 13:47:13","新北市新店區莒光路44巷21弄11-3號","121.518546666667","24.9520066666667"
"231030","897-TW","2016/12/26 13:47:17","新北市新店區秀山路72號","121.531346666667","24.9609916666667"
"231024","AKT-0513","2016/12/26 13:47:12","新北市新店區北新路一段271巷31-1號","121.539845","24.96713"
"235030","003-UY","2016/12/26 13:47:04","新北市中和區光華街12號","121.50418","25.0041366666667"
"235027","006-UY","2016/12/26 13:47:09","新北市中和區連城路347巷14號","121.488321666667","24.9951033333333"
"235020","096-UM","2016/12/26 13:47:04","新北市中和區員山路466巷15號","121.4807","25.006605"
"235003","097-UM","2016/12/26 13:47:07","新北市中和區景平路278巷14弄10號","121.514523333333","24.9929666666667"
"235029","098-UM","2016/12/26 13:47:08","新北市中和區莊敬路33巷40號","121.500156666667","25.0065616666667"
"235004","150-BY","2016/12/26 13:47:04","新北市中和區保健路50巷66號","121.509198333333","24.9952316666667"
"235022","151-BY","2016/12/26 13:47:09","新北市中和區圓通路320號","121.487048333333","24.988245"
"235019","183-VK","2016/12/26 13:47:03","新北市中和區莒光路120巷26號","121.471526666667","25.00174"
"235002","185-VK","2016/12/26 13:47:22","新北市中和區自立路141巷16號","121.523006666667","24.9934683333333"
"235013","186-VK","2016/12/26 13:47:18","新北市中和區景安路66號","121.5058","24.996615"
"235031","255-BX","2016/12/26 13:47:13","新北市中和區新生街220巷1弄15號","121.483478333333","24.997915"
"235008","293-VK","2016/12/26 13:47:21","新北市中和區復興路335號","121.500166666667","24.9901933333333"
"235036","301-VK","2016/12/26 13:47:15","新北市中和區板南路335號","121.49424","24.9978033333333"
"235007","352-BY","2016/12/26 13:47:18","新北市中和區景平路239號","121.509541666667","24.9928266666667"
"235015","376-QA","2016/12/26 13:47:06","新北市中和區興南路二段159巷1-1號","121.505091666667","24.983555"
"235032","377-QA","2016/12/26 13:47:18","新北市中和區中正路211巷24號","121.497001666667","24.9929666666667"
"235025","378-QA","2016/12/26 13:47:25","新北市中和區民享街43號","121.474015","25.0029433333333"
"235014","4979-A6","2016/12/26 13:47:14","新北市中和區忠孝街62巷9弄10號","121.513145","24.9839483333333"
"235033","4980-A6","2016/12/26 13:47:05","新北市中和區中和路127號","121.501778333333","25.0000133333333"
"235006","551-UM","2016/12/26 13:47:23","新北市中和區秀朗路三段175巷23號","121.525836666667","24.9909916666667"
"235034","558-UM","2016/12/26 13:47:09","新北市中和區南山路127巷18弄44號","121.503415","24.996475"
"235009","565-BX","2016/12/26 13:47:15","新北市中和區復興路1號","121.50638","24.9897316666667"
"235018","640-BX","2016/12/26 13:47:14","新北市中和區莒光路129巷2弄24號","121.472985","25.00121"
"235011","732-UM","2016/12/26 13:22:55","新北市中和區中正路746號","121.485358333333","24.99826"
"235010","733-UM","2016/12/26 13:47:25","新北市中和區南山路397號","121.506801666667","24.9900966666667"
"235035","783-BX","2016/12/26 13:47:22","新北市中和區中山路二段486號","121.487563333333","25.0054583333333"
"235026","800-TS","2016/12/26 13:47:05","新北市中和區中山路二段312巷33弄16號","121.494881666667","25.004065"
"235021","801-TS","2016/12/26 13:47:12","新北市中和區民安街42巷36號","121.478998333333","25.00127"
"235005","802-TS","2016/12/26 13:47:11","新北市永和區中和路573號","121.511798333333","25.003575"
"235016","805-TS","2016/12/26 13:47:03","新北市中和區中正路171號","121.497768333333","24.9935566666667"
"235012","896-TW","2016/12/26 13:47:08","新北市中和區中正路169號","121.498015","24.9936716666667"
"235017","900-TW","2016/12/26 13:47:03","新北市中和區莒光路211-37號","121.47024","24.9932083333333"
"235001","AAC-213","2016/12/26 13:47:18","新北市中和區景德街54號","121.517505","24.991465"
"235023","AAC-215","2016/12/26 13:47:06","新北市中和區錦和路354巷3號","121.490346666667","24.9915033333333"
"220016","013-TV","2016/12/26 13:47:19","新北市板橋區民生路二段22號","121.472745","25.016565"
"220013","072-UY","2016/12/26 13:47:17","新北市板橋區民生路二段17號","121.47273","25.0164283333333"
"220034","073-UY","2016/12/26 13:47:09","新北市板橋區大仁街107號","121.452643333333","25.0156533333333"
"220105","075-UY","2016/12/24 21:24:13","新北市板橋區民生路二段161巷9號","121.470171666667","25.0196133333333"
"247017","893-R6","2016/12/26 13:47:10","新北市蘆洲區民族路263巷19號","121.476138333333","25.0899466666667"
"247007","546-UM","2016/12/26 13:47:10","新北市蘆洲區永安北路二段76巷1號","121.48385","25.084735"
"247015","500-BY","2016/12/26 13:47:10","新北市蘆洲區三民路341-7號","121.463968333333","25.0913366666667"
"247003","341-TH","2016/12/26 13:47:08","新北市蘆洲區中原路48號","121.459161666667","25.08252"
"247005","339-TH","2016/12/26 13:47:05","新北市蘆洲區中山二路256號","121.469286666667","25.079"
"247021","337-TH","2016/12/26 13:47:07","新北市蘆洲區中正路263巷2號","121.467298333333","25.0873833333333"
"247023","336-TH","2016/12/26 13:47:08","新北市蘆洲區三民路591號","121.461271666667","25.0933866666667"
"247011","057-VK","2016/12/26 13:47:19","新北市蘆洲區中正路520巷9號","121.462591666667","25.0991766666667"
"247001","056-VK","2016/12/26 13:47:03","新北市蘆洲區三民路550號","121.461793333333","25.0935033333333"
"247009","007-UY","2016/12/26 13:47:20","新北市蘆洲區集賢路177-1號","121.486946666667","25.08933"
"247019","002-UY","2016/12/26 13:47:12","新北市蘆洲區民族路422巷48弄26號","121.474631666667","25.09305"
"247013","001-UY","2016/12/26 13:47:06","新北市蘆洲區中正路96號","121.47018","25.083975"
"208004","642-TV","2016/12/26 13:47:14","新北市金山區重和里三重橋27號","121.585655","25.1883366666667"
"208001","761-BX","2016/12/26 13:47:14","新北市深坑區北深路三段286巷41號","121.596205","25.0083833333333"
"207002","749-BX","2016/12/26 13:47:15","新北市萬里區崁腳里崁腳路166號","121.644908333333","25.1559616666667"
"207001","291-VK","2016/12/26 13:47:11","新北市萬里區磺潭里公館崙58號","121.628676666667","25.2056933333333"
"252005","AAC-283","2016/12/26 01:42:00","新北市三芝區埔坪里埔頭坑41號","121.504396666667","25.2644183333333"
"236064","105-UM","2016/12/26 13:47:25","新北市土城區城林路6巷80號","121.438325","24.9795733333333"
"236040","107-UM","2016/12/26 13:47:22","新北市土城區中央路二段191號","121.4422","24.9754583333333"
"236074","166-UM","2016/12/26 13:47:07","新北市土城區中央路三段41號","121.439216666667","24.9698983333333"
"236028","253-BX","2016/12/26 13:47:13","新北市土城區城林路6巷80號","121.438328333333","24.9798333333333"
"236024","269-VK","2016/12/26 13:47:03","新北市土城區承天路23號","121.43649","24.9656183333333"
"236012","270-VK","2016/12/26 13:47:07","新北市土城區城林路6巷80號","121.438418333333","24.9798333333333"
"236016","401-BY","2016/12/26 13:47:21","新北市土城區城林路6巷80號","121.43852","24.9797733333333"
"236005","498-BY","2016/12/26 13:47:17","新北市土城區中華路一段301號","121.44","24.9793033333333"
"236056","912-UM","2016/12/26 13:47:10","新北市土城區城林路6巷80號","121.438498333333","24.9797883333333"
"236044","913-UM","2016/12/26 13:47:21","新北市土城區城林路6巷80號","121.43835","24.9798133333333"
"236060","915-UM","2016/12/26 13:47:03","新北市土城區城林路6巷80號","121.438583333333","24.9797283333333"
"236052","AAC-216","2016/12/26 13:47:10","新北市土城區城林路6巷80號","121.438316666667","24.9797233333333"
"242040","172-VK","2016/12/26 13:47:05","新北市新莊區民安西路492號","121.432671666667","25.0072383333333"
"242006","351-TH","2016/12/26 10:23:12","新北市新莊區新泰路357巷3弄57號","121.442058333333","25.039565"
"220027","145-BY","2016/12/26 13:47:16","新北市板橋區民權路186號","121.459211666667","25.013525"
"220037","145-RM","2016/12/26 13:47:11","新北市板橋區民生路二段120號","121.47093","25.0194416666667"
"220028","200-UY","2016/12/26 13:47:06","新北市板橋區大觀路二段265巷76弄6號","121.442245","24.996725"
"220050","245-BX","2016/12/26 13:47:24","新北市板橋區民生路二段120號","121.470633333333","25.01972"
"220017","258-TC","2016/12/26 13:47:18","新北市板橋區民生路二段36-1號","121.472551666667","25.01656"
"220004","276-BY","2016/12/26 13:47:13","新北市板橋區四川路二段113號","121.451555","24.9943783333333"
"220020","277-BY","2016/12/26 13:47:05","新北市板橋區金門街49號","121.433481666667","24.993315"
"220019","283-VK","2016/12/26 13:47:14","新北市板橋區民生路二段36-1號","121.472495","25.0168783333333"
"220043","285-UM","2016/12/26 13:47:05","新北市板橋區民生路二段120號","121.470563333333","25.01949"
"220001","285-VK","2016/12/26 13:47:11","新北市板橋區民生路二段16號","121.472785","25.0164366666667"
"220031","286-VK","2016/12/26 13:47:17","新北市板橋區大觀路二段15號","121.44679","25.0034116666667"
"220029","287-VK","2016/12/26 13:47:21","新北市板橋區南雅西路二段177號","121.451871666667","25.012585"
"220039","288-VK","2016/12/26 13:47:11","新北市板橋區民生路二段161巷3號","121.47017","25.0197866666667"
"220009","293-UM","2016/12/26 13:47:05","新北市板橋區民生路二段36-1號","121.472486666667","25.016735"
"220032","296-UM","2016/12/26 13:47:21","新北市板橋區大觀路二段148巷28號","121.441973333333","24.9998516666667"
"220023","297-UM","2016/12/26 13:47:20","新北市板橋區華東街328號","121.452775","25.0033316666667"
"220010","305-R5","2016/12/26 03:23:07","新北市板橋區民生路二段16號","121.472771666667","25.0164083333333"
"220041","307-R5","2016/12/26 13:47:09","新北市板橋區民生路二段120號","121.470731666667","25.0197383333333"
"220047","317-R6","2016/12/26 13:47:10","新北市板橋區民生路二段120號","121.470466666667","25.0195433333333"
"220012","486-VK","2016/12/26 13:47:13","新北市板橋區民生路二段16號","121.472861666667","25.016405"
"220036","491-VK","2016/12/26 13:47:14","新北市板橋區民生路二段120號","121.470821666667","25.019565"
"220104","560-BX","2016/12/26 13:47:06","新北市板橋區南雅西路二段301巷29號","121.451795","25.0162766666667"
"220011","609-BX","2016/12/26 03:19:30","新北市板橋區民生路二段36-1號","121.472566666667","25.016655"
"220040","637-BX","2016/12/26 13:47:18","新北市板橋區民生路二段161巷1號","121.470146666667","25.0199333333333"
"220005","686-BX","2016/12/26 13:47:19","新北市板橋區民生路二段16號","121.472836666667","25.0163383333333"
"220025","687-BX","2016/12/26 13:47:14","新北市板橋區龍興街71巷53號","121.441566666667","25.0027016666667"
"220042","689-BX","2016/12/26 13:47:13","新北市板橋區民生路二段120號","121.470428333333","25.0197366666667"
"220002","741-BX","2016/12/26 13:47:12","新北市板橋區民生路二段36-1號","121.47224","25.016935"
"220030","806-UM","2016/12/26 13:47:22","新北市板橋區篤行路二段31號","121.431781666667","24.9926166666667"
"220014","829-TW","2016/12/26 13:47:15","新北市板橋區民生路二段12號","121.47332","25.0162583333333"
"220051","830-TW","2016/12/26 13:47:10","新北市板橋區民生路二段56-6號","121.471025","25.0190466666667"
"220045","831-TW","2016/12/26 03:24:05","新北市板橋區民生路二段120號","121.47035","25.0196616666667"
"220022","895-R6","2016/12/26 13:47:21","新北市板橋區南門街39號","121.457371666667","25.0087716666667"
"220021","985-R7","2016/12/26 13:47:16","新北市板橋區南雅南路二段18號","121.454583333333","25.003465"
"220046","AAC-210","2016/12/26 13:47:13","新北市板橋區民生路二段120號","121.470468333333","25.01965"
"220018","AAC-253","2016/12/26 13:47:14","新北市板橋區民生路二段22號","121.47288","25.0166366666667"
