"lineid","car","time","location","longitude","latitude"
"234026","9371-KE","2016/12/26 18:17:21","新北市永和區大新街17號","121.514838333333","25.0085383333333"
"234011","9381-KE","2016/12/26 18:17:16","新北市永和區竹林路75巷33弄45號","121.521246666667","25.0148233333333"
"249005","172-UM","2016/12/26 18:15:21","新北市八里區荖阡坑路15號","121.40166","25.1399916666667"
"249001","173-UM","2016/12/26 18:17:32","新北市八里區龍米路一段178號","121.451961666667","25.1274466666667"
"249004","303-UY","2016/12/26 18:17:23","新北市八里區龍米路二段236-3號","121.431575","25.1589466666667"
"249002","305-UY","2016/12/26 18:17:32","新北市八里區龍形二街18號","121.450648333333","25.1326733333333"
"249003","593-UM","2016/12/26 18:17:18","新北市八里區中華路二段331號","121.402025","25.1457516666667"
"248016","026-BX","2016/12/26 18:17:17","新北市五股區成泰路三段477巷18號","121.44991","25.0989016666667"
"248006","077-UY","2016/12/26 18:17:26","新北市五股區中興路一段201號","121.463536666667","25.0741466666667"
"248008","095-VK","2016/12/26 18:17:15","新北市五股區更洲路32巷8弄13-1號","121.459266666667","25.0796283333333"
"248018","225-UY","2016/12/26 18:17:30","新北市五股區御史路205-1號","121.431406666667","25.100465"
"248014","261-SL","2016/12/26 18:17:18","新北市五股區成泰路一段171巷13號","121.43439","25.0743633333333"
"248010","272-BY","2016/12/26 18:17:31","新北市五股區成泰路一段189巷2號","121.434588333333","25.0766033333333"
"248012","655-BX","2016/12/26 18:17:27","新北市五股區御史路1巷101弄2號","121.441063333333","25.09116"
"248002","678-BX","2016/12/26 18:15:59","新北市五股區西雲路22號","121.443241666667","25.09047"
"234077","969-R7","2016/12/26 18:17:15","新北市永和區福和路1號","121.526573333333","25.009875"
"232011","375-UM","2016/12/26 18:17:31","新北市坪林區國中路3號","121.71284","24.9369366666667"
"244013","069-UM","2016/12/26 18:17:31","新北市林口區中山路56號","121.394733333333","25.078515"
"244007","080-UY","2016/12/26 18:17:34","新北市林口區林口路134號","121.38827","25.0818933333333"
"244001","248-BX","2016/12/26 15:28:09","新北市林口區粉寮路二段160巷28號","121.405158333333","25.0907933333333"
"244019","403-UM","2016/12/26 18:17:29","新北市林口區麗園路83號","121.372953333333","25.0692583333333"
"244009","410-SL","2016/12/26 18:17:28","新北市林口區竹林路606巷28號","121.385371666667","25.0829933333333"
"244023","483-VK","2016/12/26 18:17:10","新北市林口區四維路245巷16號","121.381941666667","25.074995"
"244017","485-VK","2016/12/26 18:17:20","新北市林口區八德路48巷13號","121.36674","25.0666766666667"
"244011","701-TV","2016/12/26 18:17:33","新北市林口區中正路99號","121.394265","25.0772166666667"
"244025","837-TS","2016/12/26 18:17:14","新北市林口區文化北路一段192-100號","121.357563333333","25.0706366666667"
"244021","838-TS","2016/12/26 18:17:30","新北市林口區自強一街39號","121.398933333333","25.0778383333333"
"243014","380-SR","2016/12/26 17:45:32","新北市泰山區犁頭窠3-1號","121.422231666667","25.060585"
"243013","646-TV","2016/12/26 18:17:27","新北市泰山區南林路89-4號","121.41546","25.0512666666667"
"222003","436-BY","2016/12/26 18:17:31","新北市深坑區文山路二段31號","121.616605","24.9988266666667"
"222001","628-TS","2016/12/26 18:17:26","新北市深坑區北深路二段51號","121.618991666667","25.0041033333333"
"222002","659-BX","2016/12/26 18:17:22","新北市深坑區文化街1號","121.620765","25.0012733333333"
"231060","001-UM","2016/12/26 18:17:23","新北市新店區安華路28-1號","121.519483333333","24.9607133333333"
"231056","0291-UT","2016/12/26 18:17:32","新北市新店區安康路一段229號","121.525528333333","24.9630933333333"
"231043","046-UY","2016/12/26 18:17:22","新北市新店區安華路28-1號","121.519615","24.960945"
"231040","106-UY","2016/12/26 18:17:27","新北市新店區安華路28-1號","121.519636666667","24.9608866666667"
"231064","107-UY","2016/12/26 16:38:55","新北市新店區安華路28-1號","121.519695","24.9612033333333"
"231065","192-VK","2016/12/26 18:17:19","新北市新店區安華路28-1號","121.519761666667","24.96102"
"231042","268-BY","2016/12/26 18:17:30","新北市新店區安華路1-1號","121.519321666667","24.960415"
"231058","3713-VJ","2016/12/26 18:17:33","新北市新店區安康路一段100號","121.527488333333","24.9623533333333"
"231066","4715-K9","2016/12/26 18:17:26","新北市新店區安華路28-1號","121.519488333333","24.960565"
"231057","515-UM","2016/12/26 18:17:21","新北市新店區安華路28-1號","121.519866666667","24.9612666666667"
"231059","617-UM","2016/12/26 18:17:17","新北市新店區安華路28-1號","121.519456666667","24.9609433333333"
"231041","618-UM","2016/12/26 16:14:15","新北市新店區安華路28-1號","121.519315","24.9609033333333"
"231044","619-UM","2016/12/26 18:12:16","新北市新店區安華路28-1號","121.519718333333","24.9608266666667"
"231063","641-BX","2016/12/26 18:17:25","新北市新店區安華路1-1號","121.51951","24.9605166666667"
"231050","718-UY","2016/12/26 18:17:32","新北市新店區安華路28-1號","121.519471666667","24.961455"
"231052","719-UM","2016/12/26 18:17:21","新北市新店區安華路8號","121.519846666667","24.962555"
"231062","719-UY","2016/12/26 18:17:20","新北市新店區安康路一段359-27號","121.518901666667","24.96127"
"231061","897-TW","2016/12/26 18:17:23","新北市新店區安華路28-1號","121.519768333333","24.96088"
"231055","AKT-0513","2016/12/26 18:17:24","新北市新店區環河路18號","121.537331666667","24.9614416666667"
"241005","262-UM","2016/12/26 18:17:27","新北市新莊區瓊林南路61-87號","121.439443333333","25.0177683333333"
"241006","398-BY","2016/12/26 18:17:16","新北市三重區車路頭街128號","121.484165","25.0754866666667"
"241020","413-TH","2016/12/26 18:17:18","新北市林口區汕頭32號","121.36636","25.1348133333333"
"241033","AAC-255","2016/12/26 18:17:24","新北市三重區中興北街42巷13號","121.46898","25.0493566666667"
"235064","005-UY","2016/12/26 18:17:30","新北市中和區中正路171號","121.497823333333","24.9935616666667"
"235056","096-UM","2016/12/26 18:17:28","新北市中和區員山路516號","121.478998333333","25.0093866666667"
"235039","097-UM","2016/12/26 18:17:24","新北市中和區中正路637巷52弄1號","121.485445","24.993415"
"235065","098-UM","2016/12/26 18:17:21","新北市中和區莊敬路49巷18號","121.501653333333","25.0062083333333"
"235040","150-BY","2016/12/26 18:17:24","新北市中和區中正路305號","121.492431666667","24.99374"
"235058","151-BY","2016/12/26 18:17:20","新北市中和區圓通路367巷61弄2號","121.491763333333","24.9833483333333"
"235038","185-VK","2016/12/26 18:17:14","新北市中和區景平路177號","121.511875","24.99255"
"235051","376-QA","2016/12/26 18:17:24","新北市中和區中正路395號","121.489175","24.9935616666667"
"235061","378-QA","2016/12/26 18:17:20","新北市土城區延壽路2巷5號","121.472138333333","24.9901633333333"
"235050","4979-A6","2016/12/26 18:17:20","新北市中和區南山路325號","121.505221666667","24.9912416666667"
"235069","4980-A6","2016/12/26 18:17:23","新北市中和區連城路137號","121.495808333333","24.99885"
"235034","558-UM","2016/12/26 18:17:16","新北市中和區員山路36巷16-2號","121.485215","24.9915683333333"
"235045","565-BX","2016/12/26 18:17:19","新北市中和區中正路637巷52弄1號","121.485558333333","24.9933583333333"
"235054","640-BX","2016/12/26 18:17:31","新北市土城區金城路三段253號","121.471665","24.9900266666667"
"235062","800-TS","2016/12/26 18:17:20","新北市中和區中正路806號","121.484956666667","25.002475"
"235057","801-TS","2016/12/26 18:17:27","新北市中和區員山路36巷16-3號","121.485093333333","24.9914266666667"
"235048","896-TW","2016/12/26 18:17:25","新北市中和區員山路36巷12號","121.483925","24.99077"
"235037","AAC-213","2016/12/26 18:17:14","新北市中和區景平路157號","121.512915","24.9924066666667"
"235059","AAC-215","2016/12/26 18:12:32","新北市中和區員山路36巷16-3號","121.485035","24.9913033333333"
"220013","072-UY","2016/12/26 17:43:15","新北市板橋區民生路二段17號","121.472561666667","25.016405"
"247004","341-TH","2016/12/26 18:17:14","新北市林口區太平里180號","121.366701666667","25.134455"
"247024","336-TH","2016/12/26 18:13:49","新北市八里區下罟子8-10號","121.38351","25.1445766666667"
"247012","057-VK","2016/12/26 18:17:26","新北市八里區荖阡坑路20-9號","121.398478333333","25.137065"
"226004","312-R5","2016/12/26 18:17:32","新北市平溪區薯榔里一坑路68號","121.712878333333","25.022685"
"228003","097-TW","2016/12/26 18:17:24","新北市貢寮區真理里美艷山街25號","121.92346","25.0688216666667"
"228002","212-TW","2016/12/26 18:17:21","新北市貢寮區福連里馬崗街1號","121.99486","25.014725"
"228001","670-TC","2016/12/26 18:17:13","新北市貢寮區真理里新港街26巷55弄2-1號","121.927345","25.05286"
"224006","676-BX","2016/12/26 18:17:20","新北市瑞芳區民權街3-2號","121.808146666667","25.10734"
"224002","639-TC","2016/12/26 18:17:25","新北市瑞芳區三爪子坑路203號","121.81162","25.1057516666667"
"224007","285-BY","2016/12/26 18:17:25","新北市瑞芳區大寮路84號","121.780141666667","25.1012416666667"
"224009","275-VK","2016/12/26 18:17:31","新北市瑞芳區金光路262號","121.853423333333","25.1070366666667"
"224008","273-VK","2016/12/26 18:17:27","新北市瑞芳區明燈路二段83號","121.810275","25.108215"
"224005","271-BY","2016/12/26 18:17:28","新北市瑞芳區建基路二段66號","121.814893333333","25.1288266666667"
"227001","642-TC","2016/12/26 18:17:16","新北市雙溪區共和里中山路2號","121.863901666667","25.0338583333333"
"227008","400-TW","2016/12/26 18:17:30","新北市雙溪區牡丹里牡丹72號","121.851635","25.0603683333333"
"253005","295-VK","2016/12/26 18:17:29","新北市石門區中央路37-1號","121.567998333333","25.294295"
"253005","6251-TK","2016/12/26 18:17:18","新北市石門區中央路37-1號","121.568078333333","25.2949416666667"
"208003","665-BX","2016/12/26 18:17:26","新北市金山區民生路128號","121.647463333333","25.2236783333333"
"251004","009-UM","2016/12/26 18:17:23","新北市淡水區民族路31巷25號","121.462251666667","25.1363966666667"
"251001","011-UM","2016/12/26 18:17:14","新北市淡水區自強路100-1號","121.462326666667","25.1292483333333"
"251008","181-VK","2016/12/26 18:17:30","新北市淡水區淡金路10-2號","121.457711666667","25.16015"
"251013","182-VK","2016/12/26 18:17:20","新北市淡水區行忠路782號","121.472808333333","25.1996616666667"
"251010","413-VK","2016/12/26 18:17:17","新北市淡水區淡海路223號","121.42023","25.185405"
"251012","441-VK","2016/12/26 18:17:21","新北市淡水區北新路二段77-13號","121.48099","25.185505"
"251015","442-VK","2016/12/26 18:17:17","新北市淡水區興福寮88巷1號","121.48533","25.1648983333333"
"251005","443-VK","2016/12/26 18:17:27","新北市淡水區學府路51巷6弄5號","121.447366666667","25.169805"
"251006","561-UM","2016/12/26 18:16:41","新北市淡水區新民街28號","121.439508333333","25.175715"
"251011","650-BX","2016/12/26 18:17:25","新北市淡水區坪頂路86號","121.4625","25.1633316666667"
"251002","672-BX","2016/12/26 18:17:22","新北市淡水區中正東路一段129號","121.455515","25.1593883333333"
"251003","766-UM","2016/12/26 18:17:31","新北市淡水區北新路137號","121.449446666667","25.1788433333333"
"207003","550-UM","2016/12/26 18:17:14","新北市萬里區野柳里港東新村1號","121.68616","25.203055"
"207004","225-TW","2016/12/26 18:17:19","新北市萬里區中幅里中福路211號","121.67253","25.165115"
"252002","178-VK","2016/12/26 18:17:30","新北市三芝區中山路二段43號","121.502988333333","25.255075"
"252003","249-BX","2016/12/26 18:17:20","新北市三芝區古庄里四棧橋39-1號","121.482978333333","25.263505"
"252001","292-VK","2016/12/26 18:17:18","新北市三芝區中興街二段2號","121.49838","25.2566116666667"
"208002","170-UY","2016/12/26 18:17:29","新北市金山區清泉里清水路60巷9號","121.63302","25.2345133333333"
"237004","078-UY","2016/12/26 18:17:25","新北市三峽區圳頭35號","121.376","24.88723"
"237007","153-BY","2016/12/26 18:17:31","新北市三峽區中正路二段496巷2號","121.361861666667","24.90655"
"237009","210-TH","2016/12/26 18:17:26","新北市三峽區大仁路13巷1號","121.366585","24.93717"
"237013","252-BX","2016/12/26 18:17:21","新北市三峽區長泰街41巷10號","121.377531666667","24.9322583333333"
"237012","275-BY","2016/12/26 18:17:23","新北市三峽區民生街19巷7弄46號","121.377536666667","24.9352533333333"
"237008","302-VK","2016/12/26 18:17:25","新北市三峽區白雞68-323號","121.39162","24.9094966666667"
"237014","433-BY","2016/12/26 18:17:16","新北市三峽區復興路110巷3弄13號","121.372666666667","24.938665"
"237006","5529-G3","2016/12/26 18:17:30","新北市三峽區溪東路235號","121.406511666667","24.9325916666667"
"237011","572-TV","2016/12/26 18:17:25","新北市三峽區溪東路143-1號","121.40271","24.9342516666667"
"237015","649-BX","2016/12/26 18:17:24","新北市三峽區紫新路23巷2號","121.423026666667","24.9210766666667"
"237010","706-TV","2016/12/26 18:17:20","新北市三峽區民族街154號","121.36913","24.92834"
"237005","AKY-6261","2016/12/26 18:17:24","新北市三峽區秀川街26巷1號","121.371555","24.9343383333333"
"236069","105-UM","2016/12/26 18:17:22","新北市土城區明德路一段219號","121.4632","24.9785733333333"
"236042","107-UM","2016/12/26 18:17:30","新北市土城區裕生路21巷1弄1號","121.448503333333","24.9873033333333"
"236078","166-UM","2016/12/26 18:17:30","新北市土城區永安街11-1號","121.433963333333","24.9649933333333"
"236030","253-BX","2016/12/26 18:17:22","新北市土城區中央路二段178號","121.441561666667","24.97625"
"236026","269-VK","2016/12/26 18:17:32","新北市土城區承天路67號","121.439561666667","24.9634433333333"
"236014","270-VK","2016/12/26 18:17:27","新北市土城區青雲路39巷7號","121.460323333333","24.9873583333333"
"236036","271-VK","2016/12/26 18:17:27","新北市土城區青雲路449號","121.458981666667","24.9748633333333"
"236020","401-BY","2016/12/26 18:17:24","新北市土城區明德路一段97號","121.465591666667","24.9829716666667"
"236058","912-UM","2016/12/26 18:17:26","新北市土城區中央路四段196-1號","121.416311666667","24.9577166666667"
"236048","913-UM","2016/12/26 18:17:26","新北市土城區明德路一段365-1號","121.453571666667","24.9790183333333"
"236062","915-UM","2016/12/26 18:17:31","新北市土城區金城路三段200號","121.46881","24.9882133333333"
"236053","AAC-216","2016/12/26 18:17:23","新北市土城區中華路二段100號","121.438095","24.9744033333333"
"242019","AAC-296","2016/12/26 18:17:29","新北市新莊區公園路202巷1號","121.454736666667","25.0401766666667"
"242027","986-R7","2016/12/26 18:17:31","新北市新莊區幸福路81號","121.456625","25.0492983333333"
"242046","751-BX","2016/12/26 18:17:25","新北市新莊區中正路831-15號","121.420861666667","25.0276616666667"
"242058","705-TV","2016/12/26 18:17:28","新北市新莊區新北大道七段848號","121.41375","25.0236316666667"
"242060","613-BX","2016/12/26 18:17:31","新北市新莊區後港一路160號","121.43074","25.0275866666667"
"242025","612-BX","2016/12/26 18:17:31","新北市新莊區五工三路97號","121.45812","25.0655533333333"
"242002","442-UM","2016/12/26 18:16:07","新北市新莊區碧江街18-7號","121.455393333333","25.0346083333333"
"242044","441-UM","2016/12/26 18:17:22","新北市新莊區新北大道七段339號","121.412925","25.027565"
"242021","415-TV","2016/12/26 18:17:22","新北市新莊區新興街1號","121.450676666667","25.03612"
"242029","353-BY","2016/12/26 18:17:20","新北市新莊區中平路181號","121.444636666667","25.0488933333333"
"242009","132-UY","2016/12/26 18:17:25","新北市新莊區中華路二段36-1號","121.453918333333","25.0454416666667"
"242031","133-UY","2016/12/26 18:17:29","新北市新莊區新泰路255巷38號","121.44463","25.039655"
"242042","172-VK","2016/12/26 18:17:23","新北市新莊區天祥街107巷33號","121.41453","25.0287483333333"
"242004","173-VK","2016/12/26 18:17:26","新北市新莊區自立街108號","121.455135","25.04533"
"242011","175-VK","2016/12/26 18:17:01","新北市新莊區中港路591巷31號","121.449691666667","25.0522716666667"
"242053","176-VK","2016/12/26 18:17:15","新北市新莊區民安西路410巷12弄2號","121.427896666667","25.00907"
"242056","346-TH","2016/12/26 18:17:22","新北市新莊區瓊林路51-3號","121.445181666667","25.0275633333333"
"242015","348-TH","2016/12/26 18:17:27","新北市新莊區中平路184巷10弄5號","121.445386666667","25.0482483333333"
"242050","349-TH","2016/12/26 18:17:22","新北市新莊區民安東路51號","121.429516666667","25.02086"
"242007","351-TH","2016/12/26 18:17:15","新北市新莊區自強街37巷14弄21號","121.454048333333","25.047195"
"238015","755-BX","2016/12/26 18:17:25","新北市樹林區文化街116巷2號","121.416391666667","24.9894433333333"
"238023","601-UM","2016/12/26 18:17:21","新北市樹林區三福街67巷21號","121.407416666667","25.0154016666667"
"238019","599-UM","2016/12/26 18:17:17","新北市樹林區太平路91號","121.419266666667","24.9812766666667"
"238018","571-TV","2016/12/26 18:17:16","新北市樹林區保順街85號","121.429063333333","24.9944933333333"
"238024","5061-A6","2016/12/26 18:17:20","新北市樹林區中山路一段191號","121.421265","24.987725"
"238022","312-TH","2016/12/26 18:17:24","新北市樹林區太順街108巷1號","121.41586","24.9778283333333"
"238021","311-TH","2016/12/26 18:17:34","新北市樹林區柑園街一段297-1號","121.392775","24.9562566666667"
"238025","303-VK","2016/12/26 18:17:24","新北市樹林區保安街二段37-1號","121.4161","25.0001666666667"
"238017","283-BY","2016/12/26 18:17:29","新北市樹林區中正路510號","121.412011666667","25.0134983333333"
"238014","282-BY","2016/12/26 18:17:18","新北市樹林區千歲街61巷46號","121.42547","24.998715"
"238020","268-VK","2016/12/26 18:17:27","新北市樹林區三俊街30號","121.411603333333","25.0154366666667"
"238026","172-UY","2016/12/26 18:17:29","新北市樹林區佳園路一段50號","121.392933333333","24.9706916666667"
"238016","169-UY","2016/12/26 18:17:18","新北市樹林區中山路一段238號","121.421081666667","24.9877433333333"
"239007","AAC-297","2016/12/26 18:17:26","新北市鶯歌區重慶街102號","121.348043333333","24.9523616666667"
"239008","527-UM","2016/12/26 18:17:27","新北市鶯歌區國際一路179號","121.336191666667","24.976515"
"239005","526-UM","2016/12/26 18:17:26","新北市鶯歌區鶯桃路668巷73號","121.329911666667","24.971775"
"239001","417-VK","2016/12/26 18:17:12","新北市鶯歌區中正三路福德巷25-1號","121.339851666667","24.9408533333333"
"239003","360-BY","2016/12/26 18:17:15","新北市鶯歌區福安街58號","121.335481666667","24.9652016666667"
"239002","359-BY","2016/12/26 18:17:13","新北市鶯歌區中正一路4號","121.352556666667","24.952835"
"221008","129-UY","2016/12/26 18:17:11","新北市汐止區康寧街582號","121.635211666667","25.0700066666667"
"221036","130-UY","2016/12/26 18:17:25","新北市汐止區大同路三段89號","121.66783","25.0773066666667"
"221015","131-UY","2016/12/26 18:17:22","新北市汐止區鄉長路二段116號","121.664695","25.08603"
"221010","269-BY","2016/12/26 18:17:23","新北市汐止區祥雲街28號","121.646893333333","25.089985"
"221012","278-VK","2016/12/26 18:17:16","新北市汐止區保一街8巷1號","121.673733333333","25.0811166666667"
"221023","279-VK","2016/12/26 18:17:31","新北市汐止區民族五街79號","121.627513333333","25.0699783333333"
"221032","280-BY","2016/12/26 18:17:16","新北市汐止區橫科路8號","121.617706666667","25.0513166666667"
"221027","281-BY","2016/12/26 18:17:21","新北市汐止區和平街6巷1弄2號","121.663381666667","25.0712366666667"
"221029","298-VK","2016/12/26 18:17:26","新北市汐止區樟樹二路355-1號","121.644661666667","25.075015"
"221021","299-VK","2016/12/26 18:17:14","新北市汐止區龍安路202巷15號","121.652216666667","25.0632466666667"
"221031","353-TW","2016/12/26 18:17:27","新北市汐止區中興路190號","121.631596666667","25.0656883333333"
"221035","622-UM","2016/12/26 18:17:32","新北市汐止區大同路二段221號","121.65301","25.06484"
"221025","623-UM","2016/12/26 18:17:20","新北市汐止區勤進路12巷31號","121.65914","25.0625533333333"
"221033","647-BX","2016/12/26 18:17:31","新北市汐止區宜興街40巷22弄4號","121.622548333333","25.0411816666667"
"221002","707-TV","2016/12/26 18:17:19","新北市汐止區福德一路213巷35號","121.635838333333","25.0648066666667"
"221018","753-BX","2016/12/26 18:17:22","新北市汐止區茄苳路72巷9號","121.666683333333","25.0700833333333"
"220071","283-VK","2016/12/26 18:17:16","新北市板橋區民生路二段16號","121.472853333333","25.0164"
"220063","609-BX","2016/12/26 16:31:51","新北市板橋區民生路二段89-1號","121.47133","25.01804"
"220054","741-BX","2016/12/26 18:17:28","新北市板橋區民生路二段22號","121.472775","25.0165383333333"
"220018","AAC-253","2016/12/26 16:03:43","新北市板橋區民生路二段56-1號","121.47234","25.016965"
