"lineid","car","time","location","longitude","latitude"
"234046","148-BY","2016/11/05 19:17:15","新北市永和區秀朗路二段148巷7弄2號","121.525243333333","25.0004433333333"
"234013","149-BY","2016/11/05 19:17:28","新北市永和區信義路46-1號","121.513351666667","25.0123666666667"
"234007","207-UY","2016/11/05 19:17:17","新北市永和區中山路一段309號","121.506475","25.00663"
"234081","298-R6","2016/11/05 19:17:18","新北市永和區福和路57巷2號","121.522948333333","25.0076283333333"
"234064","337-UY","2016/11/05 19:16:55","新北市永和區永元路17巷4號","121.521685","25.00053"
"234009","338-UY","2016/11/05 19:17:20","新北市永和區永利路62號","121.519325","25.0051133333333"
"234070","552-UM","2016/11/05 19:17:32","新北市永和區中正路696-1號","121.516543333333","25.0098733333333"
"234054","553-UM","2016/11/05 19:17:23","新北市永和區中興街20號","121.516063333333","25.011855"
"234018","745-BX","2016/11/05 19:17:29","新北市永和區文化路144巷31弄6號","121.512498333333","25.0167666666667"
"234030","746-BX","2016/11/05 19:17:25","新北市永和區民生路69號","121.52264","24.9972416666667"
"234038","838-RS","2016/11/05 19:17:30","新北市永和區民樂街54號","121.527428333333","24.9995316666667"
"234061","839-RS","2016/11/05 19:17:23","新北市永和區秀朗路一段175號","121.517066666667","25.00367"
"234042","862-TW","2016/11/05 19:17:25","新北市永和區保平路203巷33號","121.509655","25.00501"
"234050","863-TW","2016/11/05 19:17:30","新北市永和區仁愛路104巷10號","121.51207","25.013725"
"234011","9373-KE","2016/11/05 19:17:30","新北市永和區信義路25巷47號","121.51276","25.0115366666667"
"249005","172-UM","2016/11/05 19:17:27","新北市八里區中華路三段27號","121.39653","25.1431133333333"
"249001","173-UM","2016/11/05 19:17:25","新北市八里區中華路一段254號","121.416318333333","25.1554816666667"
"248016","026-BX","2016/11/05 19:17:16","新北市五股區成洲五路12號","121.452315","25.1015216666667"
"248020","225-UY","2016/11/05 18:57:48","新北市五股區凌雲路三段57號","121.425348333333","25.1250233333333"
"248012","247-BX","2016/11/05 19:17:15","新北市五股區中興路四段48巷19號","121.438666666667","25.0835766666667"
"248004","677-BX","2016/11/05 19:17:30","新北市五股區五福路18號","121.434251666667","25.0887616666667"
"248002","678-BX","2016/11/05 19:17:18","新北市五股區凌雲路一段158巷14-1號","121.44782","25.1035233333333"
"248010","682-TV","2016/11/05 19:17:27","新北市五股區水碓一路23號","121.43068","25.0713333333333"
"234023","9380-KE","2016/11/05 19:17:24","新北市永和區竹林路118號","121.519683333333","25.01137"
"234077","969-R7","2016/11/05 19:17:18","新北市永和區民治街72巷17號","121.51823","24.9987316666667"
"234067","AAC-212","2016/11/05 19:17:19","新北市永和區保平路8號","121.512931666667","25.0076266666667"
"234001","AAC-295","2016/11/05 19:17:26","新北市永和區永平路155號","121.511006666667","25.0086916666667"
"244013","069-UM","2016/11/05 19:17:31","新北市林口區麗園二街23巷15-9號","121.379135","25.0704916666667"
"244019","403-UM","2016/11/05 19:17:25","新北市林口區四維路102號","121.376396666667","25.0787583333333"
"244009","410-SL","2016/11/05 19:17:16","新北市林口區林口路64號","121.390228333333","25.0791383333333"
"244011","701-TV","2016/11/05 19:17:25","新北市林口區中正路324號","121.387685","25.0777316666667"
"243011","297-R6","2016/11/05 19:17:18","新北市泰山區中央路11巷16號","121.426666666667","25.0424166666667"
"243014","380-SR","2016/11/05 19:16:34","新北市泰山區泰林路二段376號","121.428318333333","25.063915"
"243016","421-VK","2016/11/05 19:16:57","新北市泰山區工專路64號","121.422831666667","25.04031"
"243012","539-UM","2016/11/05 19:17:32","新北市泰山區明志路一段385號","121.43076","25.0577316666667"
"243009","548-UM","2016/11/05 19:17:30","新北市泰山區和平街13巷4號","121.434391666667","25.0647766666667"
"243010","549-UM","2016/11/05 19:17:23","新北市泰山區明志路一段494號","121.430198333333","25.0546766666667"
"243013","646-TV","2016/11/05 19:17:14","新北市泰山區明志路三段169號","121.42469","25.03934"
"243015","680-BX","2016/11/05 19:17:16","新北市泰山區公園路40號","121.428908333333","25.0544083333333"
"222003","436-BY","2016/11/05 19:17:32","新北市深坑區深南路204號","121.62659","25.0160266666667"
"222002","659-BX","2016/11/05 19:17:13","新北市深坑區紅葉街10巷6號","121.633046666667","25.0117733333333"
"222001","696-SL","2016/11/05 19:17:22","新北市深坑區北深路二段50號","121.619348333333","25.00428"
"231060","001-UM","2016/11/05 19:17:26","新北市新店區安康路二段149-1號","121.510871666667","24.9597183333333"
"231045","002-UM","2016/11/05 19:17:27","新北市新店區北宜路一段260號","121.545668333333","24.95278"
"231043","046-UY","2016/11/05 19:17:27","新北市新店區寶橋路39號","121.544608333333","24.9744866666667"
"231040","106-UY","2016/11/05 19:17:24","新北市新店區三民路133號","121.534471666667","24.9724883333333"
"231064","107-UY","2016/11/05 19:17:20","新北市新店區安忠路87號","121.511036666667","24.9569666666667"
"231054","108-UY","2016/11/05 19:17:24","新北市新店區國校路55號","121.538188333333","24.954395"
"231046","110-UY","2016/11/05 19:17:26","新北市新店區華城路34-1號","121.528771666667","24.95632"
"231049","187-VK","2016/11/05 19:17:21","新北市新店區民族路1號","121.542173333333","24.9788733333333"
"231065","192-VK","2016/11/05 19:17:19","新北市新店區安祥路113號","121.475143333333","24.9569933333333"
"231042","268-BY","2016/11/05 19:17:17","新北市新店區中興路一段113號","121.541358333333","24.9627083333333"
"231048","278-BY","2016/11/05 19:17:33","新北市新店區中興路二段65號","121.546748333333","24.9707316666667"
"231058","3713-VJ","2016/11/05 19:17:24","新北市新店區光明街286巷21號","121.541175","24.9633916666667"
"231066","4715-K9","2016/11/05 19:17:16","新北市新店區安康路三段355巷25號","121.484901666667","24.9500683333333"
"231067","4772-VM","2016/11/05 19:17:24","新北市新店區安康路一段247巷31號","121.52482","24.9619716666667"
"231051","513-UM","2016/11/05 19:17:24","新北市新店區中正路400巷22號","121.535175","24.9782516666667"
"231057","515-UM","2016/11/05 19:17:24","新北市新店區花園一路一段2號","121.553018333333","24.9324566666667"
"231059","617-UM","2016/11/05 19:17:30","新北市新店區安和路三段37號","121.517816666667","24.9819016666667"
"231041","618-UM","2016/11/05 19:17:32","新北市新店區溪園路47號","121.52956","24.987665"
"231044","619-UM","2016/11/05 19:17:25","新北市新店區中興路三段247-1號","121.542783333333","24.9839633333333"
"231063","641-BX","2016/11/05 19:17:26","新北市新店區達觀路16號","121.503173333333","24.9407333333333"
"231050","718-UY","2016/11/05 19:17:18","新北市新店區竹林路151號","121.556131666667","24.9485633333333"
"231062","719-UY","2016/11/05 19:17:18","新北市新店區莒光路30號","121.523476666667","24.95912"
"231052","720-UM","2016/11/05 19:17:14","新北市新店區屈尺路55-2號","121.546125","24.9225783333333"
"231061","897-TW","2016/11/05 19:17:24","新北市新店區安康路一段132號","121.52672","24.9628466666667"
"241009","060-VK","2016/11/05 19:17:17","新北市三重區仁美街114巷7號","121.484978333333","25.0809266666667"
"241031","061-VK","2016/11/05 19:17:17","新北市三重區重新路四段87號","121.486188333333","25.0557816666667"
"241026","066-VK","2016/11/05 19:17:27","新北市三重區泉州街72號","121.494895","25.0548266666667"
"241022","267-UM","2016/11/05 19:17:21","新北市三重區中正北路70號","121.486321666667","25.0647733333333"
"241032","269-UM","2016/11/05 19:17:14","新北市三重區新生街97號","121.483431666667","25.05938"
"241006","398-BY","2016/11/05 19:17:33","新北市三重區車路頭街135-1號","121.48424","25.0761783333333"
"241020","593-RM","2016/11/05 19:17:19","新北市三重區後竹圍街88號","121.489595","25.0727966666667"
"241029","942-UM","2016/11/05 19:16:55","新北市三重區重安街19號","121.490768333333","25.057365"
"235066","003-UY","2016/11/05 19:17:23","新北市中和區廣福路112號","121.502153333333","25.0011533333333"
"235064","005-UY","2016/11/05 19:17:20","新北市中和區泰和街44巷25號","121.498258333333","25.0009583333333"
"235063","006-UY","2016/11/05 19:17:26","新北市中和區中正路600號","121.48564","24.9950766666667"
"235056","096-UM","2016/11/05 19:17:22","新北市中和區員山路611巷11弄18號","121.478411666667","25.0103366666667"
"235039","097-UM","2016/11/05 19:17:19","新北市永和區民有街10巷1號","121.516023333333","24.9970483333333"
"235065","098-UM","2016/11/05 19:17:30","新北市中和區莊敬路37號","121.500826666667","25.004975"
"235040","150-BY","2016/11/05 19:17:25","新北市中和區保健路48巷16號","121.509751666667","24.9965983333333"
"235058","151-BY","2016/11/05 19:17:18","新北市中和區員山路143巷22號","121.480105","24.9959716666667"
"235055","183-VK","2016/11/05 19:17:27","新北市中和區德光路77巷6弄2號","121.469886666667","25.0033966666667"
"235038","185-VK","2016/11/05 19:17:03","新北市中和區自強路66號","121.519806666667","24.9941883333333"
"235049","186-VK","2016/11/05 19:17:17","新北市中和區景安路68號","121.505833333333","24.9966866666667"
"235067","255-BX","2016/11/05 19:17:24","新北市中和區新生街176巷2號","121.483455","25.0000266666667"
"235001","293-VK","2016/11/05 19:17:26","新北市中和區中興街135巷5號","121.50036","24.9915"
"235072","301-VK","2016/11/05 19:17:28","新北市中和區中山路二段259號","121.497013333333","25.0022983333333"
"235068","377-QA","2016/11/05 19:17:32","新北市中和區連勝街36號","121.498038333333","24.9977516666667"
"235061","378-QA","2016/11/05 19:17:16","新北市中和區民有街7-2號","121.475635","25.0056116666667"
"235050","4979-A6","2016/11/05 19:17:33","新北市中和區景安路208巷21號","121.502503333333","24.9918283333333"
"235069","4980-A6","2016/11/05 19:17:26","新北市中和區中山路二段136巷64號","121.5008","25.004175"
"235042","551-UM","2016/11/05 19:17:24","新北市中和區自立路117巷2弄1號","121.522373333333","24.994465"
"235070","558-UM","2016/11/05 19:17:30","新北市中和區安和路189號","121.506031666667","24.9982883333333"
"235045","565-BX","2016/11/05 19:17:27","新北市中和區景新街467巷20弄23號","121.515013333333","24.9874533333333"
"235043","611-BX","2016/11/05 19:17:22","新北市中和區景平路116號","121.519415","24.9917133333333"
"235054","640-BX","2016/11/05 19:17:23","新北市中和區國光街32號","121.471371666667","25.0002883333333"
"235060","647-TV","2016/11/05 19:17:24","新北市中和區民治街23巷1號","121.475371666667","25.0021833333333"
"235046","733-UM","2016/11/05 19:17:32","新北市中和區忠孝街1巷45號","121.508475","24.984105"
"235071","783-BX","2016/11/05 19:17:30","新北市中和區連城路469巷23號","121.483681666667","24.99503"
"235062","800-TS","2016/11/05 19:17:17","新北市中和區中正路631號","121.485525","24.9950016666667"
"235057","801-TS","2016/11/05 19:17:28","新北市中和區民利街68巷5弄38號","121.477388333333","24.9987516666667"
"235041","802-TS","2016/11/05 19:17:23","新北市中和區宜安路66號","121.511533333333","24.9972066666667"
"235052","805-TS","2016/11/05 19:17:19","新北市中和區興南路二段399巷122號","121.501261666667","24.975865"
"235048","896-TW","2016/11/05 19:17:14","新北市中和區忠孝街1巷2-1號","121.5092","24.9830766666667"
"235053","900-TW","2016/11/05 19:17:32","新北市中和區和平路218-1號","121.464046666667","24.9962816666667"
"235037","AAC-213","2016/11/05 19:17:30","新北市中和區立人街63號","121.52018","24.9942716666667"
"235059","AAC-215","2016/11/05 19:17:21","新北市中和區錦和路408號","121.49121","24.9896266666667"
"220065","072-UY","2016/11/05 19:17:18","新北市板橋區民族路129巷10號","121.46762","25.0084333333333"
"220106","075-UY","2016/11/05 19:17:29","新北市板橋區江寧路三段119號","121.473355","25.0330016666667"
"247018","893-R6","2016/11/05 19:13:13","新北市蘆洲區復興路323巷150號","121.48008","25.0953066666667"
"247008","546-UM","2016/11/05 18:53:34","新北市蘆洲區復興路323巷150號","121.480053333333","25.095295"
"247016","500-BY","2016/11/05 18:59:06","新北市蘆洲區復興路323巷150號","121.480105","25.0953283333333"
"247004","341-TH","2016/11/05 19:17:25","新北市蘆洲區三民路550-4號","121.461551666667","25.0935083333333"
"247022","337-TH","2016/11/05 19:17:15","新北市蘆洲區復興路323巷150號","121.480043333333","25.095195"
"247012","057-VK","2016/11/05 18:58:52","新北市蘆洲區復興路323巷150號","121.480238333333","25.095595"
"247020","002-UY","2016/11/05 18:54:41","新北市蘆洲區復興路323巷150號","121.480176666667","25.0954816666667"
"247014","001-UY","2016/11/05 19:17:19","新北市蘆洲區復興路88號","121.47543","25.0868316666667"
"226004","312-R5","2016/11/05 19:17:14","新北市平溪區靜安路三段331號","121.779335","25.0446116666667"
"223002","198-BX","2016/11/05 08:40:17","新北市石碇區小粗坑(潭邊里)9-2號","121.67883","24.9861766666667"
"228003","097-TW","2016/11/05 19:17:30","新北市貢寮區和美里和美街22-1號","121.912831666667","25.08262"
"228002","212-TW","2016/11/05 19:17:24","新北市貢寮區福隆里興隆街24-1號","121.944415","25.0166383333333"
"228001","670-TC","2016/11/05 19:17:15","新北市貢寮區真理里新港街10號","121.925546666667","25.0543766666667"
"224006","676-BX","2016/11/05 19:17:32","新北市瑞芳區中山路215號","121.801005","25.106715"
"224007","285-BY","2016/11/05 19:17:22","新北市瑞芳區中央路48巷164號","121.759226666667","25.1033266666667"
"224009","275-VK","2016/11/05 19:17:25","新北市瑞芳區洞頂路101巷56號","121.86047","25.122005"
"224008","273-VK","2016/11/05 19:17:27","新北市瑞芳區一坑路124號","121.802353333333","25.10859"
"224005","271-BY","2016/11/05 19:17:20","新北市瑞芳區國中新村19號","121.817648333333","25.106805"
"227010","642-TC","2016/11/05 19:17:02","新北市雙溪區新基里中華路10號","121.866235","25.0365966666667"
"227002","400-TW","2016/11/05 19:17:26","新北市雙溪區平林里梅竹蹊66-1號","121.860146666667","25.0358133333333"
"253006","032-BX","2016/11/05 19:17:16","新北市石門區崁子腳25-1號","121.535101666667","25.2908166666667"
"253001","295-VK","2016/11/05 19:17:14","新北市石門區阿里荖24號","121.606148333333","25.2796383333333"
"208003","665-BX","2016/11/05 19:17:18","新北市金山區中山路161號","121.63881","25.2205033333333"
"208001","761-BX","2016/11/05 19:17:32","新北市金山區慈護街12號","121.63966","25.22038"
"251009","008-UM","2016/11/05 19:17:17","新北市淡水區中正路8巷27號","121.441533333333","25.1702733333333"
"251004","009-UM","2016/11/05 19:17:26","新北市淡水區淡金路二段605號","121.446263333333","25.193245"
"251005","010-UM","2016/11/05 19:17:16","新北市淡水區水源街一段31號","121.443208333333","25.17257"
"251014","180-VK","2016/11/05 19:17:24","新北市淡水區小中寮19-7號","121.484791666667","25.2296466666667"
"251010","413-VK","2016/11/05 19:17:17","新北市淡水區沙崙路30號","121.421518333333","25.1814883333333"
"251001","559-UM","2016/11/05 19:17:25","新北市淡水區民權路137號","121.460055","25.1365383333333"
"251007","577-R6","2016/11/05 19:17:20","新北市淡水區中正東路二段143巷6弄5號","121.461335","25.1466616666667"
"251011","650-BX","2016/11/05 19:17:16","新北市淡水區中正東路二段143巷2弄1號","121.460698333333","25.147435"
"251002","672-BX","2016/11/05 19:17:23","新北市淡水區新生街3號","121.435613333333","25.173515"
"251003","673-BX","2016/11/05 19:17:16","新北市淡水區中山路157號","121.440585","25.1726633333333"
"207003","550-UM","2016/11/05 19:17:30","新北市萬里區大鵬里萬里加投18-3號","121.650165","25.2089083333333"
"207004","225-TW","2016/11/05 19:17:19","新北市萬里區萬里里成功新村65號","121.688316666667","25.1745533333333"
"252002","178-VK","2016/11/05 19:17:24","新北市三芝區埔坪里埔頭坑86-1號","121.507065","25.25477"
"252003","249-BX","2016/11/05 19:17:18","新北市三芝區古庄里四棧橋42號","121.481776666667","25.263505"
"252001","292-VK","2016/11/05 19:17:17","新北市三芝區長勤街9巷14號","121.501726666667","25.25499"
"208002","170-UY","2016/11/05 19:17:26","新北市金山區中正路122號","121.63239","25.2219616666667"
"237004","078-UY","2016/11/05 19:17:19","新北市三峽區有木205-1號","121.439053333333","24.8515016666667"
"237007","153-BY","2016/11/05 19:17:20","新北市三峽區二鬮路21號","121.362513333333","24.9109366666667"
"237009","210-TH","2016/11/05 19:17:15","新北市三峽區信義街2號","121.370805","24.9361133333333"
"237013","252-BX","2016/11/05 19:17:32","新北市三峽區光明路75巷22號","121.37763","24.9282883333333"
"237012","275-BY","2016/11/05 19:17:13","新北市三峽區三樹路222巷236弄8-3號","121.391398333333","24.9430116666667"
"237008","302-VK","2016/11/05 19:17:24","新北市三峽區光明路106巷58號","121.375193333333","24.9267783333333"
"237014","433-BY","2016/11/05 19:17:25","新北市三峽區民權街132號","121.368591666667","24.9319466666667"
"237006","5529-G3","2016/11/05 19:17:23","新北市三峽區介壽路三段7號","121.39554","24.9362583333333"
"237011","572-TV","2016/11/05 19:17:19","新北市三峽區中正路一段112-1號","121.374058333333","24.9294666666667"
"237016","649-BX","2016/11/05 19:17:26","新北市三峽區安坑27-5號","121.446995","24.9285283333333"
"237010","706-TV","2016/11/05 19:11:24","新北市三峽區民生街60號","121.375148333333","24.9362683333333"
"237005","AKY-6261","2016/11/05 19:17:29","新北市三峽區中山路459巷42號","121.356871666667","24.9376116666667"
"236073","105-UM","2016/11/05 19:17:26","新北市土城區中華路一段11號","121.446843333333","24.9894766666667"
"236079","166-UM","2016/11/05 19:17:12","新北市土城區龍泉路54號","121.413518333333","24.9441216666667"
"236031","253-BX","2016/11/05 19:17:25","新北市土城區城林路6巷80號","121.438483333333","24.9795966666667"
"236027","269-VK","2016/11/05 19:17:33","新北市土城區中正路67巷27號","121.444255","24.976545"
"236015","270-VK","2016/11/05 19:17:29","新北市土城區學府路一段23巷23號","121.457796666667","24.98697"
"236023","401-BY","2016/11/05 19:17:20","新北市土城區明峰街83號","121.46894","24.9873883333333"
"236059","912-UM","2016/11/05 19:17:26","新北市土城區學士路123號","121.447321666667","24.9760516666667"
"236049","913-UM","2016/11/05 19:17:27","新北市土城區明德路一段398-1號","121.453628333333","24.9790616666667"
"242044","441-UM","2016/11/05 19:17:23","新北市板橋區大觀路三段36巷122號","121.435316666667","24.9984233333333"
"238015","755-BX","2016/11/05 19:17:03","新北市樹林區備內街65-1號","121.410721666667","24.9885516666667"
"238023","601-UM","2016/11/05 19:17:33","新北市樹林區大慶街46號","121.39714","25.0140333333333"
"238019","599-UM","2016/11/05 19:17:28","新北市樹林區鎮前街347巷18號","121.416883333333","24.98335"
"238018","571-TV","2016/11/05 19:17:29","新北市樹林區中華路118巷8號","121.417815","24.9808266666667"
"238024","5061-A6","2016/11/05 19:17:05","新北市樹林區中山路二段249巷13號","121.402578333333","24.975745"
"238021","311-TH","2016/11/05 19:17:18","新北市樹林區柑園街二段372號","121.369353333333","24.9501133333333"
"238025","303-VK","2016/11/05 19:17:21","新北市樹林區東興街3號","121.409698333333","24.9804166666667"
"238014","282-BY","2016/11/05 19:17:33","新北市樹林區千歲街63-12號","121.426971666667","24.998555"
"238026","172-UY","2016/11/05 19:17:16","新北市樹林區佳園路二段86巷82號","121.390405","24.958865"
"238016","169-UY","2016/11/05 19:17:32","新北市樹林區備前街26號","121.417668333333","24.985925"
"239007","AAC-297","2016/11/05 19:17:21","新北市鶯歌區大湖路余厝巷11號","121.341986666667","24.96153"
"239001","417-VK","2016/11/05 19:17:16","新北市鶯歌區建國路588號","121.339896666667","24.95242"
"239003","360-BY","2016/11/05 19:17:27","新北市鶯歌區重慶街84號","121.348726666667","24.9520283333333"
"239002","359-BY","2016/11/05 19:17:21","新北市鶯歌區大湖路70號","121.342631666667","24.96231"
"239004","193-VK","2016/11/05 19:17:22","新北市鶯歌區中正三路176-1號","121.333251666667","24.93837"
"221008","129-UY","2016/11/05 19:17:28","新北市汐止區康寧街338號","121.62785","25.0674333333333"
"221036","130-UY","2016/11/05 19:17:33","新北市汐止區汐萬路一段256巷1號","121.65185","25.0748066666667"
"221015","131-UY","2016/11/05 19:17:13","新北市汐止區汐萬路一段256巷1號","121.651778333333","25.0748566666667"
"221010","269-BY","2016/11/05 19:17:26","新北市汐止區康寧街901號","121.651445","25.074995"
"221012","278-VK","2016/11/05 19:17:31","新北市汐止區汐萬路一段191號","121.652405","25.0717483333333"
"221032","280-BY","2016/11/05 19:17:24","新北市汐止區汐萬路一段167號","121.652715","25.070925"
"221027","281-BY","2016/11/05 19:17:19","新北市汐止區康寧街901號","121.65087","25.075275"
"221029","298-VK","2016/11/05 19:17:21","新北市汐止區康寧街901號","121.651615","25.0749216666667"
"221021","299-VK","2016/11/05 19:17:18","新北市汐止區康寧街901號","121.651411666667","25.0749666666667"
"221008","353-TW","2016/11/05 19:17:28","新北市汐止區汐萬路一段301號","121.649308333333","25.0759366666667"
"221035","622-UM","2016/11/05 19:17:27","新北市汐止區康寧街901號","121.650865","25.0752683333333"
"221025","623-UM","2016/11/05 19:17:21","新北市汐止區康寧街901號","121.651503333333","25.07499"
"221033","647-BX","2016/11/05 19:17:16","新北市汐止區南勢街1巷1號","121.627056666667","25.03747"
"221002","707-TV","2016/11/05 19:17:13","新北市汐止區大同路一段160號","121.633165","25.0568683333333"
"221018","753-BX","2016/11/05 19:17:14","新北市汐止區康寧街901號","121.65159","25.0749283333333"
"220079","145-BY","2016/11/05 19:17:23","新北市板橋區民權路202巷17弄36號","121.459273333333","25.0166116666667"
"220088","145-RM","2016/11/05 19:17:27","新北市板橋區雙十路二段6-1號","121.476856666667","25.0259766666667"
"220080","200-UY","2016/11/05 19:17:18","新北市板橋區大觀路二段5-1號","121.447186666667","25.0038716666667"
"220101","245-BX","2016/11/05 19:17:17","新北市板橋區民生路二段172號","121.471416666667","25.02049"
"220068","255-TC","2016/11/05 19:17:31","新北市板橋區三民路一段1巷45號","121.480558333333","25.02473"
"220069","258-TC","2016/11/05 19:17:26","新北市板橋區四川路一段106號","121.45966","25.0045866666667"
"220056","276-BY","2016/11/05 19:17:18","新北市板橋區信義路71號","121.457248333333","24.9952916666667"
"220072","277-BY","2016/11/05 19:17:24","新北市板橋區金門街280巷12號","121.429143333333","24.9862816666667"
"220094","283-UM","2016/11/05 19:17:16","新北市板橋區吳鳳路82號","121.466941666667","25.0313233333333"
"220071","283-VK","2016/11/05 19:17:32","新北市板橋區重慶路337號","121.463986666667","24.998185"
"220053","285-VK","2016/11/05 19:17:20","新北市板橋區富山街53巷46號","121.477436666667","25.0206666666667"
"220083","286-VK","2016/11/05 19:17:20","新北市板橋區大觀路二段174巷186弄11號","121.442943333333","25.0034416666667"
"220081","287-VK","2016/11/05 19:17:31","新北市板橋區南雅西路一段154號","121.45271","25.0076983333333"
"220090","288-VK","2016/11/05 19:17:16","新北市板橋區四維路349巷16號","121.46157","25.0296583333333"
"220061","293-UM","2016/11/05 19:17:25","新北市板橋區三民路二段35巷7號","121.47996","25.0179166666667"
"220084","296-UM","2016/11/05 19:17:22","新北市板橋區溪崑二街56巷14號","121.427758333333","24.99107"
"220075","297-UM","2016/11/05 19:15:27","新北市板橋區南雅西路一段10巷7弄2號","121.454546666667","25.0047033333333"
"220062","305-R5","2016/11/05 19:17:20","新北市板橋區三民路二段居仁巷11號","121.479648333333","25.0134116666667"
"220092","307-R5","2016/11/05 19:17:26","新北市板橋區光武街48巷29號","121.46782","25.026875"
"220098","317-R6","2016/11/05 19:17:26","新北市板橋區民有街75號","121.465003333333","25.0270866666667"
"220064","486-VK","2016/11/05 19:17:18","新北市板橋區中山路二段18號","121.472251666667","25.01489"
"220089","487-VK","2016/11/05 19:17:26","新北市板橋區文化路二段1號","121.46851","25.0240866666667"
"220087","491-VK","2016/11/05 19:17:23","新北市板橋區民生路三段50號","121.467215","25.0251533333333"
"220035","560-BX","2016/11/05 19:17:28","新北市板橋區中正路326巷4弄2號","121.454716666667","25.0215433333333"
"220103","561-BX","2016/11/05 19:17:16","新北市板橋區介壽街66號","121.469248333333","25.0194916666667"
"220063","609-BX","2016/11/05 19:17:32","新北市板橋區三民路二段140號","121.479068333333","25.0159316666667"
"220091","637-BX","2016/11/05 19:17:33","新北市板橋區縣民大道三段187巷16號","121.479143333333","25.025215"
"220057","686-BX","2016/11/05 19:17:28","新北市板橋區重慶路290-1號","121.463453333333","24.99903"
"220077","687-BX","2016/11/05 19:17:18","新北市板橋區大觀路一段28巷42號","121.449883333333","25.0098483333333"
"220093","689-BX","2016/11/05 19:17:29","新北市板橋區新海路32號","121.462186666667","25.021185"
"220054","741-BX","2016/11/05 19:17:17","新北市板橋區重慶路62巷5號","121.461468333333","25.0066933333333"
"220082","806-UM","2016/11/05 19:17:15","新北市板橋區溪崑二街136號","121.425856666667","24.987695"
"220055","827-TW","2016/11/05 19:17:17","新北市板橋區新民街4巷2號","121.464163333333","25.0101233333333"
"220067","829-TW","2016/11/05 19:17:30","新北市板橋區長安街138巷1弄118號","121.474273333333","25.0104533333333"
"220102","830-TW","2016/11/05 19:17:32","新北市板橋區松柏街16號","121.474353333333","25.0296533333333"
"220096","831-TW","2016/11/05 19:17:15","新北市板橋區大同街8巷18號","121.477263333333","25.0262433333333"
"220074","895-R6","2016/11/05 19:17:22","新北市板橋區文昌街24巷11-5號","121.456431666667","25.0110483333333"
"220073","985-R7","2016/11/05 19:17:31","新北市板橋區中正路360巷25號","121.45548","25.0236916666667"
"220070","AAC-253","2016/11/05 19:17:32","新北市板橋區忠孝路23號","121.460495","25.0019766666667"
