"lineid","car","time","location","longitude","latitude"
"249003","593-UM","2016/10/30 15:59:54","新北市八里區博物館路7號","121.415521666667","25.16414"
"224011","AGQ-8101","2016/10/30 18:47:42","新北市瑞芳區烏勢巷116號","121.84628","25.10804"
"251014","180-VK","2016/10/30 18:47:53","新北市淡水區崙頂32號","121.48727","25.2223783333333"
"251015","181-VK","2016/10/30 18:47:59","新北市淡水區糞箕湖20號","121.485651666667","25.1710216666667"
"251016","182-VK","2016/10/30 18:32:04","新北市淡水區下圭柔山102號","121.441213333333","25.2085466666667"
