"lineid","car","time","location","longitude","latitude"
"249003","593-UM","2016/10/30 15:59:54","新北市八里區博物館路7號","121.415521666667","25.16414"
"224011","AGQ-8101","2016/10/30 19:29:42","新北市瑞芳區基山街40號","121.844946666667","25.1084233333333"
"251014","180-VK","2016/10/30 19:29:53","新北市淡水區小中寮19-7號","121.484735","25.2296266666667"
"251015","181-VK","2016/10/30 19:29:59","新北市淡水區北新路三段169-8號","121.491516666667","25.1903366666667"
"251016","182-VK","2016/10/30 19:29:34","新北市淡水區下圭柔山119-51號","121.45078","25.208455"
