"lineid","car","time","location","longitude","latitude"
"232012","076-UY","2016/10/31 06:38:51","新北市坪林區北宜路八段6號","121.699983333333","24.9365416666667"
"232001","291-BY","2016/10/31 06:38:52","新北市坪林區國中路4號","121.713203333333","24.9377983333333"
"232017","758-BX","2016/10/31 06:38:39","新北市坪林區坪雙路一段68號","121.715825","24.9431866666667"
"222005","289-BY","2016/10/31 06:38:42","新北市深坑區北深路二段17號","121.62058","25.00433"
"231003","719-UM","2016/10/31 06:38:55","新北市新店區新和街33號","121.519025","24.9846983333333"
"223002","198-BX","2016/10/31 06:38:53","新北市石碇區碇坪路一段75號","121.660311666667","24.9913466666667"
"223007","661-BX","2016/10/31 06:38:41","新北市石碇區碇坪路一段196號","121.671185","24.98231"
"227005","282-VK","2016/10/31 06:38:43","新北市雙溪區新基里自強路5號","121.866351666667","25.0390016666667"
