"lineid","car","time","location","longitude","latitude"
"234044","148-BY","2016/10/31 13:47:48","新北市永和區永利路326號","121.525155","25.0033083333333"
"234012","149-BY","2016/10/31 13:47:40","新北市永和區保安路292號","121.504991666667","25.011855"
"234005","207-UY","2016/10/31 13:47:43","新北市永和區永和路一段10號","121.51288","25.0046616666667"
"234082","208-UY","2016/10/31 13:47:39","新北市永和區福和路278號","121.517791666667","25.0075483333333"
"234078","298-R6","2016/10/31 13:47:49","新北市永和區林森路42號","121.525273333333","25.0048916666667"
"234036","336-UY","2016/10/31 13:47:36","新北市永和區成功路二段100號","121.526411666667","24.99822"
"234062","337-UY","2016/10/31 13:47:47","新北市永和區中正路368巷4號","121.518025","25.0008616666667"
"234085","338-UY","2016/10/31 13:47:55","新北市永和區永亨路142號","121.525165","25.00392"
"234068","552-UM","2016/10/31 13:47:51","新北市永和區竹林路77號","121.519388333333","25.0127416666667"
"234052","553-UM","2016/10/31 13:47:50","新北市永和區竹林路67巷7號","121.518916666667","25.01384"
"234015","745-BX","2016/10/31 13:47:33","新北市永和區文化路33號","121.514721666667","25.015055"
"234028","746-BX","2016/10/31 13:47:53","新北市永和區民生路47巷23號","121.524598333333","24.99772"
"234060","839-RS","2016/10/31 13:47:40","新北市永和區中正路170號","121.515151666667","24.9967516666667"
"234072","840-RS","2016/10/31 13:47:46","新北市永和區豫溪街215巷4號","121.524276666667","25.0093716666667"
"234040","862-TW","2016/10/31 13:47:55","新北市永和區中和路389巷18號","121.508166666667","25.001165"
"234048","863-TW","2016/10/31 13:47:47","新北市永和區保安路144號","121.508513333333","25.01485"
"234010","9373-KE","2016/10/31 13:47:52","新北市永和區保福路二段23巷19號","121.510115","25.0112433333333"
"249003","593-UM","2016/10/31 13:47:30","新北市八里區中山路二段255巷2號","121.402618333333","25.1486516666667"
"248015","026-BX","2016/10/31 13:47:57","新北市五股區凌雲路一段149巷42號","121.448601666667","25.1009266666667"
"248007","095-VK","2016/10/31 13:47:53","新北市五股區中興路一段128巷31號","121.46568","25.07484"
"248019","225-UY","2016/10/31 13:47:56","新北市五股區凌雲路三段86號","121.430173333333","25.1182733333333"
"248011","247-BX","2016/10/31 13:47:49","新北市五股區成泰路二段195巷1號","121.440396666667","25.0874516666667"
"248009","272-BY","2016/10/31 13:47:43","新北市五股區水碓七路5號","121.429355","25.0717983333333"
"248003","677-BX","2016/10/31 13:47:52","新北市五股區民義路二段41號","121.41393","25.1014366666667"
"248001","678-BX","2016/10/31 13:47:53","新北市五股區成洲三路2號","121.450873333333","25.099325"
"234022","9380-KE","2016/10/31 13:47:40","新北市永和區中正路662巷48號","121.518343333333","25.0087683333333"
"234076","969-R7","2016/10/31 13:47:41","新北市永和區民治街48號","121.518933333333","24.9978483333333"
"234066","AAC-212","2016/10/31 13:47:55","新北市永和區永平路173巷14弄4號","121.510166666667","25.0085116666667"
"234001","AAC-295","2016/10/31 13:47:38","新北市永和區永和路一段63號","121.513046666667","25.0069883333333"
"244017","402-UM","2016/10/31 10:01:34","新北市林口區粉寮69號","121.40498","25.0908"
"243008","421-VK","2016/10/31 13:47:28","新北市泰山區明志路二段137號","121.427618333333","25.0506866666667"
"243004","539-UM","2016/10/31 13:47:53","新北市泰山區泰林路二段158號","121.433971666667","25.0603133333333"
"243001","548-UM","2016/10/31 13:47:32","新北市泰山區泰林路2段424-1號","121.42675","25.064375"
"243002","549-UM","2016/10/31 13:47:54","新北市泰山區犁頭窠6號","121.421748333333","25.0590966666667"
"243005","646-TV","2016/10/31 13:47:29","新北市泰山區明志路三段206巷3號","121.423236666667","25.0379416666667"
"243007","680-BX","2016/10/31 13:47:38","新北市泰山區黎明路3號","121.42113","25.063385"
"231029","001-UM","2016/10/31 13:47:48","新北市新店區安康路二段156號","121.512331666667","24.9609416666667"
"231006","002-UM","2016/10/31 13:47:46","新北市新店區北宜路一段123-1號","121.540508333333","24.9535216666667"
"231025","0293-UT","2016/10/31 13:47:40","新北市新店區中央五街9號","121.529918333333","24.9742566666667"
"231004","046-UY","2016/10/31 13:47:54","新北市新店區寶橋路75號","121.545606666667","24.9751533333333"
"231001","106-UY","2016/10/31 13:47:51","新北市新店區三民路159巷2號","121.533958333333","24.9740283333333"
"231035","107-UY","2016/10/31 13:47:45","新北市新店區安忠路205巷8號","121.509063333333","24.9535183333333"
"231023","108-UY","2016/10/31 13:47:49","新北市新店區國校路65巷1號","121.538348333333","24.95413"
"231010","110-UY","2016/10/31 13:47:52","新北市新店區平等街40號","121.536476666667","24.9734833333333"
"231013","187-VK","2016/10/31 13:47:37","新北市新店區二十張路35號","121.538188333333","24.9815466666667"
"231008","188-VK","2016/10/31 13:47:51","新北市新店區秀山路72號","121.531471666667","24.9609183333333"
"231036","192-VK","2016/10/31 13:47:48","新北市新店區安祥路147巷33號","121.476663333333","24.9566783333333"
"231003","268-BY","2016/10/31 13:47:49","新北市新店區大新街9巷28號","121.544506666667","24.966875"
"231011","278-BY","2016/10/31 13:47:39","新北市新店區德正街27巷29弄20號","121.545831666667","24.9721216666667"
"231005","355-BY","2016/10/31 13:47:48","新北市新店區寶中路135號","121.549838333333","24.9793616666667"
"231038","3712-VJ","2016/10/31 13:47:45","新北市新店區安華路30巷1號","121.519545","24.9593016666667"
"231027","3713-VJ","2016/10/31 13:47:49","新北市新店區北宜路一段121-9號","121.54096","24.9538433333333"
"231037","4715-K9","2016/10/31 13:47:46","新北市新店區安康路三段359巷12弄2號","121.484486666667","24.9500633333333"
"231018","513-UM","2016/10/31 13:47:48","新北市新店區中正路384號","121.534821666667","24.9770816666667"
"231026","515-UM","2016/10/31 13:47:45","新北市新店區自由街31號","121.535005","24.9740683333333"
"231028","617-UM","2016/10/31 13:47:51","新北市新店區安和路三段9巷8號","121.517206666667","24.9807783333333"
"231002","618-UM","2016/10/31 13:47:50","新北市新店區溪園路51號","121.529516666667","24.9875716666667"
"231034","641-BX","2016/10/31 13:47:56","新北市新店區達觀路16號","121.502981666667","24.9409633333333"
"231014","718-UY","2016/10/31 13:47:53","新北市新店區竹林路63號","121.552946666667","24.951375"
"231031","719-UY","2016/10/31 13:47:43","新北市新店區莒光路87巷15號","121.525886666667","24.9535183333333"
"231019","720-UM","2016/10/31 13:47:56","新北市新店區湖子內路22號","121.542238333333","24.9307983333333"
"231030","899-TW","2016/10/31 13:47:49","新北市新店區安康路一段70號","121.528466666667","24.96185"
"231024","AKT-0513","2016/10/31 13:47:49","新北市新店區新生街37號","121.539371666667","24.9669433333333"
"235030","003-UY","2016/10/31 13:47:54","新北市中和區光華街17號","121.504653333333","25.0042116666667"
"235028","005-UY","2016/10/31 13:47:40","新北市中和區圓通路124號","121.498731666667","24.9959016666667"
"235027","006-UY","2016/10/31 13:47:48","新北市中和區連城路347巷2弄1號","121.488215","24.9957183333333"
"235020","096-UM","2016/10/31 13:47:44","新北市中和區員山路466巷17弄20號","121.480521666667","25.0074416666667"
"235003","097-UM","2016/10/31 13:47:46","新北市中和區大勇街25巷40號","121.515431666667","24.99405"
"235029","098-UM","2016/10/31 13:47:43","新北市中和區莊敬路49巷29弄6-6號","121.5014","25.0064766666667"
"235022","151-BY","2016/10/31 13:47:45","新北市中和區圓通路369巷36弄57號","121.490445","24.983605"
"235019","183-VK","2016/10/31 13:47:56","新北市中和區莒光路120巷34號","121.471563333333","25.0015066666667"
"235002","185-VK","2016/10/31 13:47:49","新北市中和區立人街9號","121.521691666667","24.99408"
"235013","186-VK","2016/10/31 13:47:52","新北市中和區景安路78號","121.505735","24.9964716666667"
"235031","255-BX","2016/10/31 13:47:38","新北市中和區新生街186巷1弄28號","121.48329","24.9985433333333"
"235001","293-VK","2016/10/31 13:47:27","新北市中和區中興街107號","121.499881666667","24.99234"
"235001","301-VK","2016/10/31 13:47:45","新北市中和區連城路139巷64號","121.496796666667","24.9969166666667"
"235032","377-QA","2016/10/31 13:47:55","新北市中和區中正路167巷23號","121.498965","24.99253"
"235025","378-QA","2016/10/31 13:47:50","新北市中和區民享街43號","121.474036666667","25.0029433333333"
"235014","4979-A6","2016/10/31 13:47:54","新北市中和區景新街496巷30弄26號","121.512761666667","24.98563"
"235033","4980-A6","2016/10/31 13:47:39","新北市中和區中和路125號","121.501695","25.0001016666667"
"235006","551-UM","2016/10/31 13:47:54","新北市中和區成功路97巷18弄7號","121.526901666667","24.9915016666667"
"235034","558-UM","2016/10/31 13:47:50","新北市中和區南華路6號","121.502201666667","24.9954683333333"
"235009","565-BX","2016/10/31 13:47:53","新北市中和區南山路236號","121.506431666667","24.9895683333333"
"235007","611-BX","2016/10/31 13:47:45","新北市中和區景平路253號","121.508705","24.9928983333333"
"235018","640-BX","2016/10/31 13:47:41","新北市中和區莒光路129巷2弄24號","121.47304","25.0012216666667"
"235060","647-TV","2016/10/31 13:47:56","新北市中和區中山路二段479號","121.483083333333","25.005015"
"235010","733-UM","2016/10/31 13:47:54","新北市中和區南山路146巷3號","121.503558333333","24.9924083333333"
"235035","783-BX","2016/10/31 13:47:52","新北市中和區中山路二段486號","121.487651666667","25.005225"
"235026","800-TS","2016/10/31 13:47:41","新北市中和區景平路716號","121.49669","25.002835"
"235021","801-TS","2016/10/31 13:47:38","新北市中和區員山路327巷38號","121.48059","25.001685"
"235005","802-TS","2016/10/31 13:47:47","新北市中和區中和路400巷17號","121.511565","25.0023533333333"
"235016","805-TS","2016/10/31 13:47:27","新北市中和區興南路二段133號","121.505241666667","24.98422"
"235012","896-TW","2016/10/31 13:47:49","新北市中和區中正路81號","121.500726666667","24.9934233333333"
"235017","900-TW","2016/10/31 13:47:50","新北市中和區民享街467號","121.469913333333","24.9926616666667"
"235001","AAC-213","2016/10/31 13:47:37","新北市中和區景平路111巷9弄2號","121.516668333333","24.9911283333333"
"235023","AAC-215","2016/10/31 13:47:48","新北市中和區圓通路369巷2號","121.491011666667","24.9895416666667"
"220016","013-TV","2016/10/31 13:47:49","新北市板橋區民生路二段17號","121.472533333333","25.0164733333333"
"220013","072-UY","2016/10/31 13:47:48","新北市板橋區民生路二段17號","121.472521666667","25.0164316666667"
"220034","073-UY","2016/10/31 13:47:44","新北市板橋區南雅西路二段180巷22號","121.452551666667","25.0139066666667"
"247017","893-R6","2016/10/31 13:47:44","新北市蘆洲區水湳街31號","121.47193","25.0878883333333"
"247007","546-UM","2016/10/31 13:47:49","新北市蘆洲區重陽一街38號","121.48095","25.08186"
"247015","500-BY","2016/10/31 13:47:57","新北市蘆洲區復興路56號","121.473128333333","25.0856633333333"
"247003","341-TH","2016/10/31 13:47:32","新北市蘆洲區中原路48號","121.459235","25.0824116666667"
"247005","339-TH","2016/10/31 13:47:50","新北市蘆洲區和平路77號","121.469281666667","25.079045"
"247021","337-TH","2016/10/31 13:47:55","新北市蘆洲區中正路263巷2號","121.467195","25.087645"
"247011","057-VK","2016/10/31 13:47:44","新北市蘆洲區復興路323巷158-1號","121.480211666667","25.095665"
"247001","056-VK","2016/10/31 13:47:54","新北市蘆洲區三民路574號","121.461476666667","25.0935633333333"
"247019","053-VK","2016/10/31 13:47:54","新北市蘆洲區民族路422巷48弄24號","121.474703333333","25.0931633333333"
"247009","007-UY","2016/10/31 13:47:45","新北市蘆洲區復興路325號","121.484061666667","25.09121"
"247013","001-UY","2016/10/31 13:47:51","新北市蘆洲區民義街119-1號","121.47416","25.0912066666667"
"223002","198-BX","2016/10/31 10:52:17","新北市石碇區小粗坑(潭邊里)9-2號","121.678573333333","24.9858883333333"
"223008","406-TH","2016/10/31 09:08:25","新北市石碇區光明路13號","121.679485","25.0325633333333"
"223007","661-BX","2016/10/31 07:20:12","新北市石碇區番子坑9-2號","121.681576666667","25.0004116666667"
"227005","282-VK","2016/10/31 08:23:15","新北市雙溪區外柑里三叉坑4號","121.825905","25.0171983333333"
"253001","6251-TK","2016/10/31 10:17:30","新北市石門區中央路37-5號","121.568963333333","25.29611"
"208004","761-BX","2016/10/31 13:42:51","新北市金山區重和里林口35號","121.594271666667","25.2053633333333"
"207002","749-BX","2016/10/31 13:03:21","新北市萬里區雙興里大坪路21號","121.635463333333","25.1633633333333"
"252005","AAC-283","2016/10/31 13:12:09","新北市三芝區埔頭里埔頭2-1號","121.505721666667","25.251045"
"208005","170-UY","2016/10/31 13:47:50","新北市金山區法鼓路555號","121.615563333333","25.238975"
"236064","105-UM","2016/10/31 13:47:43","新北市土城區城林路6巷80號","121.438395","24.9797166666667"
"236040","107-UM","2016/10/31 13:47:48","新北市土城區中華路一段172號","121.441343333333","24.982805"
"236074","166-UM","2016/10/31 13:47:40","新北市土城區中華路二段196號","121.437525","24.9702566666667"
"236028","253-BX","2016/10/31 13:47:57","新北市土城區城林路6巷80號","121.438458333333","24.9798166666667"
"236032","271-VK","2016/10/31 13:47:28","新北市土城區城林路6巷80號","121.438363333333","24.9798516666667"
"236001","339-SR","2016/10/31 10:36:44","新北市土城區永平街51號","121.427621666667","24.959175"
"236016","401-BY","2016/10/31 13:47:38","新北市土城區城林路6巷80號","121.438583333333","24.9798"
"236006","498-BY","2016/10/31 13:47:44","新北市土城區學府路二段151-1號","121.44669","24.9791733333333"
"236056","912-UM","2016/10/31 13:47:49","新北市土城區城林路6巷80號","121.438361666667","24.9797066666667"
"236044","913-UM","2016/10/31 13:47:52","新北市土城區城林路6巷80號","121.438343333333","24.9797533333333"
"236052","AAC-216","2016/10/31 13:47:40","新北市土城區城林路6巷80號","121.438343333333","24.9797566666667"
"242026","986-R7","2016/10/31 09:48:49","新北市新莊區新泰路255巷83號","121.442223333333","25.0390616666667"
"242040","172-VK","2016/10/31 13:47:41","新北市新莊區龍安路533號","121.427806666667","25.0175383333333"
"221018","753-BX","2016/10/31 13:47:30","新北市汐止區福德二路16巷14-1號","121.635391666667","25.0686233333333"
"220027","145-BY","2016/10/31 13:47:53","新北市板橋區民權路202巷1弄2-3號","121.459448333333","25.0141983333333"
"220037","145-RM","2016/10/31 13:47:55","新北市板橋區民生路二段120號","121.47048","25.01965"
"220028","200-UY","2016/10/31 13:47:47","新北市板橋區大觀路二段265巷128號","121.442288333333","24.996275"
"220050","245-BX","2016/10/29 20:59:12","新北市板橋區民生路二段171號","121.469936666667","25.020165"
"220031","256-TC","2016/10/31 13:47:55","新北市板橋區大觀路二段22巷24號","121.445485","25.0035666666667"
"220105","257-TC","2016/10/31 13:47:42","新北市板橋區民生路二段120號","121.470396666667","25.0197633333333"
"220017","258-TC","2016/10/31 13:47:54","新北市板橋區民生路二段36-1號","121.472521666667","25.01665"
"220004","276-BY","2016/10/31 13:47:50","新北市板橋區四川路二段33號","121.454281666667","24.9955816666667"
"220019","283-VK","2016/10/31 13:47:42","新北市板橋區民生路二段36-1號","121.47248","25.0167333333333"
"220001","285-VK","2016/10/31 13:47:42","新北市板橋區民生路二段36-1號","121.472551666667","25.01672"
"220029","287-VK","2016/10/31 13:47:44","新北市板橋區南雅西路一段53巷10號","121.452623333333","25.00534"
"220039","288-VK","2016/10/31 13:47:56","新北市板橋區民生路二段120號","121.470423333333","25.0198133333333"
"220009","293-UM","2016/10/31 13:47:39","新北市板橋區民生路二段17號","121.472375","25.0163633333333"
"220023","297-UM","2016/10/31 13:47:54","新北市板橋區大觀路一段28巷75號","121.449928333333","25.011115"
"220010","305-R5","2016/10/31 03:27:00","新北市板橋區民生路二段15-1號","121.472693333333","25.0165"
"220041","307-R5","2016/10/31 13:47:29","新北市板橋區民生路二段120號","121.470675","25.01987"
"220047","317-R6","2016/10/31 13:47:54","新北市板橋區民生路二段161巷7號","121.470101666667","25.019635"
"220020","461-BY","2016/10/31 13:47:48","新北市板橋區金門街31巷38號","121.43375","24.9933916666667"
"220012","486-VK","2016/10/31 13:47:42","新北市板橋區民生路二段56-2號","121.472023333333","25.0170016666667"
"220038","487-VK","2016/10/31 13:47:47","新北市板橋區民生路二段120號","121.470366666667","25.01961"
"220036","491-VK","2016/10/31 13:47:47","新北市板橋區民生路二段120號","121.470501666667","25.0196083333333"
"220104","560-BX","2016/10/31 13:47:50","新北市板橋區南雅西路二段301巷49號","121.451896666667","25.016775"
"220052","561-BX","2016/10/31 13:47:53","新北市板橋區民生路二段120號","121.470321666667","25.0197"
"220011","609-BX","2016/10/31 13:47:52","新北市板橋區民生路二段36-1號","121.472595","25.0165383333333"
"220040","637-BX","2016/10/31 13:47:54","新北市板橋區民生路二段161巷1號","121.470131666667","25.020005"
"220005","686-BX","2016/10/31 13:47:43","新北市板橋區民生路二段17號","121.472551666667","25.0165116666667"
"220025","687-BX","2016/10/31 13:47:50","新北市板橋區大觀路二段174巷153號","121.441476666667","25.0027"
"220042","689-BX","2016/10/31 13:47:50","新北市板橋區民生路二段120號","121.47062","25.0194866666667"
"220002","741-BX","2016/10/31 13:47:56","新北市板橋區民生路二段36-1號","121.472505","25.0165983333333"
"220014","829-TW","2016/10/31 13:47:48","新北市板橋區民生路二段15-1號","121.472716666667","25.0164316666667"
"220051","830-TW","2016/10/31 13:47:57","新北市板橋區民生路二段120號","121.47072","25.01938"
"220045","831-TW","2016/10/31 13:47:50","新北市板橋區民生路二段161巷1號","121.470055","25.0199016666667"
"220022","895-R6","2016/10/31 13:47:51","新北市板橋區南門街14號","121.457398333333","25.0088983333333"
"220021","985-R7","2016/10/31 13:47:47","新北市板橋區南雅南路一段5巷19號","121.45649","25.00533"
"220046","AAC-210","2016/10/31 13:47:35","新北市板橋區民生路二段161巷3號","121.47005","25.0197633333333"
