"lineid","car","time","location","longitude","latitude"
"234028","746-BX","2016/10/31 14:48:53","新北市林口區太平里180號","121.366673333333","25.1339"
"249003","593-UM","2016/10/31 15:38:30","新北市八里區博物館路10-1號","121.414978333333","25.1642616666667"
"248007","095-VK","2016/10/31 15:12:42","新北市五股區中興路二段83巷26-6號","121.460178333333","25.0751566666667"
"234076","969-R7","2016/10/31 15:38:31","新北市中和區環河西路三段83號","121.492793333333","25.00801"
"234001","AAC-295","2016/10/31 15:38:18","新北市八里區中山路三段380號","121.36981","25.136415"
"244017","402-UM","2016/10/31 10:01:34","新北市林口區粉寮69號","121.40498","25.0908"
"243002","549-UM","2016/10/31 15:38:34","新北市泰山區泰林路三段745巷145號","121.405311666667","25.0676083333333"
"231029","001-UM","2016/10/31 15:38:28","新北市新店區安康路三段209號","121.487788333333","24.95173"
"231004","046-UY","2016/10/31 15:38:24","新北市新店區民族路105號","121.538203333333","24.977415"
"231036","192-VK","2016/10/31 15:38:27","新北市新店區安祥路69巷54弄65號","121.483735","24.9586766666667"
"231023","260-TV","2016/10/31 15:38:36","新北市新店區北新路一段96巷21號","121.542566666667","24.9688016666667"
"231003","268-BY","2016/10/31 15:38:19","新北市新店區寶橋路221號","121.549255","24.9775016666667"
"231011","278-BY","2016/10/31 15:38:19","新北市新店區寶元路二段1巷2號","121.550643333333","24.9841883333333"
"231005","355-BY","2016/10/31 15:38:28","新北市新店區建國路160號","121.538546666667","24.9794783333333"
"231038","3712-VJ","2016/10/31 15:38:15","新北市新店區安康路一段258-1號","121.52054","24.964325"
"231039","512-UM","2016/10/31 15:38:35","新北市新店區寶元路二段28號","121.546476666667","24.9819016666667"
"231018","513-UM","2016/10/31 15:38:27","新北市新店區中央五街53號","121.527888333333","24.97549"
"231026","515-UM","2016/10/31 15:38:35","新北市新店區三民路75巷6-1號","121.53546","24.9708466666667"
"231028","617-UM","2016/10/31 15:38:28","新北市新店區僑義路24號","121.50057","24.9500916666667"
"231034","641-BX","2016/10/31 15:38:26","新北市新店區如意街51號","121.493358333333","24.947205"
"231014","718-UY","2016/10/31 15:38:33","新北市新店區北宜路二段82-40號","121.553558333333","24.9532283333333"
"231031","719-UY","2016/10/31 15:38:33","新北市新店區雙城路13號","121.491748333333","24.9505016666667"
"231030","899-TW","2016/10/31 15:38:18","新北市新店區新和街93巷8號","121.520836666667","24.98669"
"241020","593-RM","2016/10/31 15:38:34","新北市三重區忠孝路二段52號","121.485091666667","25.0703483333333"
"241012","941-UM","2016/10/31 15:38:21","新北市三重區正義南路81號","121.498468333333","25.05982"
"241029","942-UM","2016/10/31 15:38:38","新北市三重區環河南路220-8號","121.493333333333","25.0526966666667"
"235028","005-UY","2016/10/31 15:38:10","新北市新店區薏仁坑路自強巷1號","121.497683333333","24.9579133333333"
"235072","301-VK","2016/10/31 15:15:43","新北市中和區員山路36巷16-3號","121.48498","24.9913916666667"
"235033","4980-A6","2016/10/31 15:38:29","新北市中和區新生街136號","121.483611666667","25.00098"
"235034","558-UM","2016/10/31 15:38:30","新北市中和區中正路366號","121.493425","24.9939883333333"
"235060","647-TV","2016/10/31 15:38:36","新北市中和區中正路571巷2弄11號","121.486076666667","24.99377"
"235011","732-UM","2016/10/31 13:30:19","新北市中和區員山路36巷13號","121.484131666667","24.991035"
"235035","783-BX","2016/10/31 15:38:32","新北市中和區建康路2號","121.485695","25.0001166666667"
"235026","800-TS","2016/10/31 15:38:11","新北市中和區中正路408號","121.49226","24.9943483333333"
"235012","896-TW","2016/10/31 15:38:29","新北市中和區景新街475號","121.513523333333","24.9877416666667"
"235001","AAC-213","2016/10/31 15:38:37","新北市中和區自立路99巷22弄27號","121.523245","24.9938566666667"
"235023","AAC-215","2016/10/31 15:38:28","新北市中和區員山路7-6號","121.482513333333","24.9854116666667"
"247003","341-TH","2016/10/31 15:18:32","新北市林口區太平里180號","121.367878333333","25.1348383333333"
"223002","198-BX","2016/10/31 10:52:17","新北市石碇區小粗坑(潭邊里)9-2號","121.678573333333","24.9858883333333"
"223008","406-TH","2016/10/31 09:08:25","新北市石碇區光明路13號","121.679485","25.0325633333333"
"223007","661-BX","2016/10/31 07:20:12","新北市石碇區番子坑9-2號","121.681576666667","25.0004116666667"
"224007","285-BY","2016/10/31 15:38:33","新北市瑞芳區大寮路356-1號","121.785076666667","25.10313"
"224005","271-BY","2016/10/31 15:38:23","新北市瑞芳區明燈路二段66號","121.809353333333","25.1073166666667"
"227001","642-TC","2016/10/31 15:38:18","新北市雙溪區牡丹里聖南10-3號","121.860961666667","25.0492383333333"
"253001","6251-TK","2016/10/31 10:17:30","新北市石門區中央路37-5號","121.568963333333","25.29611"
"208004","761-BX","2016/10/31 13:42:51","新北市金山區重和里林口35號","121.594271666667","25.2053633333333"
"207002","749-BX","2016/10/31 13:03:21","新北市萬里區雙興里大坪路21號","121.635463333333","25.1633633333333"
"252005","AAC-283","2016/10/31 13:12:09","新北市三芝區埔頭里埔頭2-1號","121.505721666667","25.251045"
"208005","170-UY","2016/10/31 15:34:40","新北市金山區永興里大水堀7號","121.617088333333","25.2615916666667"
"236064","105-UM","2016/10/31 15:38:13","新北市土城區中央路二段280號","121.440861666667","24.9739766666667"
"236040","107-UM","2016/10/31 15:38:18","新北市土城區學成路10號","121.453353333333","24.9866083333333"
"236074","166-UM","2016/10/31 15:38:22","新北市土城區福安街57號","121.418446666667","24.9644683333333"
"236028","253-BX","2016/10/31 15:38:36","新北市土城區日新街8巷3號","121.445308333333","24.987275"
"236024","269-VK","2016/10/31 15:38:31","新北市土城區明德路二段207號","121.44657","24.983705"
"236012","270-VK","2016/10/31 15:38:29","新北市土城區廣明街23巷19號","121.454995","24.9922133333333"
"236032","271-VK","2016/10/31 15:38:28","新北市土城區延吉街353巷6號","121.46462","24.9836133333333"
"236001","339-SR","2016/10/31 10:36:44","新北市土城區永平街51號","121.427621666667","24.959175"
"236016","401-BY","2016/10/31 15:38:38","新北市土城區峰廷街35號","121.469575","24.986365"
"236056","912-UM","2016/10/31 15:38:34","新北市土城區中央路一段253號","121.44514","24.985685"
"236044","913-UM","2016/10/31 15:38:22","新北市土城區金城路三段159號","121.468971666667","24.988335"
"236060","915-UM","2016/10/31 15:38:14","新北市土城區金城路三段163巷16號","121.468811666667","24.9891616666667"
"236052","AAC-216","2016/10/31 15:38:35","新北市土城區學府路一段8號","121.459446666667","24.9884516666667"
"242026","986-R7","2016/10/31 09:48:49","新北市新莊區新泰路255巷83號","121.442223333333","25.0390616666667"
"238010","601-UM","2016/10/31 15:38:12","新北市樹林區中正路439-1號","121.415093333333","25.0087833333333"
"238006","599-UM","2016/10/31 15:38:32","新北市樹林區太順街35號","121.418778333333","24.97956"
"238005","571-TV","2016/10/31 15:38:37","新北市樹林區鎮前街61號","121.424966666667","24.9911233333333"
"238011","5061-A6","2016/10/31 15:38:34","新北市樹林區八德街212巷20號","121.415266666667","24.9733566666667"
"238008","311-TH","2016/10/31 15:38:21","新北市樹林區柑園街一段21巷2號","121.404696666667","24.9605216666667"
"238009","308-TH","2016/10/31 15:38:31","新北市樹林區仁愛街23號","121.421571666667","24.9817016666667"
"238012","303-VK","2016/10/31 15:38:32","新北市樹林區中山路一段372-3號","121.418935","24.985815"
"238001","282-BY","2016/10/31 15:38:34","新北市樹林區中正路45巷10號","121.426543333333","24.99932"
"238007","268-VK","2016/10/31 15:38:34","新北市樹林區俊英街160巷5-1號","121.428168333333","25.0073816666667"
"238013","172-UY","2016/10/31 15:38:36","新北市樹林區新興街19巷34弄1號","121.402213333333","24.9735466666667"
"238003","169-UY","2016/10/31 15:38:29","新北市樹林區長壽街2巷5-4號","121.424113333333","24.9934183333333"
"221018","753-BX","2016/10/31 14:39:00","新北市新店區薏仁坑路11號","121.498398333333","24.9590233333333"
"220004","276-BY","2016/10/31 15:38:37","新北市八里區中華路三段17號","121.396793333333","25.14344"
"220043","283-UM","2016/10/31 15:38:32","新北市五股區成泰路一段98巷102號","121.450188333333","25.0779416666667"
"220020","461-BY","2016/10/31 15:38:38","新北市五股區天乙路102-22號","121.448448333333","25.107055"
"220052","561-BX","2016/10/31 15:38:33","新北市板橋區漢生東路83巷27號","121.467413333333","25.01683"
