"lineid","car","time","location","longitude","latitude"
"234028","746-BX","2016/10/31 14:48:53","新北市林口區太平里180號","121.366673333333","25.1339"
"249005","172-UM","2016/10/31 17:07:35","新北市八里區渡船頭9-2號","121.426303333333","25.1531033333333"
"249001","173-UM","2016/10/31 17:07:53","新北市八里區中華路二段329號","121.401695","25.1466383333333"
"249004","303-UY","2016/10/31 17:07:51","新北市八里區仁愛路10號","121.413288333333","25.1623333333333"
"249002","305-UY","2016/10/31 16:55:30","新北市八里區牛寮埔28號","121.432266666667","25.1450366666667"
"249003","593-UM","2016/10/31 17:07:30","新北市八里區中山路二段448號","121.399335","25.1474433333333"
"248007","095-VK","2016/10/31 15:12:42","新北市五股區中興路二段83巷26-6號","121.460178333333","25.0751566666667"
"234076","969-R7","2016/10/31 16:23:55","新北市永和區福和路1號","121.526535","25.00977"
"244006","080-UY","2016/10/31 17:07:44","新北市林口區中湖48-11號","121.380301666667","25.09332"
"244017","402-UM","2016/10/31 17:07:40","新北市林口區粉寮69號","121.405005","25.0909"
"244019","403-UM","2016/10/31 17:07:52","新北市林口區粉寮69號","121.405078333333","25.0908783333333"
"244023","483-VK","2016/10/31 17:07:50","新北市林口區粉寮路二段92號","121.404496666667","25.0886066666667"
"244021","657-BX","2016/10/31 17:07:42","新北市林口區粉寮路60-7號","121.405561666667","25.0884966666667"
"231004","046-UY","2016/10/31 16:33:57","新北市新店區安華路28-1號","121.519716666667","24.9608683333333"
"241011","013-R5","2016/10/31 17:07:38","新北市三重區仁愛街44號","121.496298333333","25.0721016666667"
"241028","022-UY","2016/10/31 17:07:47","新北市三重區重新路三段110號","121.4923","25.06024"
"241008","059-VK","2016/10/31 17:07:52","新北市三重區力行路二段136巷35號","121.48039","25.0753316666667"
"241009","060-VK","2016/10/31 17:07:40","新北市三重區三和路四段211-30號","121.482691666667","25.0800233333333"
"241031","061-VK","2016/10/31 17:07:39","新北市三重區重陽路一段113巷1弄42號","121.488186666667","25.0587616666667"
"241015","062-VK","2016/10/31 17:07:39","新北市三重區長安街28號","121.499246666667","25.0669483333333"
"241017","063-VK","2016/10/31 17:07:50","新北市三重區明志街28號","121.491685","25.0639"
"241024","065-VK","2016/10/31 17:07:45","新北市三重區後竹圍街295號","121.478903333333","25.0697966666667"
"241026","066-VK","2016/10/31 17:07:53","新北市三重區重新路二段64號","121.49783","25.0620566666667"
"241002","090-VK","2016/10/31 17:07:47","新北市三重區仁義街225巷40號","121.497755","25.0829633333333"
"241003","091-VK","2016/10/31 17:07:37","新北市三重區五華街141巷58號","121.49348","25.08679"
"241005","262-UM","2016/10/31 17:07:49","新北市三重區仁愛街703號","121.482751666667","25.0806916666667"
"241016","266-UM","2016/10/31 17:07:50","新北市三重區大同北路129-1號","121.493548333333","25.0641166666667"
"241022","267-UM","2016/10/31 17:07:49","新北市三重區重陽路二段24巷6號","121.486426666667","25.0626483333333"
"241018","268-UM","2016/10/31 17:07:40","新北市三重區六張街115號","121.49201","25.0698166666667"
"241032","269-UM","2016/10/31 17:07:54","新北市三重區新北大道一段21號","121.486363333333","25.0612666666667"
"241013","270-UM","2016/10/31 17:07:53","新北市三重區仁愛街89號","121.495833333333","25.0733883333333"
"241025","271-UM","2016/10/31 17:07:47","新北市三重區中正北路560巷49號","121.47087","25.0700033333333"
"241006","398-BY","2016/10/31 17:07:56","新北市三重區車路頭街129號","121.48415","25.0756666666667"
"241007","412-TH","2016/10/31 17:07:38","新北市三重區三和路四段145巷147號","121.487435","25.0790616666667"
"241004","475-VK","2016/10/31 17:07:30","新北市三重區五華街98巷23號","121.491486666667","25.081925"
"241019","478-VK","2016/10/31 17:07:48","新北市三重區自強路二段74巷61號","121.487028333333","25.0695783333333"
"241030","480-VK","2016/10/31 17:07:51","新北市三重區成功路46號","121.489045","25.050715"
"241014","543-UM","2016/10/31 17:07:50","新北市三重區龍濱路150號","121.501525","25.0722216666667"
"241023","545-UM","2016/10/31 17:07:46","新北市三重區忠孝路三段56-1號","121.480455","25.0651066666667"
"241001","547-UM","2016/10/31 17:07:44","新北市三重區仁愛街245巷12號","121.493826666667","25.078245"
"241020","593-RM","2016/10/31 17:07:54","新北市三重區自強路三段47號","121.486886666667","25.07307"
"241012","941-UM","2016/10/31 17:07:51","新北市三重區仁和街114號","121.499946666667","25.0747933333333"
"241029","942-UM","2016/10/31 17:07:54","新北市三重區重安街90號","121.4923","25.056375"
"241033","AAC-255","2016/10/31 17:07:51","新北市三重區中興北街271號","121.469096666667","25.0607083333333"
"235028","005-UY","2016/10/31 16:01:04","新北市中和區員山路36巷13號","121.483998333333","24.9909583333333"
"235072","301-VK","2016/10/31 15:15:43","新北市中和區員山路36巷16-3號","121.48498","24.9913916666667"
"235034","558-UM","2016/10/31 16:21:18","新北市中和區員山路36巷16-2號","121.485171666667","24.9914716666667"
"235060","647-TV","2016/10/31 17:07:56","新北市中和區員山路36巷16-2號","121.485201666667","24.9915516666667"
"235011","732-UM","2016/10/31 15:56:58","新北市中和區員山路36巷12號","121.484028333333","24.9906433333333"
"235026","800-TS","2016/10/31 15:45:40","新北市中和區員山路36巷16-3號","121.485038333333","24.991445"
"247018","893-R6","2016/10/31 17:07:43","新北市蘆洲區復興路85號","121.476403333333","25.0874616666667"
"247008","546-UM","2016/10/31 17:07:49","新北市蘆洲區信義路30巷112號","121.475106666667","25.077045"
"247004","341-TH","2016/10/31 17:07:31","新北市蘆洲區長安街207巷31號","121.459136666667","25.0816633333333"
"247022","337-TH","2016/10/31 17:07:55","新北市蘆洲區水湳街36-1號","121.470711666667","25.089435"
"247012","057-VK","2016/10/31 17:07:44","新北市蘆洲區信義路294號","121.47788","25.0876883333333"
"247002","056-VK","2016/10/31 17:07:53","新北市蘆洲區永樂街42號","121.458015","25.0885983333333"
"247020","053-VK","2016/10/31 17:07:53","新北市蘆洲區民族路422巷15弄23號","121.472988333333","25.0929266666667"
"247010","007-UY","2016/10/31 17:07:45","新北市蘆洲區民族路22號","121.475998333333","25.0842616666667"
"247014","001-UY","2016/10/31 17:07:51","新北市蘆洲區中央路61-7號","121.47336","25.0831033333333"
"223002","198-BX","2016/10/31 10:52:17","新北市石碇區小粗坑(潭邊里)9-2號","121.678573333333","24.9858883333333"
"223008","406-TH","2016/10/31 09:08:25","新北市石碇區光明路13號","121.679485","25.0325633333333"
"223007","661-BX","2016/10/31 07:20:12","新北市石碇區番子坑9-2號","121.681576666667","25.0004116666667"
"228003","097-TW","2016/10/31 17:07:56","新北市貢寮區福隆里東興街42號","121.94878","25.01785"
"228002","585-TW","2016/10/31 17:07:49","新北市貢寮區龍崗里泮宮路1號","121.907565","25.01858"
"228001","670-TC","2016/10/31 17:07:40","新北市貢寮區仁理村研海街62號","121.928711666667","25.035765"
"224010","AGQ-8101","2016/10/31 16:53:14","新北市瑞芳區明燈路二段44-1號","121.809481666667","25.1082933333333"
"224006","676-BX","2016/10/31 17:07:39","新北市瑞芳區大寮路58-3號","121.781745","25.0981966666667"
"224007","285-BY","2016/10/31 17:07:53","新北市瑞芳區楓子瀨路29號","121.768018333333","25.1005133333333"
"224009","275-VK","2016/10/31 17:07:43","新北市瑞芳區街頂巷36號","121.843556666667","25.110595"
"224008","273-VK","2016/10/31 17:07:56","新北市瑞芳區侯硐路83號","121.830325","25.08919"
"224005","271-BY","2016/10/31 17:07:53","新北市瑞芳區鼻頭路171號","121.915771666667","25.122865"
"227001","642-TC","2016/10/31 15:40:48","新北市雙溪區牡丹里中正路54號","121.865488333333","25.04005"
"227008","400-TW","2016/10/31 17:07:37","新北市雙溪區三貂里子崙坑1-6號","121.849915","25.0574816666667"
"253001","6251-TK","2016/10/31 10:17:30","新北市石門區中央路37-5號","121.568963333333","25.29611"
"208004","761-BX","2016/10/31 13:42:51","新北市金山區重和里林口35號","121.594271666667","25.2053633333333"
"251007","179-VK","2016/10/31 17:07:35","新北市淡水區中正東路二段81號","121.459268333333","25.1535983333333"
"251008","181-VK","2016/10/31 17:07:47","新北市淡水區民生路169號","121.469663333333","25.1421216666667"
"251013","182-VK","2016/10/31 17:07:32","新北市淡水區大埤頭2號","121.48891","25.1954433333333"
"251012","441-VK","2016/10/31 17:07:54","新北市淡水區中山北路一段247巷46號","121.443388333333","25.179775"
"251015","442-VK","2016/10/31 17:07:43","新北市淡水區鄧公路23巷2號","121.45104","25.17013"
"251009","575-R6","2016/10/31 17:07:40","新北市淡水區三民街20號","121.439011666667","25.1717916666667"
"207002","749-BX","2016/10/31 13:03:21","新北市萬里區雙興里大坪路21號","121.635463333333","25.1633633333333"
"252002","178-VK","2016/10/31 17:07:51","新北市三芝區忠孝街154-1號","121.506115","25.2585383333333"
"252005","AAC-283","2016/10/31 13:12:09","新北市三芝區埔頭里埔頭2-1號","121.505721666667","25.251045"
"236040","107-UM","2016/10/31 16:41:17","新北市土城區城林路6巷80號","121.438578333333","24.9796316666667"
"236030","253-BX","2016/10/31 16:31:09","新北市土城區城林路6巷80號","121.438423333333","24.97972"
"236001","339-SR","2016/10/31 10:36:44","新北市土城區永平街51號","121.427621666667","24.959175"
"242019","AAC-296","2016/10/31 17:07:34","新北市新莊區新泰路357巷3弄57號","121.442261666667","25.039475"
"242023","615-BX","2016/10/31 17:07:54","新北市新莊區新泰路255巷83號","121.442216666667","25.0389983333333"
"242060","613-BX","2016/10/31 17:07:55","新北市新莊區新泰路357巷3弄57號","121.44222","25.0392383333333"
"242025","612-BX","2016/10/31 17:07:50","新北市新莊區新泰路357巷3弄57號","121.442255","25.039425"
"242034","566-BX","2016/10/31 17:07:53","新北市新莊區新泰路357巷3弄57號","121.442193333333","25.03911"
"242039","497-BY","2016/10/31 17:07:45","新北市新莊區新泰路357巷3弄57號","121.442275","25.0394316666667"
"242002","442-UM","2016/10/31 17:07:46","新北市新莊區新泰路357巷3弄57號","121.442141666667","25.03905"
"242044","441-UM","2016/10/31 17:07:54","新北市新莊區中正路588號","121.426968333333","25.0303383333333"
"242048","440-UM","2016/10/31 17:07:46","新北市新莊區中正路524號","121.431258333333","25.0316983333333"
"242021","415-TV","2016/10/31 17:07:41","新北市新莊區新泰路357巷3弄57號","121.4422","25.0394866666667"
"242056","413-TV","2016/10/31 17:07:27","新北市新莊區新泰路357巷3弄57號","121.4422","25.0394833333333"
"242058","362-BY","2016/10/31 17:07:51","新北市新莊區新泰路255巷83號","121.442293333333","25.03865"
"242029","353-BY","2016/10/31 17:07:38","新北市新莊區新泰路255巷83號","121.442315","25.0387983333333"
"242009","132-UY","2016/10/31 17:07:55","新北市新莊區新泰路255巷83號","121.442156666667","25.0389066666667"
"242017","135-UY","2016/10/31 17:07:49","新北市新莊區三和路12-21號","121.442073333333","25.0388333333333"
"242042","172-VK","2016/10/31 17:07:41","新北市新莊區新樹路52號","121.437318333333","25.026685"
"242004","173-VK","2016/10/31 17:07:46","新北市新莊區三和路12-21號","121.4421","25.03875"
"242011","175-VK","2016/10/31 17:07:42","新北市新莊區三和路12-21號","121.442055","25.0385733333333"
"242036","346-TH","2016/10/31 15:08:26","新北市新莊區三和路12-15號","121.441886666667","25.0373316666667"
"242007","347-TH","2016/10/31 10:58:03","新北市新莊區三和路12-17號","121.442","25.03751"
"242015","348-TH","2016/10/31 17:07:32","新北市新莊區新泰路357巷3弄57號","121.442126666667","25.0396033333333"
"242050","349-TH","2016/10/31 17:07:36","新北市新莊區新泰路357巷3號","121.442178333333","25.0417266666667"
"242013","350-TH","2016/10/31 17:07:56","新北市新莊區新泰路357巷3弄57號","121.441991666667","25.03893"
"242031","351-TH","2016/10/31 03:12:29","新北市新莊區新泰路357巷3弄57號","121.4421","25.0394283333333"
"238019","599-UM","2016/10/31 17:07:52","新北市樹林區育德街78-1號","121.387721666667","24.96812"
"238005","571-TV","2016/10/31 17:07:38","新北市樹林區水源街54號","121.425755","24.9811816666667"
"238009","308-TH","2016/10/31 17:07:40","新北市樹林區八德街263-1號","121.41922","24.9739566666667"
"238017","283-BY","2016/10/31 17:07:42","新北市樹林區光武街28號","121.415856666667","25.0053433333333"
"238014","282-BY","2016/10/31 17:07:44","新北市樹林區大慶街99-1號","121.427675","24.9996383333333"
"238007","268-VK","2016/10/31 17:07:54","新北市樹林區中正路22-1號","121.427776666667","24.99934"
"238016","169-UY","2016/10/31 17:07:49","新北市樹林區中山路二段10號","121.417541666667","24.9849933333333"
"239007","AAC-297","2016/10/31 17:07:54","新北市鶯歌區光復街72號","121.351373333333","24.9565666666667"
"239006","891-R6","2016/10/31 17:07:42","新北市樹林區八德街1-1號","121.341198333333","24.9480916666667"
"239008","527-UM","2016/10/31 17:07:56","新北市鶯歌區西湖街243巷11-1號","121.33949","24.9650083333333"
"239005","526-UM","2016/10/31 17:07:57","新北市鶯歌區福德四街16號","121.329443333333","24.9677466666667"
"239001","417-VK","2016/10/31 17:07:53","新北市鶯歌區尖山路195號","121.344268333333","24.946915"
"239002","359-BY","2016/10/31 17:07:56","新北市鶯歌區建國路264號","121.34743","24.9534516666667"
"239004","193-VK","2016/10/31 17:07:51","新北市鶯歌區文化路228號","121.352661666667","24.948695"
"221018","753-BX","2016/10/31 14:39:00","新北市新店區薏仁坑路11號","121.498398333333","24.9590233333333"
"220020","277-BY","2016/10/31 17:03:41","新北市板橋區華東街1-9號","121.448105","24.9949466666667"
"220043","283-UM","2016/10/31 15:41:52","新北市三重區後埔街61-1號","121.47955","25.0479533333333"
"220020","461-BY","2016/10/31 16:52:56","新北市板橋區華東街1-9號","121.448111666667","24.9948766666667"
