"lineid","car","time","location","longitude","latitude"
"234028","746-BX","2016/10/31 17:13:26","新北市永和區福和路1號","121.52613","25.0095133333333"
"249005","172-UM","2016/10/31 17:19:35","新北市八里區華富山17號","121.418626666667","25.1333133333333"
"249001","173-UM","2016/10/31 17:19:23","新北市八里區中華路二段165巷3號","121.407633333333","25.150995"
"249004","303-UY","2016/10/31 17:19:31","新北市八里區文化街78號","121.421276666667","25.1601116666667"
"249002","305-UY","2016/10/31 16:55:30","新北市八里區牛寮埔28號","121.432266666667","25.1450366666667"
"249003","593-UM","2016/10/31 17:19:29","新北市八里區中山路二段439號","121.396653333333","25.1458983333333"
"248007","095-VK","2016/10/31 15:12:42","新北市五股區中興路二段83巷26-6號","121.460178333333","25.0751566666667"
"234076","969-R7","2016/10/31 16:23:55","新北市永和區福和路1號","121.526535","25.00977"
"244006","080-UY","2016/10/31 17:19:14","新北市林口區菁埔8-1號","121.378601666667","25.0962433333333"
"244017","402-UM","2016/10/31 17:19:31","新北市林口區粉寮69號","121.404981666667","25.0909016666667"
"244019","403-UM","2016/10/31 17:19:32","新北市林口區中山路144-1號","121.39141","25.0786983333333"
"244023","483-VK","2016/10/31 17:19:30","新北市林口區仁愛路一段637巷21號","121.388286666667","25.0759116666667"
"244021","657-BX","2016/10/31 17:19:21","新北市林口區粉寮87號","121.406896666667","25.0973216666667"
"244025","837-TS","2016/10/31 17:19:21","新北市林口區中山路73號","121.392651666667","25.0785933333333"
"231004","046-UY","2016/10/31 16:33:57","新北市新店區安華路28-1號","121.519716666667","24.9608683333333"
"241011","013-R5","2016/10/31 17:19:28","新北市三重區河邊北街100巷29號","121.502715","25.0701983333333"
"241028","022-UY","2016/10/31 17:19:17","新北市三重區仁化街63號","121.493825","25.0590366666667"
"241008","059-VK","2016/10/31 17:19:32","新北市三重區下竹圍街14號","121.481001666667","25.0757133333333"
"241009","060-VK","2016/10/31 17:19:21","新北市三重區仁愛街638號","121.483088333333","25.0805633333333"
"241015","062-VK","2016/10/31 17:19:30","新北市三重區福德北路89號","121.501848333333","25.0661566666667"
"241017","063-VK","2016/10/31 17:19:20","新北市三重區重新路三段94號","121.492688333333","25.0609416666667"
"241024","065-VK","2016/10/31 17:19:35","新北市三重區中正北路193巷21弄8號","121.476651666667","25.07052"
"241026","066-VK","2016/10/31 17:19:33","新北市三重區文化南路19號","121.500096666667","25.0620783333333"
"241002","090-VK","2016/10/31 17:19:28","新北市三重區自強路五段25號","121.493215","25.0809116666667"
"241003","091-VK","2016/10/31 17:19:07","新北市三重區富福街70號","121.492243333333","25.0848116666667"
"241005","262-UM","2016/10/31 17:19:19","新北市三重區永安北路二段25巷26號","121.482738333333","25.0820633333333"
"241016","266-UM","2016/10/31 17:19:29","新北市三重區市前街14號","121.489121666667","25.0624266666667"
"241022","267-UM","2016/10/31 17:19:32","新北市三重區中正北路64巷24號","121.486101666667","25.063775"
"241018","268-UM","2016/10/31 17:19:20","新北市三重區安慶街179號","121.493461666667","25.0685416666667"
"241032","269-UM","2016/10/31 17:19:34","新北市三重區興華街118號","121.483588333333","25.059685"
"241013","270-UM","2016/10/31 17:19:24","新北市三重區仁孝街62號","121.497261666667","25.07453"
"241025","271-UM","2016/10/31 17:19:31","新北市三重區中正北路416號","121.475155","25.0707733333333"
"241006","398-BY","2016/10/31 17:19:36","新北市三重區三和路四段218巷15號","121.485508333333","25.076445"
"241007","412-TH","2016/10/31 17:19:08","新北市三重區三和路四段155巷28號","121.484338333333","25.07872"
"241004","475-VK","2016/10/31 17:19:32","新北市三重區五華街110巷17弄1號","121.491018333333","25.0822133333333"
"241019","478-VK","2016/10/31 17:19:30","新北市三重區自強路二段50巷31號","121.488118333333","25.0697366666667"
"241030","480-VK","2016/10/31 17:19:31","新北市三重區成功路73巷20號","121.489405","25.0520066666667"
"241014","543-UM","2016/10/31 17:19:31","新北市三重區長壽街120巷8弄39號","121.501443333333","25.0688633333333"
"241023","545-UM","2016/10/31 17:19:27","新北市三重區三民街166號","121.482185","25.0655266666667"
"241001","547-UM","2016/10/31 17:19:23","新北市三重區仁愛街271號","121.493046666667","25.0788133333333"
"241020","593-RM","2016/10/31 17:19:34","新北市三重區自強路三段72號","121.4868","25.0734"
"241012","941-UM","2016/10/31 17:19:21","新北市三重區龍門路274巷27號","121.501223333333","25.0749783333333"
"241029","942-UM","2016/10/31 17:19:20","新北市三重區重新路4段18-1號","121.488283333333","25.05755"
"241033","AAC-255","2016/10/31 17:19:30","新北市三重區中興北街214號","121.468996666667","25.05937"
"235028","005-UY","2016/10/31 16:01:04","新北市中和區員山路36巷13號","121.483998333333","24.9909583333333"
"235072","301-VK","2016/10/31 15:15:43","新北市中和區員山路36巷16-3號","121.48498","24.9913916666667"
"235034","558-UM","2016/10/31 16:21:18","新北市中和區員山路36巷16-2號","121.485171666667","24.9914716666667"
"235060","647-TV","2016/10/31 17:09:49","新北市中和區員山路36巷16-2號","121.485185","24.99154"
"235011","732-UM","2016/10/31 15:56:58","新北市中和區員山路36巷12號","121.484028333333","24.9906433333333"
"235026","800-TS","2016/10/31 15:45:40","新北市中和區員山路36巷16-3號","121.485038333333","24.991445"
"247018","893-R6","2016/10/31 17:19:34","新北市蘆洲區民權路96巷5弄1號","121.474753333333","25.088585"
"247008","546-UM","2016/10/31 17:19:18","新北市蘆洲區永安北路一段50號","121.476166666667","25.075575"
"247004","341-TH","2016/10/31 17:19:31","新北市蘆洲區中原路32號","121.460013333333","25.08272"
"247022","337-TH","2016/10/31 17:19:25","新北市蘆洲區三民路221號","121.469891666667","25.0883266666667"
"247012","057-VK","2016/10/31 17:19:34","新北市蘆洲區信義路319巷8號","121.477865","25.0862533333333"
"247002","056-VK","2016/10/31 17:19:34","新北市蘆洲區環堤大道198號","121.457071666667","25.0908083333333"
"247020","053-VK","2016/10/31 17:19:33","新北市蘆洲區仁愛街92號","121.470658333333","25.0945166666667"
"247010","007-UY","2016/10/31 17:19:24","新北市蘆洲區中山一路120巷7弄34-2號","121.477141666667","25.0823733333333"
"247014","001-UY","2016/10/31 17:19:31","新北市蘆洲區忠孝路12-1號","121.470443333333","25.08409"
"223002","198-BX","2016/10/31 10:52:17","新北市石碇區小粗坑(潭邊里)9-2號","121.678573333333","24.9858883333333"
"223008","406-TH","2016/10/31 09:08:25","新北市石碇區光明路13號","121.679485","25.0325633333333"
"223007","661-BX","2016/10/31 07:20:12","新北市石碇區番子坑9-2號","121.681576666667","25.0004116666667"
"228003","097-TW","2016/10/31 17:19:36","新北市貢寮區福隆里興隆街16號","121.945041666667","25.0167083333333"
"228002","585-TW","2016/10/31 17:19:29","新北市貢寮區雙玉里下雙溪街24號","121.92179","25.0099"
"228001","670-TC","2016/10/31 17:19:30","新北市貢寮區仁理村仁和路1號","121.924146666667","25.047825"
"224010","AGQ-8101","2016/10/31 16:53:14","新北市瑞芳區明燈路二段44-1號","121.809481666667","25.1082933333333"
"224006","676-BX","2016/10/31 17:19:29","新北市瑞芳區大寮路23號","121.783025","25.0990583333333"
"224007","285-BY","2016/10/31 17:19:33","新北市瑞芳區頂坪路工業區133號","121.782821666667","25.0963166666667"
"224009","275-VK","2016/10/31 17:19:32","新北市瑞芳區汽車路147號","121.838531666667","25.1098833333333"
"224008","273-VK","2016/10/31 17:19:31","新北市瑞芳區侯硐路144-1號","121.8262","25.0838316666667"
"224005","271-BY","2016/10/31 17:19:23","新北市瑞芳區哩咾路1號","121.874418333333","25.1240516666667"
"227001","642-TC","2016/10/31 15:40:48","新北市雙溪區牡丹里中正路54號","121.865488333333","25.04005"
"227008","400-TW","2016/10/31 17:19:07","新北市雙溪區三貂里政光路1號","121.851575","25.06332"
"253001","6251-TK","2016/10/31 10:17:30","新北市石門區中央路37-5號","121.568963333333","25.29611"
"208004","761-BX","2016/10/31 13:42:51","新北市金山區重和里林口35號","121.594271666667","25.2053633333333"
"251007","179-VK","2016/10/31 17:19:35","新北市淡水區民生路47-4號","121.462003333333","25.1380133333333"
"251008","181-VK","2016/10/31 17:19:27","新北市淡水區大同路272號","121.467183333333","25.1408716666667"
"251013","182-VK","2016/10/31 17:19:32","新北市淡水區大竹圍1-1號","121.470868333333","25.1962766666667"
"251012","441-VK","2016/10/31 17:19:24","新北市淡水區中山北路一段158號","121.444226666667","25.17784"
"251015","442-VK","2016/10/31 17:18:43","新北市淡水區樹林口12號","121.478853333333","25.1680883333333"
"251006","561-UM","2016/10/31 17:19:35","新北市淡水區大智街24號","121.442043333333","25.1744333333333"
"251009","575-R6","2016/10/31 17:19:30","新北市淡水區三民街17號","121.438965","25.17181"
"251011","650-BX","2016/10/31 17:19:23","新北市淡水區坪頂路128號","121.464878333333","25.1613433333333"
"207002","749-BX","2016/10/31 13:03:21","新北市萬里區雙興里大坪路21號","121.635463333333","25.1633633333333"
"207004","225-TW","2016/10/31 17:19:27","新北市萬里區萬里里獅頭路3號","121.691531666667","25.178115"
"252002","178-VK","2016/10/31 17:19:21","新北市三芝區埔坪里埔頭坑169-2號","121.506011666667","25.2529033333333"
"252005","AAC-283","2016/10/31 13:12:09","新北市三芝區埔頭里埔頭2-1號","121.505721666667","25.251045"
"236040","107-UM","2016/10/31 16:41:17","新北市土城區城林路6巷80號","121.438578333333","24.9796316666667"
"236030","253-BX","2016/10/31 16:31:09","新北市土城區城林路6巷80號","121.438423333333","24.97972"
"236001","339-SR","2016/10/31 10:36:44","新北市土城區永平街51號","121.427621666667","24.959175"
"242019","AAC-296","2016/10/31 17:19:34","新北市新莊區中港路347號","121.45209","25.04562"
"242046","751-BX","2016/10/31 17:19:30","新北市新莊區新樹路65-5號","121.439375","25.0307983333333"
"242023","615-BX","2016/10/31 17:19:34","新北市新莊區中港路293號","121.452891666667","25.0440983333333"
"242060","613-BX","2016/10/31 17:19:35","新北市新莊區新泰路357巷3弄57號","121.44199","25.0390216666667"
"242025","612-BX","2016/10/31 17:19:30","新北市新莊區中平路82巷36-2號","121.44642","25.0449183333333"
"242034","566-BX","2016/10/31 17:19:33","新北市新莊區中正路473-1號","121.442146666667","25.033105"
"242039","497-BY","2016/10/31 17:19:24","新北市新莊區新樹路138-1號","121.435493333333","25.0233866666667"
"242002","442-UM","2016/10/31 17:19:36","新北市新莊區中正路473-1號","121.442088333333","25.0330416666667"
"242044","441-UM","2016/10/31 17:19:34","新北市新莊區富國路101-1號","121.421343333333","25.025545"
"242048","440-UM","2016/10/31 17:19:36","新北市新莊區龍安路253號","121.419708333333","25.0200866666667"
"242021","415-TV","2016/10/31 17:19:20","新北市新莊區中港一街10號","121.451698333333","25.04569"
"242056","413-TV","2016/10/31 17:19:27","新北市新莊區新泰路357巷3弄57號","121.441953333333","25.0394616666667"
"242058","362-BY","2016/10/31 17:19:31","新北市新莊區新泰路357巷3號","121.44217","25.041695"
"242029","353-BY","2016/10/31 17:19:28","新北市新莊區中原路118號","121.450275","25.0543966666667"
"242009","132-UY","2016/10/31 17:19:35","新北市新莊區中原路207號","121.450826666667","25.0542816666667"
"242017","135-UY","2016/10/31 17:19:29","新北市新莊區新泰路502巷36號","121.443496666667","25.0464616666667"
"242042","172-VK","2016/10/31 17:19:30","新北市新莊區新樹路115號","121.437378333333","25.026655"
"242004","173-VK","2016/10/31 17:19:16","新北市新莊區新泰路357巷3弄53號","121.442508333333","25.0399283333333"
"242011","175-VK","2016/10/31 17:19:32","新北市新莊區新泰路500號","121.442436666667","25.0462116666667"
"242053","176-VK","2016/10/31 17:19:32","新北市新莊區中正路473-1號","121.44211","25.033125"
"242036","346-TH","2016/10/31 17:19:33","新北市新莊區新樹路138-1號","121.43546","25.02338"
"242007","347-TH","2016/10/31 17:19:18","新北市新莊區新泰路500號","121.44235","25.046015"
"242015","348-TH","2016/10/31 17:19:36","新北市新莊區新泰路216號","121.446698333333","25.038745"
"242050","349-TH","2016/10/31 17:19:36","新北市新莊區新樹路449巷23號","121.434768333333","25.0145883333333"
"242013","350-TH","2016/10/31 17:19:36","新北市新莊區中誠街181號","121.447553333333","25.047195"
"242031","351-TH","2016/10/31 17:19:18","新北市新莊區新泰路440號","121.44333","25.0446033333333"
"238015","755-BX","2016/10/31 17:19:17","新北市樹林區東佳路8-2號","121.402286666667","24.97721"
"238019","599-UM","2016/10/31 17:19:33","新北市樹林區太平路273巷23號","121.421096666667","24.976115"
"238018","571-TV","2016/10/31 17:19:28","新北市樹林區水源街213號","121.424316666667","24.9871083333333"
"238021","311-TH","2016/10/31 17:19:12","新北市樹林區西圳街一段165巷20弄11號","121.395613333333","24.9601883333333"
"238022","308-TH","2016/10/31 17:19:31","新北市樹林區忠孝街29號","121.423758333333","24.98229"
"238012","303-VK","2016/10/31 17:19:32","新北市樹林區中正路23號","121.427451666667","24.9993166666667"
"238017","283-BY","2016/10/31 17:19:12","新北市樹林區光武街28號","121.41588","25.0053266666667"
"238014","282-BY","2016/10/31 17:19:33","新北市樹林區大慶街99-1號","121.427655","24.999625"
"238020","268-VK","2016/10/31 17:19:34","新北市樹林區中正路22-1號","121.42766","24.9994216666667"
"238026","172-UY","2016/10/31 17:19:36","新北市樹林區新興街25號","121.40001","24.9725666666667"
"238016","169-UY","2016/10/31 17:19:29","新北市樹林區中山路二段10號","121.417498333333","24.98506"
"239007","AAC-297","2016/10/31 17:19:34","新北市鶯歌區中正一路222巷21號","121.354556666667","24.9565083333333"
"239006","891-R6","2016/10/31 17:19:33","新北市鶯歌區德昌二街10號","121.33317","24.9595833333333"
"239008","527-UM","2016/10/31 17:19:26","桃園市龜山區宏德司法新村90號","121.3321","24.978"
"239005","526-UM","2016/10/31 17:19:26","新北市鶯歌區鶯桃路646號","121.329375","24.96902"
"239001","417-VK","2016/10/31 17:19:33","新北市鶯歌區中正三路106-1號","121.338003333333","24.9409233333333"
"239002","359-BY","2016/10/31 17:19:36","新北市鶯歌區建國路278號","121.346893333333","24.95341"
"239004","193-VK","2016/10/31 17:19:21","新北市三峽區復興路553號","121.356608333333","24.9404683333333"
"221018","753-BX","2016/10/31 14:39:00","新北市新店區薏仁坑路11號","121.498398333333","24.9590233333333"
"220020","277-BY","2016/10/31 17:03:41","新北市板橋區華東街1-9號","121.448105","24.9949466666667"
"220043","283-UM","2016/10/31 15:41:52","新北市三重區後埔街61-1號","121.47955","25.0479533333333"
"220020","461-BY","2016/10/31 16:52:56","新北市板橋區華東街1-9號","121.448111666667","24.9948766666667"
