"lineid","car","time","location","longitude","latitude"
"234007","207-UY","2016/10/31 20:38:43","新北市永和區環河西路二段195號","121.502281666667","25.01116"
"234009","338-UY","2016/10/31 20:38:54","新北市永和區光復街21號","121.516448333333","25.01741"
"234068","552-UM","2016/10/31 20:38:50","新北市永和區永亨路7號","121.519466666667","25.0057416666667"
"234017","745-BX","2016/10/31 20:38:32","新北市永和區仁愛路97號","121.512875","25.0131316666667"
"234030","746-BX","2016/10/31 20:38:52","新北市新店區柴埕路52巷1-1號","121.511685","24.9643466666667"
"234061","839-RS","2016/10/31 20:38:40","新北市永和區秀朗路一段175號","121.51701","25.0036833333333"
"234074","840-RS","2016/10/31 20:38:45","新北市永和區竹林路119巷22弄3-3號","121.521951666667","25.0115616666667"
"234042","862-TW","2016/10/31 20:38:53","新北市中和區安平路59號","121.509628333333","24.9950166666667"
"234050","863-TW","2016/10/31 20:38:47","新北市永和區保安路1號","121.510756666667","25.017165"
"249001","173-UM","2016/10/31 20:38:53","新北市八里區下罟子23號","121.376818333333","25.1386983333333"
"249004","303-UY","2016/10/31 20:38:51","新北市八里區中山路一段63號","121.418386666667","25.15939"
"249002","305-UY","2016/10/31 16:55:30","新北市八里區牛寮埔28號","121.432266666667","25.1450366666667"
"249003","593-UM","2016/10/31 20:38:30","新北市八里區商港路48號","121.394368333333","25.14447"
"234023","9380-KE","2016/10/31 20:38:39","新北市永和區保順路11號","121.504725","25.0094916666667"
"234077","969-R7","2016/10/31 20:38:41","新北市新店區安康路二段320巷6號","121.505166666667","24.9599583333333"
"234067","AAC-212","2016/10/31 20:38:55","新北市永和區保平路268巷51弄2號","121.507066666667","25.0063483333333"
"234003","AAC-295","2016/10/31 20:38:38","新北市永和區成功路一段1號","121.527405","25.00539"
"244006","080-UY","2016/10/31 18:34:44","新北市林口區林口路113巷6弄1號","121.388703333333","25.0806166666667"
"244023","483-VK","2016/10/31 19:42:58","新北市林口區粉寮69號","121.404806666667","25.0908266666667"
"243011","297-R6","2016/10/31 20:38:36","新北市泰山區明志路二段85號","121.428615","25.0521666666667"
"243010","549-UM","2016/10/31 20:38:54","新北市泰山區黎明路47號","121.421995","25.0578983333333"
"243013","646-TV","2016/10/31 18:19:59","新北市泰山區南林路103號","121.415945","25.04393"
"222003","436-BY","2016/10/31 20:38:54","新北市深坑區北深路二段179-1號","121.612585","25.00114"
"222002","659-BX","2016/10/31 20:38:38","新北市深坑區萬福路47號","121.599578333333","25.0068583333333"
"222001","696-SL","2016/10/31 20:38:49","新北市深坑區北深路三段256號","121.599708333333","25.00436"
"231060","001-UM","2016/10/31 20:38:48","新北市新店區錦秀路17號","121.47938","24.944545"
"231045","002-UM","2016/10/31 20:38:46","新北市新店區長春路120號","121.555906666667","24.9618633333333"
"231056","0293-UT","2016/10/31 20:38:40","新北市新店區中央路2號","121.533673333333","24.9788366666667"
"231043","046-UY","2016/10/31 20:38:54","新北市新店區建國路51號","121.540518333333","24.9756616666667"
"231040","106-UY","2016/10/31 20:38:51","新北市新店區中正路265巷1號","121.538008333333","24.9735683333333"
"231064","107-UY","2016/10/31 20:38:53","新北市新店區永安街56巷17號","121.518861666667","24.98586"
"231054","108-UY","2016/10/31 20:38:48","新北市新店區北新路一段64巷41號","121.542248333333","24.9656883333333"
"231049","187-VK","2016/10/31 20:38:29","新北市新店區永業路81巷50號","121.529661666667","24.9482566666667"
"231065","192-VK","2016/10/31 20:38:51","新北市新店區安祥路102巷47號","121.485791666667","24.963995"
"231042","268-BY","2016/10/31 20:38:48","新北市新店區寶橋路226號","121.5513","24.97873"
"231047","278-BY","2016/10/31 20:38:39","新北市新店區寶慶街5號","121.544226666667","24.98659"
"231044","355-BY","2016/10/31 20:38:48","新北市新店區民權路90巷36號","121.53703","24.9844333333333"
"231058","3713-VJ","2016/10/31 20:38:49","新北市新店區三民路94巷3號","121.534335","24.9732716666667"
"231067","4772-VM","2016/10/31 20:38:53","新北市新店區溪洲路8巷120-1號","121.532938333333","24.9632383333333"
"231068","512-UM","2016/10/31 20:38:54","新北市新店區寶元路一段85巷10號","121.543133333333","24.9860483333333"
"231051","513-UM","2016/10/31 20:38:56","新北市新店區中央七街27號","121.529628333333","24.9753383333333"
"231057","515-UM","2016/10/31 20:38:44","新北市新店區花園十路一段7號","121.554313333333","24.9339433333333"
"231059","617-UM","2016/10/31 20:38:48","新北市新店區安豐路46號","121.500041666667","24.9549166666667"
"231041","618-UM","2016/10/31 20:38:50","新北市新店區中正路543-4號","121.533691666667","24.9875266666667"
"231063","641-BX","2016/10/31 20:38:56","新北市新店區玫瑰路4-1號","121.493571666667","24.9514333333333"
"231050","718-UY","2016/10/31 20:38:53","新北市新店區建安街24號","121.539736666667","24.97547"
"231062","719-UY","2016/10/31 20:38:43","新北市新店區安泰路60巷134弄98號","121.4836","24.9434416666667"
"231052","720-UM","2016/10/31 20:38:55","新北市新店區松林路9號","121.547291666667","24.9107833333333"
"231061","899-TW","2016/10/31 20:38:48","新北市新店區新和街59巷2號","121.52011","24.9856166666667"
"231055","AKT-0513","2016/10/31 19:59:29","新北市新店區中華路50號","121.53965","24.9684333333333"
"241011","013-R5","2016/10/31 20:38:37","新北市三重區龍濱路285號","121.501113333333","25.0733166666667"
"241028","022-UY","2016/10/31 20:38:46","新北市三重區光興街89號","121.49744","25.0599416666667"
"241008","059-VK","2016/10/31 20:38:52","新北市三重區下竹圍街42號","121.481051666667","25.0748866666667"
"241009","060-VK","2016/10/31 20:38:40","新北市三重區仁愛街578號","121.484763333333","25.0812266666667"
"241031","061-VK","2016/10/31 20:38:38","新北市三重區重陽路一段113巷1弄51號","121.488118333333","25.0584766666667"
"241015","062-VK","2016/10/31 20:38:39","新北市三重區三和路二段228號","121.497451666667","25.0696133333333"
"241017","063-VK","2016/10/31 20:38:50","新北市三重區安慶街225號","121.490955","25.0677833333333"
"241024","065-VK","2016/10/31 20:38:45","新北市三重區三民街206巷2號","121.480765","25.06668"
"241002","090-VK","2016/10/31 20:38:47","新北市三重區仁義街167巷38弄2號","121.498753333333","25.0826683333333"
"241005","262-UM","2016/10/31 20:38:49","新北市三重區五華街141巷57號","121.493393333333","25.08646"
"241035","265-UM","2016/10/31 20:38:54","新北市三重區正義北路222號","121.496116666667","25.0678266666667"
"241016","266-UM","2016/10/31 20:38:49","新北市三重區長壽西街143-3號","121.494381666667","25.0666983333333"
"241022","267-UM","2016/10/31 20:38:52","新北市三重區民生街61巷6弄3號","121.488658333333","25.062115"
"241018","268-UM","2016/10/31 20:38:52","新北市三重區重陽路四段7號","121.491033333333","25.0690683333333"
"241013","270-UM","2016/10/31 20:38:53","新北市三重區溪尾街10-1號","121.491556666667","25.0746333333333"
"241025","271-UM","2016/10/31 20:38:55","新北市三重區頂崁街210巷28弄15號","121.475756666667","25.066935"
"241006","398-BY","2016/10/31 20:38:56","新北市三重區車路頭街135-1號","121.484273333333","25.07616"
"241007","412-TH","2016/10/31 20:38:38","新北市三重區自強路四段3巷2號","121.488666666667","25.07637"
"241004","475-VK","2016/10/31 20:38:42","新北市三重區仁愛街394號","121.49084","25.0810383333333"
"241019","478-VK","2016/10/31 20:38:48","新北市三重區忠孝路一段1號","121.492413333333","25.071725"
"241030","480-VK","2016/10/31 20:38:50","新北市三重區成功路73巷11號","121.489483333333","25.0519583333333"
"241014","543-UM","2016/10/31 20:38:50","新北市三重區萬壽街3號","121.49922","25.06932"
"241023","545-UM","2016/10/31 20:38:56","新北市三重區自由街35巷2號","121.478905","25.066925"
"241001","547-UM","2016/10/31 20:38:43","新北市三重區聯華街114號","121.485228333333","25.0748683333333"
"241020","593-RM","2016/10/31 20:38:54","新北市三重區明德街16號","121.492715","25.072205"
"241012","941-UM","2016/10/31 20:38:51","新北市三重區龍門路229號","121.501668333333","25.073965"
"241033","AAC-255","2016/10/31 20:38:40","新北市三重區光復路二段1號","121.472223333333","25.0533366666667"
"235064","005-UY","2016/10/31 20:38:09","新北市新店區薏仁坑路自強巷1號","121.497188333333","24.9577433333333"
"235039","097-UM","2016/10/31 20:38:45","新北市永和區民族街81巷62號","121.520386666667","24.9963383333333"
"235072","301-VK","2016/10/31 20:38:35","新北市八里區荖阡坑路34號","121.402215","25.1287833333333"
"235069","4980-A6","2016/10/31 20:38:39","新北市中和區員山路359巷1弄8號","121.481035","25.001615"
"235070","558-UM","2016/10/31 20:38:29","新北市板橋區民生路二段91號","121.471523333333","25.0175466666667"
"235060","647-TV","2016/10/31 20:38:56","新北市八里區中山路三段382號","121.368553333333","25.136105"
"235047","732-UM","2016/10/31 15:56:58","新北市中和區員山路36巷12號","121.484028333333","24.9906433333333"
"235062","800-TS","2016/10/31 20:04:54","新北市中和區員山路36巷16-2號","121.485215","24.9914533333333"
"235037","AAC-213","2016/10/31 20:38:36","新北市中和區自立路99巷22弄32號","121.52321","24.99385"
"220083","015-TV","2016/10/31 20:38:45","新北市板橋區僑中二街106巷14號","121.445261666667","25.007695"
"247018","893-R6","2016/10/31 20:38:43","新北市蘆洲區復興路158號","121.477405","25.0880516666667"
"247008","546-UM","2016/10/31 20:38:48","新北市蘆洲區重陽一街23號","121.480725","25.0817933333333"
"247016","500-BY","2016/10/31 20:38:57","新北市蘆洲區中山二路288號","121.468878333333","25.07768"
"247004","341-TH","2016/10/31 20:38:31","新北市蘆洲區長安街222號","121.458131666667","25.0848933333333"
"247006","339-TH","2016/10/31 20:38:50","新北市蘆洲區和平路122號","121.467508333333","25.0800366666667"
"247022","337-TH","2016/10/31 20:38:55","新北市蘆洲區中正路263巷12號","121.466861666667","25.0870783333333"
"247010","336-TH","2016/10/31 20:38:44","新北市蘆洲區長樂路150號","121.462331666667","25.09077"
"247012","057-VK","2016/10/31 20:38:43","新北市蘆洲區復興路340巷10號","121.482453333333","25.0900066666667"
"247002","056-VK","2016/10/31 20:38:53","新北市蘆洲區長榮路345號","121.459531666667","25.087605"
"247020","053-VK","2016/10/31 20:38:53","新北市蘆洲區民族路446-3號","121.472658333333","25.0919883333333"
"247010","007-UY","2016/10/31 20:38:45","新北市蘆洲區中山一路40號","121.479613333333","25.0808183333333"
"247014","001-UY","2016/10/31 20:38:51","新北市蘆洲區成功路92號","121.472885","25.0815683333333"
"223002","198-BX","2016/10/31 10:52:17","新北市石碇區小粗坑(潭邊里)9-2號","121.678573333333","24.9858883333333"
"223008","406-TH","2016/10/31 09:08:25","新北市石碇區光明路13號","121.679485","25.0325633333333"
"223007","661-BX","2016/10/31 07:20:12","新北市石碇區番子坑9-2號","121.681576666667","25.0004116666667"
"227001","642-TC","2016/10/31 18:54:48","新北市雙溪區平林里外平林9-5號","121.85913","25.0379783333333"
"251006","010-UM","2016/10/31 20:38:46","新北市淡水區商工路198巷4號","121.451148333333","25.1873816666667"
"251001","011-UM","2016/10/31 20:38:32","新北市淡水區淡金路218號","121.460328333333","25.16698"
"251013","182-VK","2016/10/31 20:38:31","新北市淡水區奎柔山路295號","121.459515","25.20543"
"251010","413-VK","2016/10/31 20:38:56","新北市淡水區沙崙路143號","121.42293","25.1831766666667"
"251012","441-VK","2016/10/31 20:38:54","新北市淡水區興仁路108號","121.45165","25.2181383333333"
"251015","442-VK","2016/10/31 20:38:43","新北市淡水區淡金路四段542巷17號","121.452726666667","25.22709"
"251009","575-R6","2016/10/31 20:38:39","新北市淡水區中山北路三段165-1號","121.445098333333","25.1968633333333"
"251011","650-BX","2016/10/31 20:38:53","新北市淡水區新市一路一段306號","121.436115","25.18624"
"251002","672-BX","2016/10/31 20:38:53","新北市淡水區中正路38-1號","121.443713333333","25.1692"
"251003","766-UM","2016/10/31 20:38:48","新北市淡水區新民街120巷54號","121.43877","25.178455"
"207002","749-BX","2016/10/31 13:03:21","新北市萬里區雙興里大坪路21號","121.635463333333","25.1633633333333"
"252001","292-VK","2016/10/31 20:38:36","新北市三芝區長安街40號","121.501455","25.2563233333333"
"252005","AAC-283","2016/10/31 13:12:09","新北市三芝區埔頭里埔頭2-1號","121.505721666667","25.251045"
"236042","107-UM","2016/10/31 20:38:47","新北市樹林區八德街67號","121.399611666667","24.9693166666667"
"236001","339-SR","2016/10/31 10:36:44","新北市土城區永平街51號","121.427621666667","24.959175"
"236020","401-BY","2016/10/31 20:38:38","新北市土城區金城路二段207號","121.454381666667","24.9815316666667"
"242027","986-R7","2016/10/31 20:38:49","新北市新莊區思源路243號","121.45974","25.0469016666667"
"242046","751-BX","2016/10/31 20:38:50","新北市新莊區中正路597號","121.43285","25.032115"
"242023","615-BX","2016/10/31 20:38:54","新北市新莊區復興路三段2號","121.460475","25.0444733333333"
"242060","613-BX","2016/10/31 20:38:54","新北市新莊區新樹路258巷3號","121.432153333333","25.0155033333333"
"242025","612-BX","2016/10/31 20:38:50","新北市新莊區化成路579巷1號","121.464263333333","25.06605"
"242034","566-BX","2016/10/31 20:38:53","新北市新莊區中正路372號","121.443473333333","25.0343016666667"
"242039","497-BY","2016/10/31 20:38:44","新北市新莊區瓊林北路13號","121.439436666667","25.0225066666667"
"242002","442-UM","2016/10/31 20:38:50","新北市新莊區中正路88號","121.455558333333","25.0367983333333"
"242044","441-UM","2016/10/31 20:38:53","新北市新莊區龍安路94號","121.417715","25.0208216666667"
"242048","440-UM","2016/10/31 20:38:45","新北市新莊區中正路516-2號","121.433351666667","25.03232"
"242021","415-TV","2016/10/31 20:38:40","新北市新莊區公園路80號","121.450198333333","25.0396183333333"
"242056","413-TV","2016/10/31 20:38:57","新北市新莊區瓊泰路74號","121.443255","25.0289583333333"
"242058","362-BY","2016/10/31 20:38:50","新北市新莊區四維路5號","121.423941666667","25.0248916666667"
"242029","353-BY","2016/10/31 20:38:38","新北市新莊區中華路二段145號","121.452808333333","25.05117"
"242009","132-UY","2016/10/31 20:38:54","新北市新莊區中港路511號","121.452038333333","25.05059"
"242017","135-UY","2016/10/31 20:38:49","新北市新莊區中港三街120號","121.447873333333","25.04598"
"242042","172-VK","2016/10/31 20:38:41","新北市新莊區天祥街15巷9號","121.41673","25.02755"
"242004","173-VK","2016/10/31 20:38:46","新北市新莊區化成路371巷28弄1號","121.463406666667","25.0570483333333"
"242011","175-VK","2016/10/31 20:38:42","新北市新莊區中信街99巷8號","121.447206666667","25.053485"
"242053","176-VK","2016/10/31 20:38:47","新北市新莊區民安西路229巷7弄19號","121.426535","25.0145966666667"
"242036","346-TH","2016/10/31 20:38:53","新北市新莊區建安街37號","121.428905","25.02574"
"242007","347-TH","2016/10/31 20:38:48","新北市新莊區思源路159號","121.459825","25.0446533333333"
"242050","349-TH","2016/10/31 20:38:35","新北市新莊區民安西路173巷2弄2號","121.426445","25.01596"
"242013","350-TH","2016/10/31 20:38:55","新北市新莊區中和街191巷1-1號","121.44783","25.0513183333333"
"242031","351-TH","2016/10/31 20:38:38","新北市新莊區中正路506號","121.435661666667","25.0328733333333"
"238025","303-VK","2016/10/31 20:01:32","新北市樹林區中山路三段210-2號","121.380771666667","24.9668333333333"
"221008","129-UY","2016/10/31 20:38:53","新北市汐止區康寧街706-2號","121.63849","25.07308"
"221036","130-UY","2016/10/31 20:38:47","新北市汐止區忠孝東路225號","121.662401666667","25.0669716666667"
"221015","131-UY","2016/10/31 20:38:38","新北市汐止區建成路142巷19弄3號","121.662148333333","25.0739066666667"
"221012","278-VK","2016/10/31 20:38:43","新北市汐止區大同路三段211號","121.672436666667","25.076835"
"221027","281-BY","2016/10/31 20:38:52","新北市汐止區中正路174-1號","121.659236666667","25.069195"
"221029","298-VK","2016/10/31 20:38:55","新北市汐止區大同路一段515巷14號","121.64524","25.062525"
"221035","622-UM","2016/10/31 20:38:54","新北市汐止區長江街101-5號","121.658723333333","25.07319"
"221025","623-UM","2016/10/31 20:38:55","新北市汐止區水源路二段185號","121.65776","25.0535666666667"
"221033","647-BX","2016/10/31 20:38:42","新北市汐止區合順街18巷8弄5號","121.620291666667","25.04184"
"221002","707-TV","2016/10/31 20:38:37","新北市汐止區福德二路132巷2號","121.63122","25.0653383333333"
"220056","276-BY","2016/10/31 20:38:47","新北市五股區成洲一路25號","121.44943","25.0947183333333"
"220072","277-BY","2016/10/31 20:38:47","新北市新莊區中平路377巷17弄56號","121.44239","25.051965"
"220062","305-R5","2016/10/31 20:35:59","新北市林口區汕頭32號","121.36636","25.13459"
"220020","461-BY","2016/10/31 16:52:56","新北市板橋區華東街1-9號","121.448111666667","24.9948766666667"
"220103","561-BX","2016/10/31 20:38:52","新北市板橋區漢生東路53巷28號","121.466673333333","25.0174"
