"lineid","car","time","location","longitude","latitude"
"234068","552-UM","2016/10/24 15:47:29","新北市五股區成洲一路25號","121.449623333333","25.09535"
"234015","745-BX","2016/10/24 12:27:40","新北市永和區福和路1號","121.526276666667","25.0096966666667"
"234028","746-BX","2016/10/24 15:47:41","新北市五股區成泰路一段98巷102號","121.450308333333","25.0777966666667"
"234072","840-RS","2016/10/24 14:40:28","新北市永和區環河東路一段162號","121.521375","25.01451"
"234048","863-TW","2016/10/24 15:47:44","新北市八里區中華路三段11號","121.397046666667","25.1436166666667"
"234076","969-R7","2016/10/24 15:47:50","新北市板橋區文化路二段641-21號","121.480065","25.0411016666667"
"234001","AAC-295","2016/10/24 15:47:24","新北市八里區中華路三段62號","121.393958333333","25.140805"
"244007","080-UY","2016/10/24 10:40:07","新北市林口區粉寮69號","121.405016666667","25.0908233333333"
"243014","380-SR","2016/10/24 15:37:14","新北市泰山區犁頭窠3-1號","121.422245","25.0606166666667"
"243005","646-TV","2016/10/24 13:17:38","新北市泰山區南林路103號","121.415485","25.0458683333333"
"243007","680-BX","2016/10/24 14:52:16","新北市泰山區仁愛路72號","121.432588333333","25.055055"
"231029","001-UM","2016/10/24 15:47:47","新北市新店區安康路二段335號","121.498913333333","24.95629"
"231004","046-UY","2016/10/24 15:47:32","新北市新店區民族路105號","121.538135","24.9773383333333"
"231023","108-UY","2016/10/24 15:47:37","新北市新店區大新街9巷28號","121.544455","24.96703"
"231013","187-VK","2016/10/24 15:47:41","新北市新店區永業路81巷25號","121.530795","24.9486816666667"
"231003","268-BY","2016/10/24 15:47:47","新北市新店區寶興路60巷2號","121.549895","24.9718966666667"
"231038","3712-VJ","2016/10/24 15:47:53","新北市新店區安康路二段16巷36號","121.5166","24.9651666666667"
"231037","4715-K9","2016/10/24 15:47:53","新北市新店區安興路112號","121.514655","24.9777233333333"
"231018","513-UM","2016/10/24 15:47:36","新北市新店區民生路156巷90號","121.527461666667","24.9822033333333"
"231026","515-UM","2016/10/24 15:47:44","新北市新店區中正路448-1號","121.534068333333","24.978685"
"231034","641-BX","2016/10/24 15:47:33","新北市新店區吉祥街15巷1號","121.497756666667","24.9455633333333"
"231014","718-UY","2016/10/24 15:47:51","新北市新店區中華路83巷4弄11號","121.538551666667","24.968485"
"231011","719-UM","2016/10/24 15:47:31","新北市新店區文化路35號","121.543928333333","24.9801433333333"
"231031","719-UY","2016/10/24 15:47:50","新北市新店區雙城路43巷1號","121.49242","24.9487"
"231019","720-UM","2016/10/24 12:46:17","新北市新店區安華路28-1號","121.519306666667","24.961275"
"231030","899-TW","2016/10/24 15:47:26","新北市新店區永安街60號","121.518915","24.9868966666667"
"241006","398-BY","2016/10/24 15:47:51","新北市三重區重新路四段121號","121.48469","25.0519283333333"
"241014","543-UM","2016/10/24 15:47:44","新北市三重區重新路四段121號","121.485051666667","25.0520216666667"
"241022","593-RM","2016/10/24 15:47:39","新北市三重區重新路四段121號","121.484611666667","25.0523933333333"
"241012","941-UM","2016/10/24 15:47:40","新北市三重區自強路一段68號","121.497083333333","25.0666066666667"
"241033","AAC-255","2016/10/24 03:55:49","新北市三重區重新路四段121號","121.484665","25.05207"
"235028","005-UY","2016/10/24 15:47:25","新北市新店區安忠路102-1號","121.510628333333","24.9556133333333"
"235004","150-BY","2016/10/24 15:47:47","新北市中和區中正路515號","121.488195","24.994125"
"235036","301-VK","2016/10/24 15:10:11","新北市中和區員山路36巷16-3號","121.485018333333","24.991345"
"235034","558-UM","2016/10/24 15:47:14","新北市中和區圓通路433巷8號","121.488063333333","24.9880216666667"
"235024","647-TV","2016/10/24 15:47:50","新北市中和區員山路36巷16-3號","121.485031666667","24.9914366666667"
"235047","732-UM","2016/10/24 15:47:31","新北市中和區員山路36巷16-2號","121.485213333333","24.991835"
"235035","783-BX","2016/10/24 15:47:47","新北市中和區永和路446-33號","121.484343333333","25.0118533333333"
"235026","800-TS","2016/10/24 15:47:24","新北市中和區中山路二段482巷31號","121.489863333333","25.0069216666667"
"235002","952-SL","2016/10/24 15:04:03","新北市中和區員山路36巷13號","121.484345","24.9910616666667"
"235001","AAC-213","2016/10/24 15:47:53","新北市中和區秀朗路三段50巷4弄2號","121.525758333333","24.9956466666667"
"235023","AAC-215","2016/10/24 15:47:32","新北市中和區員山路28-26號","121.48098","24.9866933333333"
"220016","013-TV","2016/10/24 15:47:33","新北市樹林區中山路三段210-2號","121.38066","24.9676283333333"
"247017","893-R6","2016/10/24 15:32:01","新北市蘆洲區復興路323巷150號","121.480075","25.0953383333333"
"247003","341-TH","2016/10/24 15:14:18","新北市林口區太平里180號","121.366478333333","25.13456"
"247005","339-TH","2016/10/24 15:47:26","新北市蘆洲區復興路323巷161號","121.477848333333","25.09427"
"247011","057-VK","2016/10/24 15:47:48","新北市蘆洲區中正路520巷17號","121.464921666667","25.0996033333333"
"223008","406-TH","2016/10/24 08:57:40","新北市石碇區十八重溪68號","121.674123333333","25.0151716666667"
"224002","639-TC","2016/10/24 09:13:59","新北市瑞芳區大寮路356-1號","121.784951666667","25.1031516666667"
"224007","285-BY","2016/10/24 15:47:28","新北市瑞芳區大寮路356-1號","121.784855","25.1031983333333"
"227001","642-TC","2016/10/24 15:47:33","新北市雙溪區平林里外平林44號","121.85295","25.036345"
"227008","400-TW","2016/10/24 15:47:51","新北市雙溪區牡丹里中正路54號","121.865425","25.0401616666667"
"208004","761-BX","2016/10/24 15:21:39","新北市金山區西湖里尖山仔25號","121.61486","25.252335"
"208005","170-UY","2016/10/24 15:06:08","新北市金山區永興里大水堀10號","121.617058333333","25.2635716666667"
"236064","105-UM","2016/10/24 15:47:33","新北市土城區中山路74號","121.43287","24.97087"
"236040","107-UM","2016/10/24 15:47:33","新北市土城區裕民路95號","121.450348333333","24.9871433333333"
"236074","166-UM","2016/10/24 15:47:53","新北市土城區福安街30號","121.419506666667","24.9648983333333"
"236028","253-BX","2016/10/24 15:47:40","新北市土城區學成路128巷13弄6號","121.449546666667","24.9902133333333"
"236024","269-VK","2016/10/24 15:47:44","新北市土城區裕生路83巷29弄5號","121.448261666667","24.983935"
"236012","270-VK","2016/10/24 15:47:45","新北市土城區廣明街63巷21號","121.454201666667","24.99327"
"236016","401-BY","2016/10/24 15:47:44","新北市土城區延吉街139號","121.470615","24.9861983333333"
"236056","912-UM","2016/10/24 15:47:50","新北市土城區中央路一段273號","121.444685","24.984795"
"236044","913-UM","2016/10/24 15:47:38","新北市土城區延吉街395號","121.462923333333","24.9840816666667"
"236052","AAC-216","2016/10/24 15:47:25","新北市土城區學成路126號","121.449288333333","24.9896516666667"
"242060","613-BX","2016/10/24 10:04:07","新北市新莊區新泰路357巷3弄57號","121.442176666667","25.0391233333333"
"242021","415-TV","2016/10/24 10:50:56","新北市新莊區新泰路357巷3弄57號","121.441995","25.0392916666667"
"242057","362-BY","2016/10/24 10:54:39","新北市新莊區新泰路255巷83號","121.4424","25.038745"
"238002","755-BX","2016/10/24 15:47:32","新北市樹林區啟智街25號","121.42093","24.9934066666667"
"238010","601-UM","2016/10/24 15:47:28","新北市樹林區三福街38號","121.408095","25.0165966666667"
"238006","599-UM","2016/10/24 15:47:38","新北市樹林區八德街11號","121.420036666667","24.9747416666667"
"238005","571-TV","2016/10/24 15:47:53","新北市樹林區中華路172-3號","121.413835","24.9804033333333"
"238011","5061-A6","2016/10/24 15:47:48","新北市樹林區中山路二段189巷4號","121.405531666667","24.9765733333333"
"238009","312-TH","2016/10/24 15:47:31","新北市樹林區太元街27號","121.418291666667","24.9798916666667"
"238008","311-TH","2016/10/24 15:47:22","新北市樹林區柑園街一段275號","121.393951666667","24.9563433333333"
"238001","282-BY","2016/10/24 15:47:29","新北市樹林區潭興街95號","121.42459","24.9986383333333"
"238007","268-VK","2016/10/24 15:47:47","新北市樹林區俊英街166巷9號","121.427033333333","25.007185"
"238013","172-UY","2016/10/24 15:47:37","新北市樹林區中洲街41號","121.396925","24.971285"
"238003","169-UY","2016/10/24 15:47:43","新北市樹林區復興路275號","121.41897","24.9893933333333"
"221023","279-VK","2016/10/24 15:06:06","新北市汐止區汐萬路一段256巷1號","121.651705","25.0748683333333"
"221002","488-VK","2016/10/24 15:26:18","新北市汐止區汐萬路一段256巷3號","121.65268","25.0745116666667"
"221025","623-UM","2016/10/24 15:32:50","新北市汐止區康寧街901號","121.651678333333","25.0749016666667"
"221018","753-BX","2016/10/24 13:57:15","新北市汐止區橫科路73巷2-2號","121.619638333333","25.0507233333333"
"220017","258-TC","2016/10/24 15:47:39","新北市樹林區育德街68號","121.389475","24.968235"
"220004","276-BY","2016/10/24 15:47:35","新北市板橋區民生路二段36-1號","121.47256","25.0166733333333"
"220002","741-BX","2016/10/24 15:47:40","新北市樹林區中山路三段210-2號","121.381558333333","24.9655133333333"
"220018","AAC-253","2016/10/24 15:47:50","新北市板橋區民生路二段36-1號","121.472475","25.016675"
"249001","3G-TL5","2016/10/24 15:47:42","桃園市楊梅區電研路100-24號","121.166101666667","24.9536566666667"
