"lineid","car","time","location","longitude","latitude"
"234068","552-UM","2016/10/24 16:17:43","新北市永和區福和路1號","121.52645","25.0098583333333"
"234015","745-BX","2016/10/24 16:08:26","新北市永和區福和路1號","121.526398333333","25.009685"
"234028","746-BX","2016/10/24 16:37:10","新北市永和區福和路1號","121.526358333333","25.0096333333333"
"234072","840-RS","2016/10/24 14:40:28","新北市永和區環河東路一段162號","121.521375","25.01451"
"249005","172-UM","2016/10/24 17:17:51","新北市八里區華富山15-2號","121.418051666667","25.13427"
"249001","173-UM","2016/10/24 17:17:30","新北市八里區中華路二段165巷3號","121.407683333333","25.1509333333333"
"249004","303-UY","2016/10/24 17:17:38","新北市八里區文化街15號","121.424076666667","25.15973"
"249003","593-UM","2016/10/24 17:17:36","新北市八里區中山路二段443號","121.396661666667","25.1457"
"234076","969-R7","2016/10/24 16:08:03","新北市永和區福和路1號","121.526561666667","25.0097866666667"
"244019","403-UM","2016/10/24 17:17:50","新北市林口區粉寮路二段66-1號","121.404163333333","25.0879133333333"
"244009","410-SL","2016/10/24 17:17:53","新北市林口區文林街29號","121.380765","25.089235"
"244023","483-VK","2016/10/24 17:17:52","新北市林口區仁愛路一段675號","121.387231666667","25.0767333333333"
"244017","485-VK","2016/10/24 17:17:47","新北市林口區粉寮69號","121.405005","25.0908916666667"
"244021","657-BX","2016/10/24 17:17:49","新北市林口區粉寮路二段160巷18號","121.40563","25.0928016666667"
"244025","837-TS","2016/10/24 17:16:59","新北市林口區中山路202號","121.388631666667","25.07905"
"243014","380-SR","2016/10/24 15:37:14","新北市泰山區犁頭窠3-1號","121.422245","25.0606166666667"
"243005","646-TV","2016/10/24 13:17:38","新北市泰山區南林路103號","121.415485","25.0458683333333"
"243007","680-BX","2016/10/24 14:52:16","新北市泰山區仁愛路72號","121.432588333333","25.055055"
"231056","0293-UT","2016/10/24 15:59:42","新北市新店區安華路28-1號","121.519228333333","24.9606733333333"
"231004","046-UY","2016/10/24 16:32:50","新北市新店區安華路28-1號","121.519701666667","24.9609766666667"
"231068","512-UM","2016/10/24 16:17:39","新北市新店區安華路28-1號","121.519208333333","24.9613033333333"
"231063","641-BX","2016/10/24 16:29:02","新北市新店區安華路28-1號","121.519618333333","24.96064"
"231019","720-UM","2016/10/24 12:46:17","新北市新店區安華路28-1號","121.519306666667","24.961275"
"241011","013-R5","2016/10/24 17:17:45","新北市三重區河邊北街108號","121.503786666667","25.0708166666667"
"241028","022-UY","2016/10/24 17:17:54","新北市三重區仁化街35號","121.49343","25.05951"
"241009","060-VK","2016/10/24 17:17:54","新北市三重區仁愛街632號","121.483231666667","25.0805883333333"
"241015","062-VK","2016/10/24 17:17:37","新北市三重區長元街82-1號","121.501818333333","25.06633"
"241017","063-VK","2016/10/24 17:17:29","新北市三重區大同北路44巷3號","121.495008333333","25.0630866666667"
"241026","066-VK","2016/10/24 17:17:39","新北市三重區重新路一段63號","121.501708333333","25.063605"
"241002","090-VK","2016/10/24 17:17:37","新北市三重區自強路五段1號","121.491955","25.0801583333333"
"241003","091-VK","2016/10/24 17:17:44","新北市三重區富福街65號","121.492166666667","25.08466"
"241005","262-UM","2016/10/24 17:17:27","新北市三重區永安北路二段25巷1號","121.482086666667","25.0817683333333"
"241016","266-UM","2016/10/24 17:17:44","新北市三重區新北大道一段7號","121.489846666667","25.0613166666667"
"241018","268-UM","2016/10/24 17:17:27","新北市三重區安慶街123號","121.49487","25.0689366666667"
"241032","269-UM","2016/10/24 17:17:41","新北市三重區中華路20巷32號","121.482273333333","25.06083"
"241013","270-UM","2016/10/24 17:17:41","新北市三重區仁愛街96號","121.495531666667","25.0739566666667"
"241025","271-UM","2016/10/24 17:17:38","新北市三重區中正北路413號","121.470893333333","25.0720983333333"
"241006","398-BY","2016/10/24 17:17:51","新北市三重區車路頭街135-1號","121.484251666667","25.076015"
"241007","412-TH","2016/10/24 17:17:25","新北市三重區三和路四段163巷3號","121.483621666667","25.078615"
"241004","475-VK","2016/10/24 17:17:45","新北市三重區五華街122巷27號","121.490881666667","25.0825616666667"
"241019","478-VK","2016/10/24 17:17:51","新北市三重區忠孝路一段183號","121.487388333333","25.0714733333333"
"241030","480-VK","2016/10/24 17:17:48","新北市三重區成功路73巷11號","121.48947","25.05196"
"241014","543-UM","2016/10/24 17:17:44","新北市三重區龍濱路190號","121.501095","25.0732866666667"
"241023","545-UM","2016/10/24 17:17:47","新北市三重區三民街188號","121.48182","25.0657516666667"
"241001","547-UM","2016/10/24 17:17:27","新北市三重區仁愛街269巷16號","121.493676666667","25.07915"
"241022","593-RM","2016/10/24 17:17:39","新北市三重區中正北路64巷19號","121.486126666667","25.063855"
"241020","597-RM","2016/10/24 17:17:30","新北市三重區自強路三段7巷26號","121.487943333333","25.0722116666667"
"241008","887-TS","2016/10/24 17:17:38","新北市三重區下竹圍街14號","121.48097","25.0758416666667"
"241012","941-UM","2016/10/24 17:17:40","新北市三重區龍門路274巷33號","121.501275","25.0751466666667"
"241029","942-UM","2016/10/24 17:17:32","新北市三重區重新路四段65號","121.48719","25.056885"
"241033","AAC-255","2016/10/24 17:17:48","新北市三重區中興北街204巷2號","121.468951666667","25.0590816666667"
"235028","005-UY","2016/10/24 16:02:49","新北市中和區員山路36巷12號","121.483998333333","24.9908566666667"
"235004","150-BY","2016/10/24 15:59:50","新北市中和區和城路一段271巷1號","121.485491666667","24.9917633333333"
"235036","301-VK","2016/10/24 15:10:11","新北市中和區員山路36巷16-3號","121.485018333333","24.991345"
"235024","647-TV","2016/10/24 16:57:08","新北市中和區員山路36巷16-3號","121.48513","24.9913916666667"
"235047","732-UM","2016/10/24 15:49:20","新北市中和區員山路36巷13號","121.484208333333","24.9909583333333"
"235026","800-TS","2016/10/24 16:50:02","新北市中和區員山路36巷16-3號","121.485075","24.9914"
"235002","952-SL","2016/10/24 15:04:03","新北市中和區員山路36巷13號","121.484345","24.9910616666667"
"235001","AAC-213","2016/10/24 16:42:31","新北市中和區員山路36巷16-3號","121.484566666667","24.9910366666667"
"220068","013-TV","2016/10/24 17:04:37","新北市板橋區民生路二段36-1號","121.472446666667","25.0168816666667"
"247018","893-R6","2016/10/24 17:17:47","新北市蘆洲區民權路84號","121.474541666667","25.0876733333333"
"247008","546-UM","2016/10/24 17:17:51","新北市蘆洲區永安北路一段50號","121.476263333333","25.07539"
"247004","341-TH","2016/10/24 17:17:48","新北市蘆洲區中原路31號","121.460146666667","25.08271"
"247006","339-TH","2016/10/24 17:17:26","新北市蘆洲區永安南路二段134號","121.462636666667","25.0787683333333"
"247022","337-TH","2016/10/24 17:17:37","新北市蘆洲區三民路296號","121.466871666667","25.090455"
"247012","057-VK","2016/10/24 17:17:48","新北市蘆洲區信義路319巷10弄3號","121.47756","25.0864266666667"
"247002","056-VK","2016/10/24 17:17:48","新北市蘆洲區永樂街38巷45弄39號","121.45711","25.090175"
"247010","007-UY","2016/10/24 17:17:32","新北市蘆洲區中山一路120巷7弄29號","121.476988333333","25.08243"
"247020","002-UY","2016/10/24 17:17:51","新北市蘆洲區仁愛街100號","121.470311666667","25.09462"
"247014","001-UY","2016/10/24 17:17:48","新北市蘆洲區中正路79-3號","121.470293333333","25.0832666666667"
"223008","406-TH","2016/10/24 08:57:40","新北市石碇區十八重溪68號","121.674123333333","25.0151716666667"
"228003","097-TW","2016/10/24 17:17:51","新北市貢寮區福隆里東興街92-3號","121.946558333333","25.0169983333333"
"228002","585-TW","2016/10/24 17:17:54","新北市貢寮區雙玉里下雙溪街26-1號","121.924691666667","25.011375"
"228001","670-TC","2016/10/24 17:17:27","新北市貢寮區仁理村仁和路1號","121.92415","25.047825"
"224010","AGQ-810","2016/10/24 17:17:54","新北市瑞芳區民權街3-1號","121.80944","25.1083266666667"
"224006","676-BX","2016/10/24 17:17:52","新北市瑞芳區大寮路45號","121.782115","25.0984166666667"
"224002","639-TC","2016/10/24 17:16:33","新北市瑞芳區民權街3-1號","121.809156666667","25.1082866666667"
"224007","285-BY","2016/10/24 17:17:28","新北市瑞芳區楓子瀨路76號","121.763323333333","25.09827"
"224009","275-VK","2016/10/24 17:17:27","新北市瑞芳區石崁巷49號","121.837893333333","25.1096683333333"
"224008","273-VK","2016/10/24 17:17:41","新北市瑞芳區侯硐路148號","121.826336666667","25.0838883333333"
"224005","271-BY","2016/10/24 17:17:40","新北市瑞芳區鼻頭路97號","121.91601","25.1239816666667"
"227001","642-TC","2016/10/24 17:17:33","新北市雙溪區上林里內平林90號","121.827541666667","25.0274533333333"
"227008","400-TW","2016/10/24 17:17:51","新北市雙溪區三貂里定福路1號","121.849268333333","25.0644316666667"
"208004","761-BX","2016/10/24 15:21:39","新北市金山區西湖里尖山仔25號","121.61486","25.252335"
"251001","012-UM","2016/10/24 17:17:28","新北市淡水區中正東路二段93-1號","121.45932","25.1522133333333"
"251007","179-VK","2016/10/24 17:17:50","新北市淡水區民生路60號","121.462095","25.1379033333333"
"251008","181-VK","2016/10/24 17:17:53","新北市淡水區民生路169號","121.469738333333","25.1421616666667"
"251013","182-VK","2016/10/24 17:17:49","新北市淡水區大埤頭9-1號","121.482281666667","25.1945166666667"
"251012","441-VK","2016/10/24 17:17:40","新北市淡水區中山北路一段158號","121.444195","25.1778466666667"
"251015","442-VK","2016/10/24 17:17:48","新北市淡水區樹林口20-3號","121.47808","25.169985"
"251006","561-UM","2016/10/24 17:17:29","新北市淡水區大智街48號","121.442815","25.174235"
"251009","575-R6","2016/10/24 17:17:27","新北市淡水區三民街21號","121.439035","25.17186"
"251003","766-UM","2016/10/24 17:17:43","新北市淡水區中正路一段102號","121.424108333333","25.1777666666667"
"207004","225-TW","2016/10/24 17:17:42","新北市萬里區萬里里景美路16號","121.686938333333","25.17356"
"252002","178-VK","2016/10/24 17:17:34","新北市三芝區忠孝街1-14號","121.505541666667","25.2539716666667"
"252001","292-VK","2016/10/24 17:17:45","新北市三芝區埔頭里埔頭27-2號","121.497228333333","25.2597116666667"
"236040","107-UM","2016/10/24 16:26:29","新北市土城區城林路6巷80號","121.438601666667","24.97963"
"236074","166-UM","2016/10/24 16:08:23","新北市樹林區中山路三段210-2號","121.380838333333","24.967215"
"236036","271-VK","2016/10/24 17:17:43","新北市土城區城林路6巷80號","121.438486666667","24.9797616666667"
"242019","AAC-296","2016/10/24 17:17:51","新北市新莊區新泰路502巷56號","121.44454","25.0463433333333"
"242046","751-BX","2016/10/24 17:17:37","新北市新莊區新樹路67巷5號","121.442065","25.0309833333333"
"242027","705-TV","2016/10/24 17:17:31","新北市新莊區新泰路502巷46號","121.444003333333","25.0464016666667"
"242023","615-BX","2016/10/24 17:17:29","新北市新莊區新泰路502巷51號","121.444215","25.0464166666667"
"242025","612-BX","2016/10/24 17:17:54","新北市新莊區新泰路421-9號","121.442446666667","25.0448266666667"
"242034","566-BX","2016/10/24 17:17:27","新北市新莊區中正路384號","121.442068333333","25.0350516666667"
"242039","497-BY","2016/10/24 17:17:50","新北市新莊區中正路481號","121.441248333333","25.0338083333333"
"242002","442-UM","2016/10/24 17:17:52","新北市新莊區中正路461號","121.442043333333","25.03423"
"242044","441-UM","2016/10/24 17:17:28","新北市新莊區民安路56號","121.4232","25.0274316666667"
"242048","440-UM","2016/10/24 17:17:32","新北市新莊區龍安路253號","121.419705","25.02006"
"242056","413-TV","2016/10/24 17:17:40","新北市新莊區三和路10號","121.442018333333","25.035655"
"242058","362-BY","2016/10/24 17:17:25","新北市新莊區新泰路357巷3弄1號","121.4425","25.0413266666667"
"242029","353-BY","2016/10/24 17:17:51","新北市新莊區中原路341號","121.44536","25.0543616666667"
"242009","132-UY","2016/10/24 17:17:45","新北市新莊區中平路377巷28號","121.442535","25.052705"
"242031","133-UY","2016/10/24 17:17:40","新北市新莊區新泰路421-1號","121.443095","25.044755"
"242004","135-UY","2016/10/24 17:17:42","新北市新莊區新泰路255巷83號","121.442121666667","25.0388983333333"
"242042","172-VK","2016/10/24 17:17:45","新北市新莊區新樹路113巷15號","121.438388333333","25.0267266666667"
"242011","175-VK","2016/10/24 17:17:27","新北市新莊區新泰路381巷38號","121.442396666667","25.043725"
"242036","346-TH","2016/10/24 17:17:48","新北市新莊區新樹路69-34號","121.438318333333","25.0291216666667"
"242017","347-TH","2016/10/24 17:17:34","新北市新莊區新泰路502巷56號","121.444453333333","25.046365"
"242015","348-TH","2016/10/24 17:17:53","新北市新莊區新泰路413巷22號","121.442441666667","25.04445"
"242050","349-TH","2016/10/24 17:17:50","新北市新莊區瓊林南路75號","121.434833333333","25.0145066666667"
"242013","350-TH","2016/10/24 17:17:50","新北市新莊區新泰路502巷48號","121.44412","25.0464016666667"
"242007","351-TH","2016/10/24 17:16:45","新北市新莊區新泰路357巷1弄48號","121.442603333333","25.04004"
"238015","755-BX","2016/10/24 17:17:32","新北市樹林區八德街648號","121.396595","24.96916"
"238023","601-UM","2016/10/24 17:17:28","新北市樹林區保安街一段350號","121.417845","24.998215"
"238019","599-UM","2016/10/24 17:17:37","新北市樹林區太平路247巷26-1號","121.420401666667","24.97511"
"238018","571-TV","2016/10/24 17:17:53","新北市樹林區水源街213號","121.424283333333","24.9870866666667"
"238024","5061-A6","2016/10/24 17:17:48","新北市樹林區鎮前街158號","121.424488333333","24.990145"
"238022","312-TH","2016/10/24 17:17:31","新北市樹林區國凱街82號","121.421351666667","24.9793583333333"
"238021","311-TH","2016/10/24 17:17:30","新北市樹林區西圳街165巷20弄26號","121.395581666667","24.96006"
"238002","303-VK","2016/10/24 17:17:48","新北市樹林區中正路22-1號","121.427826666667","24.9993666666667"
"238014","282-BY","2016/10/24 17:17:29","新北市樹林區中正路22-1號","121.42782","24.9994983333333"
"238020","268-VK","2016/10/24 17:17:47","新北市樹林區中正路22-1號","121.427818333333","24.9994583333333"
"238026","172-UY","2016/10/24 17:17:31","新北市樹林區環河路600號","121.40461","24.9693016666667"
"238016","169-UY","2016/10/24 17:17:43","新北市樹林區中山路二段10號","121.417508333333","24.98503"
"239005","526-UM","2016/10/24 17:17:50","新北市鶯歌區鶯桃路二段9號","121.325875","24.97199"
"239001","417-VK","2016/10/24 17:17:46","新北市鶯歌區中正二路192號","121.33953","24.943225"
"221023","279-VK","2016/10/24 15:06:06","新北市汐止區汐萬路一段256巷1號","121.651705","25.0748683333333"
"221002","488-VK","2016/10/24 15:26:18","新北市汐止區汐萬路一段256巷3號","121.65268","25.0745116666667"
"221025","623-UM","2016/10/24 15:32:50","新北市汐止區康寧街901號","121.651678333333","25.0749016666667"
"221018","753-BX","2016/10/24 17:12:28","新北市汐止區汐萬路一段256巷1號","121.651965","25.0748116666667"
"220054","741-BX","2016/10/24 17:06:42","新北市板橋區民生路二段56-1號","121.47253","25.01701"
"249001","3G-TL5","2016/10/24 17:17:42","桃園市楊梅區電研路100-24號","121.166113333333","24.9536616666667"
