"lineid","car","time","location","longitude","latitude"
"234046","148-BY","2016/10/24 20:17:47","新北市永和區成功路一段119號","121.52686","25.00201"
"234081","298-R6","2016/10/24 20:17:28","新北市永和區國中路148號","121.523063333333","25.0069833333333"
"234038","336-UY","2016/10/24 20:17:43","新北市永和區成功路一段93巷20弄5號","121.528356666667","25.002635"
"234064","337-UY","2016/10/24 20:17:50","新北市永和區得和路122號","121.518738333333","25.0000666666667"
"234086","338-UY","2016/10/24 20:17:45","新北市永和區中正路625號","121.515643333333","25.0099283333333"
"234070","552-UM","2016/10/24 20:17:29","新北市永和區永亨路48號","121.520148333333","25.0063066666667"
"234054","553-UM","2016/10/24 20:17:46","新北市永和區光復街2巷16弄15號","121.51764","25.01635"
"234017","745-BX","2016/10/24 20:17:40","新北市永和區仁愛路38號","121.514246666667","25.0134083333333"
"234030","746-BX","2016/10/24 20:17:41","新北市永和區民有街75巷10弄47號","121.519468333333","24.996015"
"234061","839-RS","2016/10/24 20:17:48","新北市永和區得和路51-4號","121.51695","25.0001166666667"
"234074","840-RS","2016/10/24 20:17:41","新北市永和區竹林路179巷37號","121.522213333333","25.0104266666667"
"234042","862-TW","2016/10/24 20:17:31","新北市中和區中安街188號","121.511356666667","24.999415"
"234050","863-TW","2016/10/24 20:17:44","新北市永和區環河西路二段107號","121.506356666667","25.014675"
"249005","172-UM","2016/10/24 20:17:51","新北市八里區下罟子58-6號","121.389665","25.1386883333333"
"249001","173-UM","2016/10/24 20:17:30","新北市八里區中華路二段468號","121.400721666667","25.1460833333333"
"249004","303-UY","2016/10/24 20:17:37","新北市八里區中山路一段129巷27號","121.413991666667","25.1586133333333"
"248014","025-BX","2016/10/24 20:17:47","新北市五股區新城八路322號","121.447356666667","25.0918066666667"
"248002","678-BX","2016/10/24 20:17:51","新北市五股區成泰路三段189號","121.445635","25.091995"
"234023","9380-KE","2016/10/24 20:17:48","新北市永和區永和路二段243號","121.515761666667","25.0147"
"234077","969-R7","2016/10/24 20:17:49","新北市永和區智光街128號","121.514995","24.9956033333333"
"234067","AAC-212","2016/10/24 20:17:31","新北市永和區永貞路358號","121.510166666667","25.0066233333333"
"234003","AAC-295","2016/10/24 20:17:43","新北市永和區自強街6巷1弄1號","121.514326666667","25.0079733333333"
"244007","080-UY","2016/10/24 19:37:21","新北市八里區中山路三段409號","121.368615","25.13494"
"243011","297-R6","2016/10/24 20:17:45","新北市泰山區壽山路134巷18號","121.418313333333","25.0309883333333"
"243014","380-SR","2016/10/24 20:17:44","新北市泰山區泰林路二段262號","121.43166","25.062395"
"243016","421-VK","2016/10/24 20:17:35","新北市泰山區新生路19號","121.427098333333","25.0455733333333"
"243012","539-UM","2016/10/24 20:17:41","新北市泰山區和平街21巷1號","121.434466666667","25.0645283333333"
"243009","548-UM","2016/10/24 20:17:41","新北市泰山區福泰街47號","121.43339","25.0598816666667"
"243010","549-UM","2016/10/24 20:17:32","新北市泰山區明志路二段254巷16弄23號","121.426416666667","25.0487016666667"
"243013","646-TV","2016/10/24 20:17:43","新北市泰山區民國街21號","121.42559","25.0435"
"243015","680-BX","2016/10/24 20:17:47","新北市泰山區仁愛路88號","121.432973333333","25.055325"
"222003","436-BY","2016/10/24 20:17:33","新北市深坑區文化街74號","121.618175","25.002005"
"222002","659-BX","2016/10/24 20:17:46","新北市深坑區萬福路63巷8號","121.600656666667","25.0079716666667"
"222001","696-SL","2016/10/24 20:17:45","新北市深坑區北深路三段213號","121.600401666667","25.00407"
"231060","001-UM","2016/10/24 20:17:36","新北市新店區安康路三段461號","121.482796666667","24.949385"
"231045","002-UM","2016/10/24 20:17:24","新北市新店區中興路一段110-1號","121.54138","24.9624916666667"
"231056","0293-UT","2016/10/24 20:17:47","新北市新店區中正路275巷9號","121.537416666667","24.973835"
"231043","046-UY","2016/10/24 20:17:32","新北市新店區民族路164號","121.537446666667","24.976535"
"231040","106-UY","2016/10/24 20:17:50","新北市新店區中正路110號","121.54302","24.970695"
"231064","107-UY","2016/10/24 20:17:22","新北市新店區柴埕路52巷12號","121.512105","24.9644033333333"
"231054","108-UY","2016/10/24 20:17:36","新北市新店區檳榔路84號","121.542975","24.963035"
"231049","187-VK","2016/10/24 20:17:37","新北市新店區北新路二段97巷10弄2號","121.542201666667","24.974595"
"231065","192-VK","2016/10/24 20:17:24","新北市新店區安祥路106巷104號","121.473865","24.959365"
"231042","268-BY","2016/10/24 20:17:46","新北市新店區中興路二段231-2號","121.54781","24.9750133333333"
"231052","278-BY","2016/10/24 20:17:46","新北市新店區松林路2號","121.546733333333","24.9110283333333"
"231066","4715-K9","2016/10/24 20:17:23","新北市新店區柴埕路2-1號","121.51495","24.96591"
"231067","4772-VM","2016/10/24 20:17:36","新北市新店區秀山路72號","121.531163333333","24.9607616666667"
"231068","512-UM","2016/10/24 20:17:42","新北市新店區寶安街30號","121.54208","24.982385"
"231051","513-UM","2016/10/24 20:17:36","新北市新店區中央六街5號","121.530268333333","24.9744633333333"
"231057","515-UM","2016/10/24 20:17:43","新北市新店區花園五路一段24號","121.552336666667","24.93403"
"231059","617-UM","2016/10/24 20:17:28","新北市新店區安德街81號","121.509683333333","24.9610883333333"
"231041","618-UM","2016/10/24 20:17:38","新北市新店區民權路41號","121.540401666667","24.9828233333333"
"231044","619-UM","2016/10/24 20:17:41","新北市新店區順安街38號","121.541001666667","24.9857116666667"
"231063","641-BX","2016/10/24 20:17:33","新北市新店區車子路6號","121.504568333333","24.9555333333333"
"231050","718-UY","2016/10/24 20:17:51","新北市新店區北宜路一段37號","121.538193333333","24.9574683333333"
"231047","719-UM","2016/10/24 20:17:31","新北市新店區寶橋路80號","121.546171666667","24.9755683333333"
"231062","719-UY","2016/10/24 20:17:50","新北市新店區安康路二段362號","121.501781666667","24.957385"
"231019","720-UM","2016/10/24 12:46:17","新北市新店區安華路28-1號","121.519306666667","24.961275"
"231055","AKT-0513","2016/10/24 20:17:37","新北市新店區北新路一段297巷12號","121.54092","24.9678"
"241011","013-R5","2016/10/24 20:17:48","新北市三重區龍濱路261號","121.501505","25.0729183333333"
"241028","022-UY","2016/10/24 20:17:23","新北市三重區大同南路83-5號","121.496111666667","25.0592483333333"
"241009","060-VK","2016/10/24 20:17:24","新北市三重區三和路四段382巷149號","121.479168333333","25.0781733333333"
"241031","061-VK","2016/10/24 20:17:51","新北市三重區三寧街10號","121.48903","25.0595883333333"
"241015","062-VK","2016/10/24 20:17:37","新北市三重區重新路一段51-1號","121.50198","25.063755"
"241017","063-VK","2016/10/24 20:17:29","新北市三重區新北大道一段7號","121.489766666667","25.06157"
"241024","065-VK","2016/10/24 20:17:51","新北市三重區中正北路258號","121.481315","25.0682716666667"
"241026","066-VK","2016/10/24 20:17:39","新北市三重區福德南路59-4號","121.502738333333","25.06105"
"241005","262-UM","2016/10/24 20:17:27","新北市三重區碧華街276號","121.48895","25.0828933333333"
"241016","266-UM","2016/10/24 20:17:44","新北市三重區新北大道一段3-1號","121.49051","25.061395"
"241032","269-UM","2016/10/24 20:17:40","新北市三重區捷運路19巷6弄11號","121.484583333333","25.0569516666667"
"241013","270-UM","2016/10/24 20:17:41","新北市三重區三和路三段151巷21號","121.492938333333","25.0740266666667"
"241006","398-BY","2016/10/24 20:17:50","新北市三重區車路頭街139巷14號","121.48428","25.0762083333333"
"241007","412-TH","2016/10/24 20:17:25","新北市三重區三和路四段117巷21號","121.486318333333","25.0778566666667"
"241035","462-BY","2016/10/24 20:17:23","新北市三重區正義北路33巷44號","121.498886666667","25.0639083333333"
"241004","475-VK","2016/10/24 20:17:45","新北市三重區仁政街187號","121.491098333333","25.0798133333333"
"241019","478-VK","2016/10/24 20:17:32","新北市三重區自強路二段69號","121.488755","25.0698866666667"
"241030","480-VK","2016/10/24 20:17:48","新北市三重區集美街89巷21號","121.488383333333","25.0527233333333"
"241014","543-UM","2016/10/24 20:17:44","新北市三重區河邊北街98-1號","121.503896666667","25.0700433333333"
"241023","545-UM","2016/10/24 20:17:40","新北市三重區頂崁街190號","121.477461666667","25.0664266666667"
"241001","547-UM","2016/10/24 20:17:52","新北市三重區自強路四段5號","121.48857","25.076195"
"241022","593-RM","2016/10/24 20:17:51","新北市三重區中正北路2-1號","121.48908","25.063155"
"241020","597-RM","2016/10/24 20:17:29","新北市三重區三和路三段170巷19號","121.491935","25.07286"
"241008","887-TS","2016/10/24 20:17:27","新北市三重區永福街209號","121.480006666667","25.0744616666667"
"241029","942-UM","2016/10/24 20:17:32","新北市三重區光明路96巷15號","121.492993333333","25.0566833333333"
"241033","AAC-255","2016/10/24 20:17:48","新北市三重區五谷王北街50巷2號","121.476056666667","25.0514266666667"
"235066","003-UY","2016/10/24 20:17:38","新北市中和區保平路291號","121.506568333333","25.0035916666667"
"235064","005-UY","2016/10/24 20:17:25","新北市中和區圓通路83號","121.49984","24.9969416666667"
"235039","097-UM","2016/10/24 20:17:31","新北市中和區大勇街25巷39弄1號","121.514868333333","24.9942483333333"
"235040","150-BY","2016/10/24 20:17:46","新北市中和區安平路38號","121.509861666667","24.9949683333333"
"235058","151-BY","2016/10/24 20:17:29","新北市中和區員山路150巷2弄17號","121.481708333333","24.9979583333333"
"235038","185-VK","2016/10/24 20:16:55","新北市中和區立人街69巷3號","121.51996","24.9938483333333"
"235049","186-VK","2016/10/24 20:17:37","新北市中和區景平路429號","121.501473333333","24.9952966666667"
"235044","293-VK","2016/10/24 20:17:41","新北市中和區板南路128巷1號","121.502581666667","24.9925233333333"
"235072","301-VK","2016/10/24 20:17:27","新北市八里區下罟子17號","121.381941666667","25.1441083333333"
"235051","376-QA","2016/10/24 20:17:42","新北市中和區景安路247巷9號","121.504433333333","24.9907016666667"
"235068","377-QA","2016/10/24 20:17:50","新北市中和區福祥路85巷2弄10號","121.498611666667","25.00611"
"235061","378-QA","2016/10/24 20:17:48","新北市新店區薏仁坑路6-3號","121.499715","24.9586533333333"
"235050","4979-A6","2016/10/24 20:17:39","新北市中和區景新街300號","121.511246666667","24.9919466666667"
"235069","4980-A6","2016/10/24 20:17:24","新北市中和區圓通路196號","121.49631","24.9943466666667"
"235070","558-UM","2016/10/24 20:17:43","新北市中和區圓通路115號","121.499356666667","24.9964283333333"
"235060","647-TV","2016/10/24 20:17:49","新北市五股區新五路二段372巷20號","121.447781666667","25.0860533333333"
"235047","732-UM","2016/10/24 20:17:30","新北市中和區景平路321號","121.506141666667","24.99319"
"235046","733-UM","2016/10/24 20:17:34","新北市中和區興南路一段93巷67號","121.510316666667","24.98686"
"235026","800-TS","2016/10/24 19:39:23","新北市新店區薏仁坑路23號","121.49796","24.9588933333333"
"235041","802-TS","2016/10/24 20:17:32","新北市中和區永貞路229號","121.513381666667","25.0036966666667"
"235052","805-TS","2016/10/24 20:17:41","新北市中和區華新街30巷18-2號","121.506856666667","24.9843866666667"
"235053","900-TW","2016/10/24 20:17:25","新北市中和區民德路208號","121.468261666667","24.9983583333333"
"235002","952-SL","2016/10/24 15:04:03","新北市中和區員山路36巷13號","121.484345","24.9910616666667"
"235037","AAC-213","2016/10/24 20:17:52","新北市中和區秀朗路三段106號","121.525436666667","24.9929133333333"
"235059","AAC-215","2016/10/24 20:17:31","新北市中和區圓通路335巷33弄33號","121.493728333333","24.98877"
"220068","013-TV","2016/10/24 20:02:16","新北市板橋區中山路二段370號","121.481868333333","25.0202783333333"
"247018","893-R6","2016/10/24 20:17:47","新北市蘆洲區民族路402號","121.474811666667","25.0914066666667"
"247008","546-UM","2016/10/24 20:17:32","新北市蘆洲區集賢路306號","121.48135","25.0851016666667"
"247015","500-BY","2016/10/24 20:17:39","新北市蘆洲區光華路132巷20號","121.46586","25.08321"
"247004","341-TH","2016/10/24 20:17:47","新北市蘆洲區永安南路二段328巷15弄2號","121.456711666667","25.0838633333333"
"247006","339-TH","2016/10/24 20:17:25","新北市蘆洲區九芎街153巷20號","121.465821666667","25.078585"
"247022","337-TH","2016/10/24 20:17:37","新北市蘆洲區三民路239號","121.469213333333","25.0887733333333"
"247006","335-TH","2016/10/24 20:17:25","新北市蘆洲區長興路50巷3號","121.463845","25.0838966666667"
"247012","057-VK","2016/10/24 20:17:47","新北市蘆洲區中興街20號","121.480575","25.08689"
"247002","056-VK","2016/10/24 20:17:47","新北市蘆洲區長安街272號","121.457298333333","25.0869516666667"
"247010","007-UY","2016/10/24 20:17:31","新北市蘆洲區信義路188巷25弄1號","121.480368333333","25.0845966666667"
"247020","002-UY","2016/10/24 20:17:51","新北市蘆洲區仁愛街102號","121.470131666667","25.09468"
"223008","406-TH","2016/10/24 08:57:40","新北市石碇區十八重溪68號","121.674123333333","25.0151716666667"
"208003","665-BX","2016/10/24 20:17:43","新北市金山區仁愛路13號","121.637805","25.219485"
"251008","181-VK","2016/10/24 20:17:52","新北市淡水區淡海路150巷19號","121.42234","25.1844783333333"
"251013","182-VK","2016/10/24 20:16:18","新北市淡水區相公山2號","121.474721666667","25.2065283333333"
"251010","413-VK","2016/10/24 20:17:40","新北市淡水區新民街一段134號","121.427561666667","25.1888833333333"
"251012","441-VK","2016/10/24 20:17:40","新北市淡水區下圭柔山431-1號","121.449765","25.2101983333333"
"251015","442-VK","2016/10/24 20:17:51","新北市淡水區埤島3-20號","121.447083333333","25.1912283333333"
"251006","561-UM","2016/10/24 20:17:29","新北市淡水區北新路169巷61號","121.448378333333","25.1807016666667"
"251011","650-BX","2016/10/24 20:17:38","新北市淡水區下圭柔山90-8號","121.431303333333","25.2102016666667"
"251002","672-BX","2016/10/24 20:17:42","新北市淡水區中正路206號","121.439683333333","25.1702366666667"
"251003","766-UM","2016/10/24 20:17:42","新北市淡水區中山北路一段196號","121.444515","25.1794666666667"
"207004","225-TW","2016/10/24 20:17:42","新北市萬里區北基里仁六街1號","121.681463333333","25.1750533333333"
"252002","178-VK","2016/10/24 20:17:34","新北市三芝區三民街8巷11號","121.503786666667","25.25842"
"252001","292-VK","2016/10/24 20:17:45","新北市三芝區中山路一段14號","121.500653333333","25.2580416666667"
"237007","153-BY","2016/10/24 20:17:33","新北市三峽區二鬮路136巷22弄33號","121.357213333333","24.9102283333333"
"237009","210-TH","2016/10/24 20:17:32","新北市三峽區民族街28巷2-8號","121.36886","24.930685"
"237012","275-BY","2016/10/24 20:17:37","新北市三峽區中華路74-5號","121.371565","24.9292183333333"
"237006","5529-G3","2016/10/24 20:17:40","新北市三峽區嘉添9號","121.368746666667","24.9120233333333"
"237010","706-TV","2016/10/24 18:29:39","新北市三峽區復興路489號","121.360998333333","24.93831"
"237005","AKY-6261","2016/10/24 20:17:51","新北市三峽區三樹路110號","121.378283333333","24.93918"
"236069","105-UM","2016/10/24 20:17:32","新北市土城區大安路126號","121.433975","24.9697583333333"
"236042","107-UM","2016/10/24 20:17:33","新北市土城區學享街54號","121.452131666667","24.986595"
"236078","166-UM","2016/10/24 17:51:23","新北市土城區永寧路109-4號","121.430366666667","24.9543733333333"
"236030","253-BX","2016/10/24 20:17:40","新北市土城區中央路一段45巷2弄22號","121.448171666667","24.9897666666667"
"236026","269-VK","2016/10/24 20:17:44","新北市土城區裕生路83巷29弄5號","121.448291666667","24.9839916666667"
"236036","271-VK","2016/10/24 20:17:43","新北市土城區延吉街351號","121.46458","24.9839483333333"
"236020","401-BY","2016/10/24 20:17:43","新北市土城區延吉街111巷12弄15-3號","121.471678333333","24.9850333333333"
"236058","912-UM","2016/10/24 20:17:50","新北市土城區中央路三段71-1號","121.43869","24.9691883333333"
"236048","913-UM","2016/10/24 20:17:41","新北市土城區清水路100號","121.457603333333","24.981565"
"236062","915-UM","2016/10/24 20:17:39","新北市土城區延和路12巷3號","121.464186666667","24.9877133333333"
"236053","AAC-216","2016/10/24 20:17:25","新北市土城區中華路二段62號","121.438986666667","24.976965"
"242019","AAC-296","2016/10/24 20:17:51","新北市新莊區博愛路3巷2號","121.456381666667","25.043"
"242046","751-BX","2016/10/24 20:11:23","新北市新莊區裕民街103巷19號","121.419463333333","25.0227816666667"
"242027","705-TV","2016/10/24 20:17:31","新北市新莊區幸福路676號","121.450791666667","25.0493483333333"
"242023","615-BX","2016/10/24 20:17:52","新北市新莊區化成路824號","121.464935","25.0600833333333"
"242060","613-BX","2016/10/24 20:17:48","新北市新莊區瓊林路206-6號","121.435413333333","25.022235"
"242025","612-BX","2016/10/24 20:17:27","新北市新莊區五工二路70巷21號","121.460883333333","25.0664683333333"
"242034","566-BX","2016/10/24 20:17:48","新北市新莊區新泰路201號","121.447143333333","25.03812"
"242039","497-BY","2016/10/24 20:17:50","新北市新莊區成功街69巷2號","121.424868333333","25.0201116666667"
"242002","442-UM","2016/10/24 20:17:51","新北市三重區重新路五段657號","121.466576666667","25.043035"
"242044","441-UM","2016/10/24 20:17:28","新北市新莊區中正路新建巷28弄71號","121.413678333333","25.020985"
"242048","440-UM","2016/10/24 20:17:32","新北市新莊區龍安路216號","121.420146666667","25.0199033333333"
"242021","415-TV","2016/10/24 20:17:42","新北市新莊區中正路281號","121.449111666667","25.035405"
"242056","413-TV","2016/10/24 20:17:39","新北市新莊區豐年街21號","121.446346666667","25.032515"
"242058","362-BY","2016/10/24 20:17:25","新北市新莊區四維路214號","121.42153","25.0200416666667"
"242029","353-BY","2016/10/24 20:17:51","新北市新莊區中原路301號","121.447503333333","25.0543816666667"
"242009","132-UY","2016/10/24 20:17:44","新北市新莊區昌盛街83號","121.455551666667","25.05005"
"242031","133-UY","2016/10/24 20:17:40","新北市新莊區中正路508巷152號","121.43894","25.0359733333333"
"242004","135-UY","2016/10/24 20:17:41","新北市新莊區化成路550號","121.46629","25.0537583333333"
"242042","172-VK","2016/10/24 20:17:45","新北市新莊區壽山路45號","121.41487","25.0310066666667"
"242011","175-VK","2016/10/24 20:17:26","新北市新莊區中信街37巷2弄2號","121.450316666667","25.0505383333333"
"242053","176-VK","2016/10/24 20:17:28","新北市新莊區西盛街385號","121.42797","25.01305"
"242036","346-TH","2016/10/24 20:17:48","新北市新莊區建安街62巷3弄2號","121.426773333333","25.0251983333333"
"242017","347-TH","2016/10/24 20:17:37","新北市新莊區中港一街131號","121.448266666667","25.0451016666667"
"242015","348-TH","2016/10/24 20:17:52","新北市新莊區永樂街235巷2號","121.446591666667","25.04436"
"242050","349-TH","2016/10/24 20:17:50","新北市新莊區民安西路214號","121.425785","25.01482"
"242013","350-TH","2016/10/24 20:17:50","新北市新莊區幸福路710巷5弄1號","121.449043333333","25.0497516666667"
"242007","351-TH","2016/10/24 20:17:44","新北市新莊區福壽街94巷26號","121.45924","25.050085"
"238023","601-UM","2016/10/24 20:16:57","新北市樹林區中山路三段210-2號","121.380846666667","24.9670366666667"
"238022","312-TH","2016/10/24 20:17:31","新北市樹林區育德街78號","121.387396666667","24.9683566666667"
"238021","311-TH","2016/10/24 19:09:59","新北市樹林區柑園街二段276巷22號","121.372646666667","24.9532683333333"
"238025","303-VK","2016/10/24 20:07:48","新北市樹林區中山路三段210-2號","121.3808","24.9668383333333"
"238014","282-BY","2016/10/24 20:17:28","新北市樹林區中山路三段210-2號","121.38147","24.96559"
"238026","172-UY","2016/10/24 20:17:31","新北市樹林區中山路三段204號","121.38709","24.9683633333333"
"239005","526-UM","2016/10/24 19:56:08","新北市鶯歌區二甲路13-16號","121.344905","24.935135"
"239001","417-VK","2016/10/24 20:17:46","新北市鶯歌區二甲路13-16號","121.34506","24.93518"
"221008","129-UY","2016/10/24 20:17:47","新北市汐止區康寧街165號","121.622828333333","25.0668383333333"
"221036","130-UY","2016/10/24 20:17:32","新北市汐止區仁愛路152巷31號","121.664835","25.06381"
"221015","131-UY","2016/10/24 20:17:25","新北市汐止區建成路59巷1號","121.661675","25.07336"
"221010","269-BY","2016/10/24 20:17:48","新北市汐止區八連路一段270號","121.640348333333","25.0855166666667"
"221012","278-VK","2016/10/24 20:17:49","新北市汐止區保新街149號","121.688185","25.0697816666667"
"221032","280-BY","2016/10/24 20:17:27","新北市汐止區弘道街53巷2號","121.618631666667","25.0483766666667"
"221002","281-BY","2016/10/24 20:17:48","新北市汐止區大同路二段511號","121.661185","25.0689833333333"
"221038","297-VK","2016/10/24 20:17:41","新北市汐止區忠孝東路528號","121.667013333333","25.0763166666667"
"221029","298-VK","2016/10/24 20:17:47","新北市汐止區樟樹一路99巷7弄3號","121.641161666667","25.063555"
"221021","299-VK","2016/10/24 20:17:36","新北市汐止區新台五路一段195號","121.655701666667","25.063375"
"221008","353-TW","2016/10/24 20:17:38","新北市汐止區原興路60巷8-1號","121.633248333333","25.0656466666667"
"221002","488-VK","2016/10/24 15:26:18","新北市汐止區汐萬路一段256巷3號","121.65268","25.0745116666667"
"221035","622-UM","2016/10/24 20:17:40","新北市汐止區長江街79巷1號","121.657156666667","25.0725816666667"
"221033","647-BX","2016/10/24 20:17:26","新北市汐止區東勢街201巷98號","121.633793333333","25.0430266666667"
"221002","707-TV","2016/10/24 20:17:50","新北市汐止區福德二路18號","121.635158333333","25.068145"
"221018","753-BX","2016/10/24 20:17:44","新北市汐止區茄興街10號","121.67346","25.067325"
"220056","276-BY","2016/10/24 20:17:34","新北市樹林區八德街247巷24-3號","121.420111666667","24.9733816666667"
"220081","287-VK","2016/10/24 20:17:47","新北市板橋區僑中一街80巷7弄22號","121.446868333333","25.01289"
"220061","293-UM","2016/10/24 20:17:45","新北市板橋區中山路二段11號","121.472121666667","25.014875"
"220017","295-UM","2016/10/24 20:17:27","新北市板橋區貴興路81號","121.456723333333","25.00292"
"220062","305-R5","2016/10/24 20:17:52","新北市板橋區萬安街20巷10弄16號","121.485088333333","25.02366"
"220098","317-R6","2016/10/24 20:17:38","新北市板橋區新海路72巷12號","121.462488333333","25.0220933333333"
"220072","461-BY","2016/10/24 20:17:45","新北市板橋區金門街109巷2號","121.433545","24.9919516666667"
"220089","487-VK","2016/10/24 20:17:43","新北市板橋區四維路296號","121.462746666667","25.0293233333333"
"220103","561-BX","2016/10/24 20:17:47","新北市板橋區陽明街279巷18-2號","121.461285","25.0257783333333"
"220083","630-UY","2016/10/24 20:17:24","新北市板橋區僑中二街12巷36號","121.44521","25.010895"
"220054","741-BX","2016/10/24 20:17:42","新北市板橋區忠孝路忠義巷9弄15號","121.46506","25.005005"
"220055","827-TW","2016/10/24 20:17:38","新北市板橋區仁愛路71號","121.460835","24.9996866666667"
"220074","895-R6","2016/10/24 20:17:47","新北市板橋區文化路一段32巷23號","121.460055","25.0109633333333"
"220097","AAC-210","2016/10/24 20:17:49","新北市板橋區文化路一段101巷11號","121.460715","25.014625"
"220070","AAC-253","2016/10/24 20:17:49","新北市板橋區四川路一段253號","121.45979","25.0025766666667"
"249001","3G-TL5","2016/10/24 18:44:12","桃園市楊梅區電研路100-24號","121.16609","24.9536533333333"
