"lineid","car","time","location","longitude","latitude"
"234068","552-UM","2016/10/24 21:17:29","新北市新店區安興路141號","121.516516666667","24.979305"
"234030","746-BX","2016/10/24 21:16:10","新北市永和區福和路1號","121.52628","25.0096033333333"
"234061","839-RS","2016/10/24 21:17:18","新北市中和區成功路97巷18弄13號","121.527501666667","24.9914383333333"
"234077","969-R7","2016/10/24 21:02:52","新北市永和區福和路1號","121.526521666667","25.00978"
"234003","AAC-295","2016/10/24 21:17:43","新北市永和區環河東路四段162號","121.528251666667","24.995035"
"244007","080-UY","2016/10/24 21:17:20","新北市林口區粉寮69號","121.405063333333","25.0908333333333"
"243015","680-BX","2016/10/24 21:03:34","新北市泰山區黎明路25號","121.422215","25.06067"
"231060","001-UM","2016/10/24 21:17:36","新北市新店區薏仁坑路自強巷6號","121.496631666667","24.95846"
"231043","046-UY","2016/10/24 21:17:02","新北市新店區安康路二段320巷6號","121.504733333333","24.9599116666667"
"231040","106-UY","2016/10/24 21:17:50","新北市新店區北新路一段321號","121.541603333333","24.9682233333333"
"231054","108-UY","2016/10/24 21:17:36","新北市新店區大新街9巷28號","121.544355","24.9670583333333"
"231042","268-BY","2016/10/24 21:17:46","新北市新店區中興路二段121巷7-1號","121.546806666667","24.972395"
"231051","513-UM","2016/10/24 21:17:47","新北市新店區中正路680巷2號","121.534156666667","24.9898066666667"
"231059","617-UM","2016/10/24 21:17:27","新北市新店區僑信路12號","121.499673333333","24.952635"
"231063","641-BX","2016/10/24 21:17:33","新北市新店區玫瑰路57巷19號","121.496433333333","24.9463216666667"
"231050","718-UY","2016/10/24 21:17:51","新北市新店區華興街13巷1號","121.537935","24.9694366666667"
"231047","719-UM","2016/10/24 20:36:31","新北市新店區順安街74號","121.541088333333","24.98657"
"231019","720-UM","2016/10/24 12:46:17","新北市新店區安華路28-1號","121.519306666667","24.961275"
"241011","013-R5","2016/10/24 21:17:45","新北市三重區龍濱路114號","121.502221666667","25.0701816666667"
"241028","022-UY","2016/10/24 21:17:23","新北市三重區正義南路169號","121.498921666667","25.0575316666667"
"241009","060-VK","2016/10/24 21:17:24","新北市三重區忠孝路二段122號","121.483041666667","25.0688133333333"
"241031","061-VK","2016/10/24 21:17:45","新北市三重區五谷王南街46巷37號","121.475733333333","25.0455183333333"
"241015","062-VK","2016/10/24 21:17:37","新北市三重區三和路一段39巷11號","121.5041","25.0652983333333"
"241017","063-VK","2016/10/24 21:17:29","新北市三重區大同北路132巷4號","121.49256","25.0647616666667"
"241024","065-VK","2016/10/24 21:17:51","新北市三重區中正北路145巷14號","121.48417","25.067775"
"241026","066-VK","2016/10/24 21:17:39","新北市三重區大同南路220號","121.496855","25.0562083333333"
"241005","262-UM","2016/10/24 21:17:27","新北市三重區三信路186號","121.487991666667","25.0860583333333"
"241016","266-UM","2016/10/24 21:17:44","新北市三重區自強路一段236號","121.493105","25.0669966666667"
"241032","269-UM","2016/10/24 21:17:40","新北市三重區中興北街134-1號","121.468985","25.0559266666667"
"241013","270-UM","2016/10/24 21:17:41","新北市三重區仁愛街66號","121.49578","25.0731716666667"
"241006","398-BY","2016/10/24 21:17:50","新北市三重區中正北路105號","121.48933","25.0633083333333"
"241007","412-TH","2016/10/24 21:17:25","新北市三重區車路頭街140號","121.484115","25.075695"
"241004","475-VK","2016/10/24 21:17:45","新北市三重區仁愛街416號","121.490516666667","25.08131"
"241019","478-VK","2016/10/24 21:17:32","新北市三重區自強路二段74巷21號","121.488023333333","25.0698533333333"
"241030","480-VK","2016/10/24 21:17:47","新北市三重區五谷王北街20巷15弄1號","121.475058333333","25.0484816666667"
"241014","543-UM","2016/10/24 21:17:44","新北市三重區長興街57號","121.50105","25.068765"
"241023","545-UM","2016/10/24 21:17:40","新北市三重區中正北路176巷16號","121.482725","25.0658966666667"
"241001","547-UM","2016/10/24 21:17:27","新北市三重區福隆路44號","121.492425","25.07841"
"241022","593-RM","2016/10/24 21:17:39","新北市三重區新北大道一段7號","121.489631666667","25.0612016666667"
"241008","887-TS","2016/10/24 21:17:27","新北市三重區自強路一段58號","121.497431666667","25.0668"
"241033","AAC-255","2016/10/24 21:17:48","新北市三重區新北大道二段41號","121.469998333333","25.0613116666667"
"235064","005-UY","2016/10/24 21:12:03","新北市中和區員山路36巷12號","121.484008333333","24.9908966666667"
"235040","150-BY","2016/10/24 21:06:49","新北市中和區員山路36巷16-2號","121.485371666667","24.9917033333333"
"235070","558-UM","2016/10/24 21:17:43","新北市八里區荖阡坑路15-66號","121.39847","25.1406583333333"
"235060","647-TV","2016/10/24 21:15:22","新北市中和區員山路36巷16-3號","121.485021666667","24.9912733333333"
"235047","732-UM","2016/10/24 20:39:00","新北市新店區薏仁坑路6號","121.500283333333","24.9579666666667"
"235026","800-TS","2016/10/24 19:39:23","新北市新店區薏仁坑路23號","121.49796","24.9588933333333"
"235002","952-SL","2016/10/24 15:04:03","新北市中和區員山路36巷13號","121.484345","24.9910616666667"
"235037","AAC-213","2016/10/24 21:17:52","新北市新店區安華路30巷3號","121.519188333333","24.958845"
"220068","013-TV","2016/10/24 20:02:16","新北市板橋區中山路二段370號","121.481868333333","25.0202783333333"
"247018","893-R6","2016/10/24 21:17:47","新北市蘆洲區復興路105巷17號","121.47614","25.0886416666667"
"247008","546-UM","2016/10/24 21:17:32","新北市蘆洲區民生街24號","121.475013333333","25.0789066666667"
"247016","500-BY","2016/10/24 21:17:40","新北市蘆洲區光華路110巷38號","121.465885","25.08405"
"247004","341-TH","2016/10/24 21:17:47","新北市蘆洲區永安南路二段322號","121.457035","25.082785"
"247006","339-TH","2016/10/24 21:17:25","新北市蘆洲區長安街25號","121.464013333333","25.07916"
"247022","337-TH","2016/10/24 21:17:37","新北市蘆洲區三民路241號","121.469026666667","25.08886"
"247006","335-TH","2016/10/24 21:17:25","新北市蘆洲區光明路92號","121.463016666667","25.0878633333333"
"247012","057-VK","2016/10/24 21:17:47","新北市蘆洲區民族路236巷8號","121.480413333333","25.0885883333333"
"247002","056-VK","2016/10/24 21:17:47","新北市蘆洲區永樂街43號","121.457653333333","25.088335"
"247010","007-UY","2016/10/24 21:17:31","新北市蘆洲區鷺江街23號","121.478875","25.08248"
"247020","002-UY","2016/10/24 21:17:51","新北市蘆洲區民族路422巷94號","121.473203333333","25.09402"
"223008","406-TH","2016/10/24 08:57:40","新北市石碇區十八重溪68號","121.674123333333","25.0151716666667"
"251004","009-UM","2016/10/24 21:17:43","新北市淡水區民族路33巷16-19號","121.462391666667","25.1359216666667"
"251001","012-UM","2016/10/24 21:17:28","新北市淡水區濱海路一段221號","121.437911666667","25.1898983333333"
"251008","181-VK","2016/10/24 21:17:52","新北市淡水區水源街二段242號","121.461446666667","25.176265"
"251013","182-VK","2016/10/24 20:16:18","新北市淡水區相公山2號","121.474721666667","25.2065283333333"
"251010","413-VK","2016/10/24 21:17:40","新北市淡水區中正路一段156巷12號","121.421836666667","25.18085"
"251012","441-VK","2016/10/24 21:17:39","新北市淡水區石頭埔8號","121.452625","25.23456"
"251015","442-VK","2016/10/24 21:17:48","新北市淡水區淡金路四段542巷47號","121.453945","25.2270666666667"
"251005","443-VK","2016/10/24 21:17:45","新北市淡水區仁愛街15-4號","121.446643333333","25.170465"
"251009","575-R6","2016/10/24 21:17:27","新北市淡水區民族路112巷36號","121.462016666667","25.1344916666667"
"251011","650-BX","2016/10/24 21:17:38","新北市淡水區新民街120巷29號","121.438876666667","25.178855"
"251002","672-BX","2016/10/24 21:17:29","新北市淡水區學府路172巷21號","121.448346666667","25.1748466666667"
"251003","766-UM","2016/10/24 21:17:42","新北市淡水區新春街85巷35號","121.438486666667","25.1834783333333"
"252002","178-VK","2016/10/24 21:17:34","新北市三芝區錫板里海尾14-32號","121.477445","25.259615"
"237010","706-TV","2016/10/24 18:29:39","新北市三峽區復興路489號","121.360998333333","24.93831"
"236042","107-UM","2016/10/24 21:09:06","新北市土城區城林路6巷80號","121.438371666667","24.9798316666667"
"236078","166-UM","2016/10/24 17:51:23","新北市土城區永寧路109-4號","121.430366666667","24.9543733333333"
"242004","135-UY","2016/10/24 21:17:41","新北市樹林區八德街830-1號","121.392641666667","24.9686283333333"
"238023","601-UM","2016/10/24 20:17:27","新北市樹林區中山路三段214號","121.38001","24.9678083333333"
"238022","312-TH","2016/10/24 20:42:04","新北市樹林區育德街78-1號","121.387791666667","24.9681433333333"
"238021","311-TH","2016/10/24 19:09:59","新北市樹林區柑園街二段276巷22號","121.372646666667","24.9532683333333"
"238025","303-VK","2016/10/24 20:07:48","新北市樹林區中山路三段210-2號","121.3808","24.9668383333333"
"239005","526-UM","2016/10/24 19:56:08","新北市鶯歌區二甲路13-16號","121.344905","24.935135"
"239001","417-VK","2016/10/24 20:39:15","新北市鶯歌區二甲路13號","121.34406","24.9354883333333"
"221038","297-VK","2016/10/24 21:08:37","新北市汐止區汐萬路一段256巷1號","121.65199","25.0747666666667"
"221002","488-VK","2016/10/24 15:26:18","新北市汐止區汐萬路一段256巷3號","121.65268","25.0745116666667"
"221002","707-TV","2016/10/24 21:17:50","新北市汐止區康寧街901號","121.651523333333","25.0750183333333"
"221018","753-BX","2016/10/24 21:17:44","新北市汐止區汐萬路一段256巷1號","121.651945","25.07481"
"220056","276-BY","2016/10/24 20:43:18","新北市板橋區民生路二段36-1號","121.47258","25.016685"
"220002","741-BX","2016/10/24 21:17:39","新北市板橋區民生路二段15-1號","121.472728333333","25.0163916666667"
"220070","AAC-253","2016/10/24 21:15:49","新北市板橋區板城路327號","121.449718333333","24.9975866666667"
"249001","3G-TL5","2016/10/24 18:44:12","桃園市楊梅區電研路100-24號","121.16609","24.9536533333333"
