"lineid","car","time","location","longitude","latitude"
"244006","080-UY","2016/12/19 10:20:50","新北市林口區粉寮69號","121.405","25.0908683333333"
"243007","680-BX","2016/12/19 11:46:23","新北市泰山區犁頭窠3-1號","121.421925","25.0601666666667"
"231008","188-VK","2016/12/19 12:08:53","新北市新店區成功路155號","121.53261","24.8909433333333"
"231005","619-UM","2016/12/19 12:08:58","新北市新店區安華路28-1號","121.519523333333","24.9606833333333"
"227005","282-VK","2016/12/19 12:07:42","新北市雙溪區魚行里丁子蘭坑29號","121.852505","25.009165"
