"lineid","car","time","location","longitude","latitude"
"234044","148-BY","2016/12/19 13:46:46","新北市永和區永利路183號","121.526121666667","25.0034333333333"
"234012","149-BY","2016/12/19 13:47:38","新北市永和區保生路55號","121.504708333333","25.010585"
"234005","207-UY","2016/12/19 13:47:55","新北市永和區永和路一段94號","121.513191666667","25.0068466666667"
"234078","298-R6","2016/12/19 13:47:58","新北市永和區林森路39巷2號","121.52539","25.004725"
"234036","336-UY","2016/12/19 13:47:41","新北市永和區成功路二段80號","121.526616666667","24.9990166666667"
"234062","337-UY","2016/12/19 13:47:41","新北市永和區中正路412巷10號","121.51806","25.00207"
"234084","338-UY","2016/12/19 13:47:55","新北市永和區永亨路90號","121.522175","25.0055333333333"
"234068","552-UM","2016/12/19 13:47:59","新北市永和區竹林路88號","121.519348333333","25.012525"
"234052","553-UM","2016/12/19 13:47:47","新北市永和區竹林路39巷28弄3號","121.519428333333","25.01478"
"234015","745-BX","2016/12/19 13:47:49","新北市永和區文化路5號","121.515505","25.0148833333333"
"234028","746-BX","2016/12/19 13:47:54","新北市永和區民生路67巷39號","121.524793333333","24.9974283333333"
"234060","839-RS","2016/12/19 13:47:58","新北市永和區中正路356號","121.517703333333","25.0006333333333"
"234072","847-RS","2016/12/19 13:47:50","新北市永和區竹林路179巷46號","121.52254","25.0102666666667"
"234040","862-TW","2016/12/19 13:47:50","新北市永和區中和路389巷51-1號","121.507983333333","25.00234"
"234048","863-TW","2016/12/19 13:47:46","新北市永和區保安路144號","121.50855","25.014975"
"234025","9371-KE","2016/12/19 13:47:46","新北市永和區中山路一段17巷2號","121.513735","25.0102583333333"
"234010","9381-KE","2016/12/19 13:47:53","新北市永和區保福路二段23巷21號","121.51008","25.01125"
"248013","025-BX","2016/12/19 13:47:42","新北市五股區成泰路二段226號","121.439785","25.086665"
"248015","026-BX","2016/12/17 02:18:07","新北市五股區中興路二段83巷26-6號","121.460073333333","25.0751916666667"
"248005","077-UY","2016/12/19 13:48:00","新北市五股區四維路153號","121.46774","25.0745066666667"
"248008","095-VK","2016/12/19 13:47:56","新北市五股區中興路一段130號","121.465571666667","25.0737033333333"
"248019","225-UY","2016/12/19 13:47:57","新北市五股區凌雲路三段41-1號","121.43083","25.11823"
"248011","655-BX","2016/12/19 13:47:50","新北市五股區成泰路二段195巷1號","121.440368333333","25.0874716666667"
"248003","677-BX","2016/12/19 13:47:09","新北市五股區民義路二段42-3號","121.415961666667","25.09989"
"248001","678-BX","2016/12/19 13:47:46","新北市五股區成泰路三段460號","121.451445","25.1004983333333"
"248009","682-TV","2016/12/19 13:48:00","新北市五股區水碓七路5號","121.429256666667","25.0718666666667"
"234022","9380-KE","2016/12/19 13:47:55","新北市永和區中正路702巷19號","121.51644","25.0106383333333"
"234076","969-R7","2016/12/19 13:47:53","新北市永和區民治街54號","121.518521666667","24.99798"
"234066","AAC-212","2016/12/19 13:47:40","新北市永和區永平路173巷14弄4號","121.510205","25.0086083333333"
"234001","AAC-295","2016/12/19 13:47:44","新北市永和區永和路一段17號","121.512898333333","25.0055683333333"
"244006","080-UY","2016/12/19 10:20:50","新北市林口區粉寮69號","121.405","25.0908683333333"
"244001","248-BX","2016/12/19 13:47:46","新北市林口區太平里8-5號","121.361996666667","25.1340983333333"
"243003","297-R6","2016/12/19 13:47:47","新北市泰山區明志路二段18號","121.429793333333","25.05347"
"243008","421-VK","2016/12/19 13:47:39","新北市泰山區明志路二段135號","121.427636666667","25.05079"
"243004","539-UM","2016/12/19 13:47:46","新北市泰山區福興三街13號","121.434448333333","25.0577683333333"
"243001","548-UM","2016/12/19 12:20:28","新北市泰山區黎明路25號","121.422066666667","25.0608433333333"
"243002","549-UM","2016/12/19 13:47:52","新北市泰山區明志路一段519號","121.43039","25.054035"
"243005","646-TV","2016/12/19 13:47:41","新北市泰山區明志路三段206巷3號","121.423258333333","25.03793"
"243007","680-BX","2016/12/19 13:47:42","新北市泰山區黎明路23-1號","121.421671666667","25.0613083333333"
"231029","001-UM","2016/12/19 13:47:49","新北市新店區安康路二段125-1號","121.512398333333","24.960905"
"231006","002-UM","2016/12/19 13:47:45","新北市新店區北宜路一段164號","121.540396666667","24.9534"
"231025","0293-UT","2016/12/19 13:47:59","新北市新店區中央五街51號","121.527875","24.9752983333333"
"231004","046-UY","2016/12/19 13:47:55","新北市新店區寶橋路39號","121.544603333333","24.9744866666667"
"231001","106-UY","2016/12/19 13:47:42","新北市新店區三民路165號","121.534555","24.974635"
"231035","107-UY","2016/12/19 13:47:53","新北市新店區安忠路205巷8號","121.509216666667","24.953545"
"231023","108-UY","2016/12/19 13:47:49","新北市新店區國校路59號","121.53813","24.95447"
"231010","110-UY","2016/12/19 13:47:49","新北市新店區平等街35號","121.536556666667","24.9734083333333"
"231013","187-VK","2016/12/19 13:47:49","新北市新店區二十張路25巷2號","121.538493333333","24.9819333333333"
"231036","192-VK","2016/12/19 13:47:52","新北市新店區安祥路126號","121.474695","24.9562916666667"
"231011","256-BX","2016/12/19 13:47:56","新北市新店區德正街25巷7號","121.544525","24.9718083333333"
"231038","3712-VJ","2016/12/19 13:47:56","新北市新店區安華路30巷1號","121.519521666667","24.9593183333333"
"231027","3713-VJ","2016/12/19 13:47:51","新北市新店區新店路27-1號","121.539996666667","24.9527966666667"
"231037","4715-K9","2016/12/19 13:47:44","新北市新店區安康路三段359巷10弄1號","121.484346666667","24.9503316666667"
"231018","513-UM","2016/12/19 13:47:51","新北市新店區中正路409巷36號","121.533581666667","24.9768883333333"
"231026","515-UM","2016/12/19 13:47:46","新北市新店區中正路329巷11-1號","121.534886666667","24.973745"
"231028","617-UM","2016/12/19 13:47:52","新北市新店區安和路三段37號","121.517765","24.9818916666667"
"231002","618-UM","2016/12/19 13:47:58","新北市新店區溪園路245-6號","121.525223333333","24.9833166666667"
"231005","619-UM","2016/12/19 13:47:58","新北市新店區寶中路137號","121.549851666667","24.97918"
"231034","641-BX","2016/12/19 13:47:45","新北市新店區達觀路16號","121.502975","24.9408183333333"
"231003","645-TV","2016/12/19 13:47:53","新北市新店區中興路一段159號","121.542448333333","24.9640966666667"
"231014","718-UY","2016/12/19 13:47:59","新北市新店區竹林路30號","121.552511666667","24.951325"
"231019","719-UM","2016/12/19 13:47:53","新北市新店區湖子內路22號","121.54234","24.9308633333333"
"231031","719-UY","2016/12/19 13:47:44","新北市新店區莒光路44巷21弄11-6號","121.519198333333","24.9523333333333"
"231030","897-TW","2016/12/19 13:47:48","新北市新店區安康路一段92-1號","121.52787","24.9620333333333"
"231024","AKT-0513","2016/12/19 13:47:46","新北市新店區新生街13巷36號","121.539105","24.966795"
"235027","006-UY","2016/12/19 13:47:47","新北市中和區連城路347巷2號","121.488168333333","24.9958516666667"
"235020","096-UM","2016/12/19 13:47:46","新北市中和區員山路466巷34號","121.482411666667","25.0064166666667"
"235003","097-UM","2016/12/19 13:47:48","新北市中和區大勇街25巷29弄2號","121.515241666667","24.9939216666667"
"235029","098-UM","2016/12/19 13:47:48","新北市永和區中山路一段352巷86號","121.501305","25.00764"
"235004","150-BY","2016/12/19 13:47:43","新北市中和區安平路59號","121.509498333333","24.9951533333333"
"235022","151-BY","2016/12/19 13:48:02","新北市中和區圓通路369巷53-3號","121.49072","24.9846533333333"
"235019","183-VK","2016/12/19 13:47:46","新北市中和區莒光路120巷12號","121.471596666667","25.001815"
"235002","185-VK","2016/12/19 13:47:58","新北市中和區自立路141巷18號","121.523061666667","24.993525"
"235013","186-VK","2016/12/19 13:47:52","新北市中和區景安路88號","121.505628333333","24.996035"
"235031","255-BX","2016/12/19 13:47:45","新北市中和區新生街220巷4號","121.482925","24.99856"
"235008","293-VK","2016/12/19 13:47:52","新北市中和區中興街178號","121.499865","24.9909633333333"
"235036","301-VK","2016/12/19 13:47:50","新北市中和區安邦街1號","121.495806666667","24.99838"
"235015","376-QA","2016/12/19 13:47:53","新北市中和區興南路二段114巷12號","121.503971666667","24.98445"
"235032","377-QA","2016/12/19 13:47:42","新北市中和區中正路167巷56號","121.498826666667","24.992385"
"235025","378-QA","2016/12/19 13:47:51","新北市中和區民享街22號","121.47391","25.003745"
"235014","4979-A6","2016/12/19 13:47:57","新北市中和區忠孝街62巷7弄2號","121.512941666667","24.9837266666667"
"235033","4980-A6","2016/12/19 13:47:48","新北市中和區泰和街4號","121.499925","25.0011283333333"
"235006","551-UM","2016/12/19 13:47:54","新北市中和區成功路97巷18弄3號","121.526825","24.9915683333333"
"235070","558-UM","2016/12/19 13:47:53","新北市中和區南華路42號","121.503733333333","24.9963483333333"
"235009","565-BX","2016/12/19 13:47:53","新北市中和區南山路236巷22弄1號","121.505683333333","24.9889433333333"
"235007","611-BX","2016/12/19 13:47:58","新北市中和區景平路255號","121.508661666667","24.9929833333333"
"235018","640-BX","2016/12/19 13:47:57","新北市中和區民享街32巷22號","121.472803333333","25.0032466666667"
"235024","647-TV","2016/12/19 13:47:53","新北市中和區中山路二段668號","121.480323333333","25.0059216666667"
"235011","732-UM","2016/12/19 13:47:44","新北市中和區南山路322號","121.507723333333","24.986585"
"235010","733-UM","2016/12/19 13:47:55","新北市中和區板南路100號","121.503748333333","24.992435"
"235035","783-BX","2016/12/19 13:47:48","新北市中和區光環路二段309號","121.487176666667","25.0138233333333"
"235026","800-TS","2016/12/19 13:47:57","新北市中和區景平路703巷2弄2號","121.496221666667","25.00361"
"235021","801-TS","2016/12/19 13:47:56","新北市中和區員山路327巷55號","121.478985","25.0020066666667"
"235005","802-TS","2016/12/19 13:47:58","新北市永和區中和路545號","121.511473333333","25.0033583333333"
"235016","805-TS","2016/12/19 13:47:42","新北市中和區興南路二段96號","121.505211666667","24.9842583333333"
"235012","896-TW","2016/12/19 13:47:39","新北市中和區中正路83號","121.500646666667","24.993395"
"235017","900-TW","2016/12/19 13:47:56","新北市中和區民享街467號","121.469831666667","24.9926116666667"
"235030","911-UM","2016/12/19 13:47:57","新北市中和區水源路7巷29號","121.504086666667","25.0039883333333"
"235001","AAC-213","2016/12/19 13:47:57","新北市中和區景德街73號","121.516655","24.9912816666667"
"235023","AAC-215","2016/12/19 13:47:48","新北市中和區錦和路356號","121.490646666667","24.9914583333333"
"220016","013-TV","2016/12/19 13:47:44","新北市板橋區民生路二段36-1號","121.472306666667","25.016875"
"220013","072-UY","2016/12/19 13:47:59","新北市板橋區民生路二段15-1號","121.472733333333","25.0162733333333"
"220034","073-UY","2016/12/19 13:47:51","新北市板橋區南雅西路二段192巷24號","121.452733333333","25.0140116666667"
"247007","546-UM","2016/12/19 13:47:58","新北市蘆洲區重陽街20號","121.480973333333","25.0815633333333"
"247015","500-BY","2016/12/19 13:47:46","新北市蘆洲區光華路22巷17號","121.468845","25.0841216666667"
"247003","341-TH","2016/12/19 13:47:50","新北市蘆洲區長安街225號","121.459346666667","25.082545"
"247005","339-TH","2016/12/19 13:47:46","新北市蘆洲區中山二路288號","121.468786666667","25.077565"
"247021","337-TH","2016/12/19 13:47:42","新北市蘆洲區中正路263巷2號","121.46733","25.0873816666667"
"247023","336-TH","2016/12/19 13:47:49","新北市蘆洲區光華路186巷38號","121.464853333333","25.0833366666667"
"247011","057-VK","2016/12/19 13:47:46","新北市蘆洲區復興路355巷10號","121.48238","25.0950616666667"
"247001","056-VK","2016/12/19 13:47:47","新北市蘆洲區三民路605號","121.460606666667","25.093735"
"247009","007-UY","2016/12/19 13:47:52","新北市蘆洲區集賢路224巷9號","121.481983333333","25.0866316666667"
"247019","002-UY","2016/12/19 13:47:58","新北市蘆洲區民族路422巷48弄28號","121.474721666667","25.0929716666667"
"247013","001-UY","2016/12/19 13:47:57","新北市蘆洲區保和街17號","121.471085","25.0863783333333"
"208004","642-TV","2016/12/19 13:47:55","新北市金山區重和里三重橋2號","121.59513","25.1968183333333"
"207002","749-BX","2016/12/19 13:47:51","新北市萬里區崁腳里崁腳路166號","121.644895","25.1558616666667"
"207001","291-VK","2016/12/19 13:47:57","新北市萬里區磺潭里公館崙30號","121.635093333333","25.2111833333333"
"252005","AAC-283","2016/12/19 02:01:16","新北市三芝區埔坪里埔頭坑41號","121.504481666667","25.2644466666667"
"237001","649-BX","2016/12/19 13:47:49","新北市三峽區中華路3巷12號","121.374661666667","24.930975"
"236064","105-UM","2016/12/19 13:47:40","新北市土城區城林路6巷80號","121.438425","24.9797533333333"
"236040","107-UM","2016/12/19 13:47:48","新北市土城區城林路6巷80號","121.438438333333","24.9798166666667"
"236074","166-UM","2016/12/19 13:47:42","新北市土城區城林路6巷80號","121.438488333333","24.9796116666667"
"236028","253-BX","2016/12/19 13:47:45","新北市土城區城林路6巷80號","121.438453333333","24.979845"
"236024","269-VK","2016/12/19 13:47:50","新北市土城區中華路二段80號","121.438678333333","24.9755516666667"
"236012","270-VK","2016/12/19 13:47:42","新北市土城區城林路6巷80號","121.438518333333","24.9797516666667"
"236032","271-VK","2016/12/19 13:47:55","新北市土城區城林路6巷80號","121.438465","24.979795"
"236016","401-BY","2016/12/19 13:47:55","新北市土城區城林路6巷80號","121.43846","24.97957"
"236005","498-BY","2016/12/19 13:47:59","新北市土城區中華路一段301號","121.439961666667","24.9792883333333"
"236056","912-UM","2016/12/19 13:47:50","新北市土城區城林路6巷80號","121.438453333333","24.9798366666667"
"236044","913-UM","2016/12/19 13:47:54","新北市土城區城林路6巷80號","121.438476666667","24.9797566666667"
"236060","915-UM","2016/12/19 13:47:49","新北市土城區城林路6巷80號","121.438518333333","24.979905"
"236052","AAC-216","2016/12/19 13:47:58","新北市土城區城林路6巷80號","121.438405","24.9797283333333"
"221032","280-BY","2016/12/19 13:47:54","台北市南港區研究院路三段261號","121.610025","25.0294283333333"
"220027","145-BY","2016/12/19 13:47:56","新北市板橋區民權路202巷7弄1號","121.46004","25.01473"
"220037","145-RM","2016/12/19 13:47:59","新北市板橋區民生路二段120號","121.470535","25.0195933333333"
"220028","200-UY","2016/12/19 13:47:55","新北市板橋區大觀路二段265巷76弄9號","121.442085","24.9964633333333"
"220050","245-BX","2016/12/16 13:37:20","新北市板橋區民生路二段182號","121.470981666667","25.02042"
"220051","257-TC","2016/12/19 13:47:50","新北市板橋區民生路二段89-6號","121.470648333333","25.01897"
"220017","258-TC","2016/12/19 13:47:52","新北市板橋區民生路二段36-1號","121.472565","25.0166183333333"
"220004","276-BY","2016/12/19 13:47:47","新北市板橋區四川路二段58號","121.453286666667","24.9951383333333"
"220020","277-BY","2016/12/19 13:47:47","新北市板橋區金門街49-2號","121.433595","24.9932516666667"
"220019","283-VK","2016/12/19 13:47:53","新北市板橋區民生路二段56-1號","121.472356666667","25.017075"
"220043","285-UM","2016/12/19 13:47:57","新北市板橋區民生路二段120號","121.470615","25.0197166666667"
"220001","285-VK","2016/12/19 13:47:41","新北市板橋區民生路二段36-1號","121.47267","25.0166933333333"
"220031","286-VK","2016/12/19 13:47:49","新北市板橋區大觀路二段22巷11號","121.445938333333","25.0034266666667"
"220029","287-VK","2016/12/19 13:47:49","新北市板橋區南雅西路一段53巷10號","121.452646666667","25.005275"
"220039","288-VK","2016/12/19 13:47:49","新北市板橋區民生路二段161巷9號","121.470315","25.0193983333333"
"220009","293-UM","2016/12/19 13:47:45","新北市板橋區民生路二段36-1號","121.472448333333","25.016875"
"220032","296-UM","2016/12/19 13:47:56","新北市板橋區大觀路二段148巷26號","121.441975","24.9998183333333"
"220023","297-UM","2016/12/19 13:47:51","新北市板橋區南雅西路一段116號","121.452426666667","25.0063016666667"
"220010","305-R5","2016/12/19 03:45:16","新北市板橋區民生路二段36-1號","121.472625","25.0166333333333"
"220041","307-R5","2016/12/19 13:47:51","新北市板橋區民生路二段120號","121.470775","25.0197883333333"
"220047","317-R6","2016/12/19 13:47:56","新北市板橋區民生路二段120號","121.471095","25.0197866666667"
"220012","486-VK","2016/12/19 13:47:58","新北市板橋區民生路一段80號","121.47345","25.0156766666667"
"220038","487-VK","2016/12/19 13:47:45","新北市板橋區民生路二段161巷7號","121.469971666667","25.0195533333333"
"220036","491-VK","2016/12/19 13:47:42","新北市板橋區民生路二段120號","121.47085","25.0199533333333"
"220104","560-BX","2016/12/19 13:47:44","新北市板橋區中正路275巷79弄13號","121.452025","25.0174116666667"
"220052","561-BX","2016/12/19 13:47:47","新北市板橋區民生路二段148號","121.471146666667","25.019875"
"220014","568-UM","2016/12/19 13:47:43","新北市板橋區民生路二段22號","121.472843333333","25.0165016666667"
"220011","609-BX","2016/12/19 13:47:44","新北市板橋區民生路二段22號","121.472676666667","25.01651"
"220040","637-BX","2016/12/19 13:47:59","新北市板橋區民生路二段120號","121.47032","25.0201616666667"
"220005","686-BX","2016/12/19 13:47:57","新北市板橋區民生路二段22號","121.472806666667","25.01662"
"220025","687-BX","2016/12/19 13:47:57","新北市板橋區龍興街71巷53號","121.441571666667","25.0026966666667"
"220042","689-BX","2016/12/19 13:47:43","新北市板橋區民生路二段148號","121.471175","25.0197883333333"
"220002","741-BX","2016/12/19 13:47:59","新北市板橋區中山路二段89巷7弄15號","121.472691666667","25.0167933333333"
"220030","806-UM","2016/12/19 13:47:51","新北市板橋區篤行路二段92-3號","121.431418333333","24.991515"
"220003","827-TW","2016/12/19 13:47:53","新北市板橋區民生路二段16-1號","121.473213333333","25.0165083333333"
"220045","831-TW","2016/12/19 03:19:45","新北市板橋區民生路二段161巷9號","121.470201666667","25.0194983333333"
"220022","895-R6","2016/12/19 13:47:52","新北市板橋區南門街85號","121.456888333333","25.007745"
"220021","985-R7","2016/12/19 13:47:56","新北市板橋區華興街91巷4號","121.45653","25.005305"
"220046","AAC-210","2016/12/19 13:47:53","新北市板橋區民生路二段120號","121.470391666667","25.0198483333333"
"220018","AAC-253","2016/12/19 13:47:48","新北市板橋區中山路二段60巷7號","121.474165","25.0153283333333"
