"lineid","car","time","location","longitude","latitude"
"248003","677-BX","2016/12/19 15:38:49","新北市新莊區中正路384-1號","121.442091666667","25.0352183333333"
"244006","080-UY","2016/12/19 10:20:50","新北市林口區粉寮69號","121.405","25.0908683333333"
"244001","248-BX","2016/12/19 15:24:26","新北市林口區粉寮69號","121.405105","25.09084"
"243014","380-SR","2016/12/19 15:31:33","新北市泰山區犁頭窠3-1號","121.42226","25.0606033333333"
"231029","001-UM","2016/12/19 15:38:49","新北市新店區安康路三段133號","121.48981","24.95176"
"231004","046-UY","2016/12/19 15:38:55","新北市新店區民族路105號","121.538108333333","24.9773383333333"
"231023","108-UY","2016/12/19 15:38:49","新北市新店區中興路一段265號","121.54479","24.9674233333333"
"231036","192-VK","2016/12/19 15:38:51","新北市新店區安祥路69巷89弄35號","121.4826","24.9610266666667"
"231011","256-BX","2016/12/19 15:38:56","新北市新店區文化路92號","121.544983333333","24.98258"
"231038","3712-VJ","2016/12/19 15:38:44","新北市新店區安康路一段258-1號","121.520565","24.96451"
"231039","512-UM","2016/12/19 15:38:44","新北市新店區寶元路二段29號","121.546525","24.9818666666667"
"231018","513-UM","2016/12/19 15:38:50","新北市新店區中央路7號","121.533411666667","24.9786166666667"
"231026","515-UM","2016/12/19 15:38:46","新北市新店區三民路75巷5弄1號","121.535618333333","24.9709183333333"
"231028","617-UM","2016/12/19 15:38:52","新北市新店區僑義路28號","121.500643333333","24.949885"
"231005","619-UM","2016/12/19 15:38:58","新北市新店區建國路138號","121.538948333333","24.978955"
"231034","641-BX","2016/12/19 15:38:45","新北市新店區玫瑰路58巷32號","121.493626666667","24.94685"
"231003","645-TV","2016/12/19 15:38:53","新北市新店區寶橋路221號","121.549183333333","24.9774816666667"
"231014","718-UY","2016/12/19 15:38:56","新北市新店區北宜路一段34號","121.53831","24.9567466666667"
"231019","719-UM","2016/12/19 15:38:51","新北市新店區新烏路一段73號","121.546393333333","24.9428233333333"
"231031","719-UY","2016/12/19 15:38:44","新北市新店區裕合街217號","121.489165","24.9487733333333"
"231030","897-TW","2016/12/19 15:38:46","新北市新店區新和街93巷8號","121.5208","24.986685"
"241028","022-UY","2016/12/19 15:38:56","新北市三重區重新路四段121號","121.484861666667","25.052"
"241017","063-VK","2016/12/19 15:38:46","新北市三重區過圳街8號","121.488658333333","25.05859"
"241013","270-UM","2016/12/19 15:38:50","新北市三重區忠孝路三段126號","121.479833333333","25.0623283333333"
"241019","478-VK","2016/12/19 15:38:44","新北市三重區重新路四段121號","121.485193333333","25.05199"
"241014","543-UM","2016/12/19 15:38:57","新北市三重區重新路四段121號","121.485088333333","25.0520233333333"
"241023","545-UM","2016/12/19 15:38:47","新北市三重區重新路四段121號","121.484661666667","25.0523416666667"
"241008","597-RM","2016/12/19 15:38:56","新北市三重區重新路四段121號","121.484846666667","25.0519216666667"
"241012","941-UM","2016/12/19 15:38:54","新北市三重區正義南路60-6號","121.498468333333","25.05996"
"241029","942-UM","2016/12/19 15:38:40","新北市三重區同安街3-2號","121.496345","25.0569233333333"
"241033","AAC-255","2016/12/19 15:38:43","新北市三重區中興南街1號","121.469895","25.0453666666667"
"235028","005-UY","2016/12/19 15:38:47","新北市新店區薏仁坑路自強巷1號","121.497901666667","24.9576833333333"
"235036","301-VK","2016/12/19 15:09:30","新北市中和區員山路36巷16-3號","121.484926666667","24.9914666666667"
"235033","4980-A6","2016/12/19 15:38:48","新北市中和區連城路347巷16弄3號","121.488356666667","24.9948933333333"
"235070","558-UM","2016/12/19 15:38:53","新北市中和區中正路304號","121.494001666667","24.994015"
"235024","647-TV","2016/12/19 15:38:46","新北市中和區中正路571巷2弄11號","121.486098333333","24.9937733333333"
"235035","783-BX","2016/12/19 15:38:48","新北市中和區建康路21號","121.48612","25.000425"
"235026","800-TS","2016/12/19 15:38:57","新北市中和區橋和路94號","121.490538333333","25.00544"
"235012","896-TW","2016/12/19 15:38:59","新北市中和區景新街424號","121.51294","24.9888316666667"
"235001","AAC-213","2016/12/19 15:38:57","新北市中和區自立路99巷22弄32號","121.523171666667","24.9937666666667"
"235023","AAC-215","2016/12/19 15:38:48","新北市中和區員山路23號","121.480708333333","24.98576"
"220013","072-UY","2016/12/19 15:36:19","新北市樹林區八德街584號","121.398641666667","24.9692733333333"
"220105","075-UY","2016/12/19 15:38:39","新北市樹林區中山路三段210-2號","121.381478333333","24.9655366666667"
"247003","341-TH","2016/12/19 15:38:49","新北市五股區中興路二段182巷50號","121.453193333333","25.0806633333333"
"224011","528-TC","2016/12/19 13:57:34","新北市瑞芳區大寮路356-1號","121.784795","25.103185"
"224007","285-BY","2016/12/19 15:38:48","新北市瑞芳區大寮路356-1號","121.784845","25.1032"
"224005","271-BY","2016/12/19 15:32:01","新北市瑞芳區明燈路二段66號","121.80929","25.1075533333333"
"227008","400-TW","2016/12/19 15:38:57","新北市雙溪區三貂里定福路1-1號","121.849421666667","25.0635383333333"
"208004","642-TV","2016/12/19 15:38:54","新北市金山區六股里下六股4號","121.626708333333","25.223475"
"236064","105-UM","2016/12/19 15:38:40","新北市土城區中央路二段219號","121.440971666667","24.9740416666667"
"236040","107-UM","2016/12/19 15:38:48","新北市土城區學府路一段159號","121.453166666667","24.9858966666667"
"236074","166-UM","2016/12/19 15:38:42","新北市土城區溪頭路110號","121.408583333333","24.950625"
"236028","253-BX","2016/12/19 15:38:53","新北市土城區中央路一段118巷1弄14號","121.445763333333","24.9877666666667"
"236024","269-VK","2016/12/19 15:38:50","新北市土城區中央路二段78號","121.44244","24.9789433333333"
"236012","270-VK","2016/12/19 15:38:43","新北市土城區廣明街63巷4號","121.454543333333","24.9935133333333"
"236032","271-VK","2016/12/19 15:38:55","新北市土城區延吉街312號","121.463858333333","24.9839683333333"
"236016","401-BY","2016/12/19 15:38:55","新北市土城區峰廷街56號","121.469638333333","24.986235"
"236056","912-UM","2016/12/19 15:38:49","新北市土城區中央路一段230號","121.44478","24.9851516666667"
"236044","913-UM","2016/12/19 15:39:01","新北市土城區金城路三段244號","121.473671666667","24.9906433333333"
"236060","915-UM","2016/12/19 15:38:49","新北市土城區延和路180號","121.469211666667","24.9902433333333"
"236052","AAC-216","2016/12/19 15:38:58","新北市土城區立德路20號","121.462758333333","24.9878133333333"
"238002","755-BX","2016/12/19 15:38:44","新北市樹林區中興街20-4號","121.420848333333","24.9901583333333"
"238010","601-UM","2016/12/19 15:38:48","新北市樹林區中正路433號","121.415103333333","25.008725"
"238006","599-UM","2016/12/19 15:38:45","新北市樹林區太平路121號","121.41921","24.980765"
"238005","571-TV","2016/12/19 15:38:53","新北市樹林區保安街一段7號","121.42668","24.9936316666667"
"238001","5061-A6","2016/12/19 15:38:53","新北市樹林區八德街212巷26號","121.4152","24.9739533333333"
"238009","312-TH","2016/12/19 15:38:42","新北市樹林區和平街2巷1號","121.421128333333","24.981385"
"238008","311-TH","2016/12/19 15:12:18","新北市樹林區西圳街165巷20弄26號","121.39546","24.9600483333333"
"238012","303-VK","2016/12/19 15:38:50","新北市樹林區中山路一段376-3號","121.418691666667","24.985645"
"238004","283-BY","2016/12/19 15:38:49","新北市樹林區光興街18號","121.412408333333","25.002895"
"238001","282-BY","2016/12/19 15:39:00","新北市樹林區中正路55巷11號","121.426271666667","24.9992983333333"
"238007","268-VK","2016/12/19 15:39:01","新北市樹林區俊英街116巷8號","121.428075","25.005855"
"238013","172-UY","2016/12/19 15:38:50","新北市樹林區新興街19巷36弄10號","121.402383333333","24.97317"
"238003","169-UY","2016/12/19 15:38:56","新北市樹林區日新街34號","121.422706666667","24.9924"
"220004","276-BY","2016/12/19 15:38:42","新北市板橋區縣民大道二段1號","121.462246666667","25.011755"
"220019","283-VK","2016/12/19 15:38:53","新北市板橋區和平路174巷51號","121.465773333333","24.9934483333333"
"220018","AAC-253","2016/12/19 15:39:00","新北市板橋區四川路二段128號","121.450306666667","24.9935633333333"
