"lineid","car","time","location","longitude","latitude"
"249005","172-UM","2016/12/19 16:47:46","新北市八里區大堀湖1-9號","121.422688333333","25.1555116666667"
"249001","173-UM","2016/12/19 16:47:48","新北市八里區挖子尾街6號","121.415435","25.1641883333333"
"249004","303-UY","2016/12/19 16:47:56","新北市八里區挖子尾街6號","121.415488333333","25.1641516666667"
"249002","305-UY","2016/12/19 16:47:51","新北市八里區牛寮埔31號","121.429746666667","25.145905"
"244007","080-UY","2016/12/19 16:45:36","新北市林口區粉寮路二段16號","121.402156666667","25.0857716666667"
"244001","248-BX","2016/12/19 15:24:26","新北市林口區粉寮69號","121.405105","25.09084"
"243011","297-R6","2016/12/19 15:52:13","新北市泰山區黎明路25號","121.421841666667","25.060835"
"243014","380-SR","2016/12/19 15:31:33","新北市泰山區犁頭窠3-1號","121.42226","25.0606033333333"
"243013","646-TV","2016/12/19 15:53:19","新北市泰山區黎明路25號","121.42213","25.0607866666667"
"243015","680-BX","2016/12/19 15:43:32","新北市泰山區黎明路25號","121.422068333333","25.0606283333333"
"231046","110-UY","2016/12/19 16:47:52","新北市新店區灣潭路29-3號","121.539783333333","24.9386866666667"
"241011","013-R5","2016/12/19 16:47:43","新北市三重區仁愛街53巷94號","121.498471666667","25.0723983333333"
"241028","022-UY","2016/12/19 16:47:56","新北市三重區光興街73號","121.49786","25.0599933333333"
"241009","060-VK","2016/12/19 16:47:48","新北市三重區三和路四段203巷208號","121.486375","25.0806916666667"
"241031","061-VK","2016/12/19 16:47:54","新北市三重區重陽路一段123-5號","121.487135","25.061"
"241015","062-VK","2016/12/19 16:47:53","新北市三重區文化北路43巷17號","121.499441666667","25.0655316666667"
"241017","063-VK","2016/12/19 16:47:46","新北市三重區國隆路8巷60號","121.492223333333","25.063305"
"241024","065-VK","2016/12/19 16:47:45","新北市三重區中正北路315巷6弄5號","121.474836666667","25.0718066666667"
"241026","066-VK","2016/12/19 16:47:52","新北市三重區中央南路17號","121.501066666667","25.0625133333333"
"241002","090-VK","2016/12/19 16:43:45","新北市三重區仁義街241巷46號","121.497323333333","25.083285"
"241022","156-TC","2016/12/19 16:47:58","新北市三重區新北大道一段112號","121.485001666667","25.0615483333333"
"241005","262-UM","2016/12/19 16:47:55","新北市三重區碧華街150號","121.485336666667","25.08196"
"241016","266-UM","2016/12/19 16:47:51","新北市三重區大同北路95巷6號","121.494595","25.0641166666667"
"241018","268-UM","2016/12/19 16:47:49","新北市三重區正義北路300-3號","121.495326666667","25.069875"
"241013","270-UM","2016/12/19 16:47:50","新北市三重區仁愛街75號","121.496223333333","25.0729966666667"
"241025","271-UM","2016/12/19 16:47:56","新北市三重區中正北路371-2號","121.471753333333","25.0719016666667"
"241006","398-BY","2016/12/19 16:47:44","新北市三重區車路頭街138-2號","121.483515","25.0754783333333"
"241007","412-TH","2016/12/19 16:47:53","新北市三重區三和路四段177-1號","121.482715","25.07884"
"241020","413-TH","2016/12/19 16:47:49","新北市三重區後竹圍街185號","121.485606666667","25.07164"
"241004","475-VK","2016/12/19 16:47:42","新北市三重區仁愛街415號","121.490665","25.0813583333333"
"241019","478-VK","2016/12/19 16:47:44","新北市三重區力行路一段163號","121.484735","25.069365"
"241030","480-VK","2016/12/19 16:47:50","新北市三重區環河南路221巷3號","121.492348333333","25.0521466666667"
"241014","543-UM","2016/12/19 16:47:58","新北市三重區長壽街120巷11號","121.502501666667","25.0691066666667"
"241023","545-UM","2016/12/19 16:47:47","新北市三重區中華路76巷24號","121.481755","25.0625583333333"
"241001","547-UM","2016/12/19 16:47:39","新北市三重區仁政街78號","121.492706666667","25.077465"
"241003","593-RM","2016/12/19 16:47:55","新北市三重區五華街71巷13號","121.49291","25.0830733333333"
"241008","597-RM","2016/12/19 16:47:56","新北市三重區永安北路一段17巷8號","121.476596666667","25.07515"
"241012","941-UM","2016/12/19 16:47:54","新北市三重區公園街21號","121.49921","25.0735883333333"
"241029","942-UM","2016/12/19 16:47:53","新北市三重區集美街175號","121.491443333333","25.0541333333333"
"241033","AAC-255","2016/12/19 16:47:43","新北市三重區新北大道二段139巷3號","121.466318333333","25.060975"
"235036","301-VK","2016/12/19 16:47:58","新北市中和區員山路36巷16-3號","121.48513","24.9912483333333"
"235034","558-UM","2016/12/19 16:27:43","新北市中和區員山路36巷16-2號","121.485208333333","24.991485"
"235024","647-TV","2016/12/19 16:47:57","新北市中和區員山路36巷16-3號","121.48512","24.991355"
"247008","546-UM","2016/12/19 16:47:44","新北市蘆洲區中山一路195號","121.474356666667","25.0811016666667"
"247016","500-BY","2016/12/19 16:47:53","新北市蘆洲區中正路57號","121.470518333333","25.0827716666667"
"247004","341-TH","2016/12/19 16:47:58","新北市蘆洲區長榮路155號","121.461735","25.084135"
"247006","339-TH","2016/12/19 16:47:42","新北市蘆洲區永安南路二段132-1號","121.462596666667","25.0785233333333"
"247022","337-TH","2016/12/19 16:47:42","新北市蘆洲區三民路128巷166-1號","121.468373333333","25.0925183333333"
"247024","336-TH","2016/12/19 16:47:43","新北市蘆洲區長興路255號","121.460518333333","25.0874933333333"
"247002","056-VK","2016/12/19 16:47:46","新北市蘆洲區永平街20號","121.459106666667","25.0906483333333"
"247010","007-UY","2016/12/19 16:47:48","新北市蘆洲區復興路335巷6-6號","121.486565","25.0933733333333"
"247014","001-UY","2016/12/19 16:47:40","新北市蘆洲區三民路89號","121.474296666667","25.0846533333333"
"228002","585-TW","2016/12/19 16:47:55","新北市貢寮區貢寮里朝陽街86號","121.908783333333","25.0221183333333"
"224010","AGQ-8101","2016/12/19 16:37:29","新北市瑞芳區明燈路二段44-1號","121.809473333333","25.1082383333333"
"224006","676-BX","2016/12/19 16:47:43","新北市瑞芳區大寮路356-1號","121.784645","25.1030966666667"
"224011","528-TC","2016/12/19 13:57:34","新北市瑞芳區大寮路356-1號","121.784795","25.103185"
"224007","285-BY","2016/12/19 16:47:48","新北市瑞芳區中央路48巷56-8號","121.760403333333","25.1035866666667"
"224009","275-VK","2016/12/19 16:47:58","新北市瑞芳區明燈路一段227號","121.818028333333","25.10817"
"224008","273-VK","2016/12/19 16:47:55","新北市瑞芳區民權街3-1號","121.809198333333","25.108345"
"224005","271-BY","2016/12/19 16:47:41","新北市瑞芳區明里路122號","121.864681666667","25.1221783333333"
"227001","642-TC","2016/12/19 16:47:41","新北市雙溪區外柑里外柑腳71號","121.807126666667","25.01757"
"227008","400-TW","2016/12/19 16:47:57","新北市雙溪區牡丹里中正路97號","121.861918333333","25.04714"
"251004","009-UM","2016/12/19 16:47:54","新北市淡水區中正路二段16號","121.420193333333","25.1809466666667"
"251008","181-VK","2016/12/19 16:47:47","新北市淡水區樹梅坑9號","121.472748333333","25.142675"
"251013","182-VK","2016/12/19 16:47:52","新北市淡水區大溪8號","121.495371666667","25.1904666666667"
"251012","441-VK","2016/12/19 16:47:51","新北市淡水區中正路二段31號","121.419648333333","25.1815216666667"
"251015","442-VK","2016/12/19 16:47:51","新北市淡水區忠愛街5-2號","121.460665","25.17157"
"251011","650-BX","2016/12/19 16:47:56","新北市淡水區中正路二段31號","121.419365","25.1817233333333"
"252002","178-VK","2016/12/19 16:47:40","新北市三芝區智成街120號","121.506015","25.2552916666667"
"252001","292-VK","2016/12/19 16:47:43","新北市三芝區埔坪里埔頭坑52號","121.507663333333","25.2653283333333"
"242027","986-R7","2016/12/19 16:47:54","新北市新莊區新泰路357巷3弄57號","121.442285","25.0393716666667"
"242056","413-TV","2016/12/19 16:48:00","新北市新莊區新泰路357巷3弄57號","121.441835","25.03953"
"242011","346-TH","2016/12/19 10:33:38","新北市新莊區三和路12-20號","121.442061666667","25.03779"
"238001","282-BY","2016/12/19 16:48:00","新北市樹林區中正路22-1號","121.42781","24.9996916666667"
"239007","AAC-297","2016/12/19 16:47:50","新北市鶯歌區二甲路13號","121.344826666667","24.934555"
"239006","891-R6","2016/12/19 16:43:58","新北市鶯歌區二甲路13-16號","121.345005","24.9344833333333"
"239008","527-UM","2016/12/19 16:47:49","新北市鶯歌區二甲路12-2號","121.345353333333","24.9346366666667"
"239005","526-UM","2016/12/19 16:48:01","新北市鶯歌區二甲路13-16號","121.345095","24.9347783333333"
"239001","417-VK","2016/12/19 16:48:00","新北市鶯歌區二甲路12-2號","121.345731666667","24.934495"
"239003","360-BY","2016/12/19 16:47:47","新北市鶯歌區二甲路12-2號","121.346078333333","24.9349766666667"
"239002","359-BY","2016/12/19 16:48:01","新北市鶯歌區二甲路12-2號","121.34595","24.9343983333333"
"220094","285-UM","2016/12/19 16:16:29","新北市板橋區民生路二段198號","121.469635","25.02083"
"220018","AAC-253","2016/12/19 16:47:48","新北市板橋區民生路二段36-1號","121.472448333333","25.0168366666667"
