"lineid","car","time","location","longitude","latitude"
"232002","291-BY","2016/12/20 06:29:59","新北市坪林區魚堀55-1號","121.708336666667","24.9295516666667"
"244002","248-BX","2016/12/20 06:28:07","新北市林口區粉寮路二段160巷28號","121.405148333333","25.0907333333333"
"235072","301-VK","2016/12/20 06:29:57","新北市中和區永和路39巷6號","121.497768333333","25.0050366666667"
"235002","157-BY","2016/12/20 06:29:44","新北市中和區和平街29-1號","121.507415","24.9910183333333"
"223006","022-BY","2016/12/20 04:40:15","新北市石碇區小粗坑(潭邊里)9-2號","121.678841666667","24.9858233333333"
