"lineid","car","time","location","longitude","latitude"
"235003","783-BX","2016/10/23 19:17:49","新北市中和區員山路36巷16-3號","121.485123333333","24.9912116666667"
"251016","179-VK","2016/10/23 17:32:50","新北市淡水區埤島74號","121.454668333333","25.1935133333333"
"251014","180-VK","2016/10/23 19:17:28","新北市淡水區小中寮19-9號","121.485076666667","25.2287533333333"
"251013","182-VK","2016/10/23 16:34:22","新北市淡水區楓樹湖10號","121.501008333333","25.1863533333333"
"251015","442-VK","2016/10/23 18:19:50","新北市淡水區興福寮88巷1號","121.485478333333","25.16512"
