"lineid","car","time","location","longitude","latitude"
"234054","553-UM","2016/10/26 12:47:15","新北市永和區豫溪街217巷1號","121.52475","25.0093266666667"
"251001","155-BY","2016/10/26 12:47:01","新北市淡水區中正路二段31號","121.419056666667","25.1818433333333"
"220068","255-TC","2016/10/26 11:45:39","新北市板橋區民生路二段17號","121.472585","25.0163566666667"
"220002","295-UM","2016/10/26 12:47:24","新北市板橋區民權路248號","121.458365","25.0146"
"220055","827-TW","2016/10/26 12:21:47","新北市板橋區民生路二段22號","121.472708333333","25.0166533333333"
"220070","AAC-253","2016/10/26 12:47:15","新北市板橋區中山路二段7號","121.471926666667","25.01495"
