"lineid","car","time","location","longitude","latitude"
"234054","553-UM","2016/10/26 13:28:45","新北市永和區永和路二段201號","121.515428333333","25.0134916666667"
"231018","260-TV","2016/10/26 13:26:41","新北市新店區新店路23號","121.540208333333","24.95282"
"251001","155-BY","2016/10/26 13:29:01","新北市淡水區中山路54號","121.443956666667","25.17035"
"242042","172-VK","2016/10/26 13:28:41","新北市新莊區新莊路212號","121.453268333333","25.0344933333333"
"220068","255-TC","2016/10/26 13:29:10","新北市板橋區實踐路93巷86號","121.46699","25.0047183333333"
"220002","295-UM","2016/10/26 12:53:53","新北市板橋區民生路二段36-1號","121.47251","25.0167566666667"
"220055","827-TW","2016/10/26 13:25:59","新北市板橋區民生路二段36-1號","121.472486666667","25.0165816666667"
"220070","AAC-253","2016/10/26 13:28:46","新北市板橋區南雅南路二段120-8號","121.452171666667","24.9995366666667"
