"lineid","car","time","location","longitude","latitude"
"234054","553-UM","2016/10/26 14:07:44","新北市永和區勵行街46號","121.516805","25.0134166666667"
"231018","260-TV","2016/10/26 14:07:41","新北市新店區寶安街2號","121.54237","24.98066"
"251001","155-BY","2016/10/26 14:08:01","新北市淡水區學府路203號","121.446406666667","25.17542"
"236038","271-VK","2016/10/26 14:07:39","新北市土城區南天母路94號","121.4477","24.9515566666667"
"220068","255-TC","2016/10/26 14:07:40","新北市板橋區國泰街75巷2弄15號","121.467075","25.0059883333333"
"220002","295-UM","2016/10/26 14:07:54","新北市板橋區僑中二街92巷1號","121.446271666667","25.0087266666667"
"220055","827-TW","2016/10/26 13:25:59","新北市板橋區民生路二段36-1號","121.472486666667","25.0165816666667"
"220070","AAC-253","2016/10/26 13:41:59","新北市板橋區民生路二段36-1號","121.472523333333","25.0165333333333"
"249001","3G-TL5","2016/10/26 14:08:00","桃園市楊梅區電研路100-24號","121.166103333333","24.9536483333333"
