"lineid","car","time","location","longitude","latitude"
"234054","553-UM","2016/10/26 14:46:45","新北市永和區福和路1號","121.526298333333","25.0096616666667"
"251001","155-BY","2016/10/26 14:47:01","新北市淡水區淡金路五段20號","121.453438333333","25.23255"
"236038","271-VK","2016/10/26 14:42:39","新北市土城區承天路114號","121.449401666667","24.949605"
"220002","295-UM","2016/10/26 14:46:54","新北市板橋區民生路二段36-1號","121.472558333333","25.01656"
"220055","827-TW","2016/10/26 13:25:59","新北市板橋區民生路二段36-1號","121.472486666667","25.0165816666667"
"220070","AAC-253","2016/10/26 13:41:59","新北市板橋區民生路二段36-1號","121.472523333333","25.0165333333333"
"249001","3G-TL5","2016/10/26 14:47:00","桃園市楊梅區電研路100-24號","121.166091666667","24.9536533333333"
