"lineid","car","time","location","longitude","latitude"
"234054","553-UM","2016/10/26 14:55:23","新北市永和區福和路1號","121.526286666667","25.009695"
"251013","180-VK","2016/10/26 16:38:52","新北市淡水區楓樹湖3-3號","121.496623333333","25.1866183333333"
"251015","182-VK","2016/10/26 16:38:44","新北市淡水區中山北路二段381巷111號","121.444135","25.1863833333333"
"236038","271-VK","2016/10/26 16:27:39","新北市土城區城林路6巷80號","121.43838","24.9797766666667"
"249003","3G-TL5","2016/10/26 16:26:50","桃園市楊梅區電研路100-24號","121.166083333333","24.953645"
