"lineid","car","time","location","longitude","latitude"
"234054","553-UM","2016/10/26 14:55:23","新北市永和區福和路1號","121.526286666667","25.009695"
"251013","180-VK","2016/10/26 16:59:52","新北市淡水區泉洲厝32號","121.489286666667","25.19254"
"251015","182-VK","2016/10/26 16:59:44","新北市淡水區忠愛街2-5號","121.456905","25.171855"
"236038","271-VK","2016/10/26 16:27:39","新北市土城區城林路6巷80號","121.43838","24.9797766666667"
"249003","3G-TL5","2016/10/26 16:59:49","桃園市楊梅區電研路100-24號","121.1661","24.9536433333333"
