"lineid","car","time","location","longitude","latitude"
"234054","553-UM","2016/10/26 14:55:23","新北市永和區福和路1號","121.526286666667","25.009695"
"251013","180-VK","2016/10/26 17:38:52","新北市淡水區大竹圍1號","121.470075","25.1951866666667"
"251015","182-VK","2016/10/26 17:37:44","新北市淡水區樹林口14-1號","121.479691666667","25.1685666666667"
"236038","271-VK","2016/10/26 16:27:39","新北市土城區城林路6巷80號","121.43838","24.9797766666667"
"249003","3G-TL5","2016/10/26 17:17:16","桃園市楊梅區電研路100-24號","121.16609","24.9536766666667"
