"lineid","car","time","location","longitude","latitude"
"234054","553-UM","2016/10/26 14:55:23","新北市永和區福和路1號","121.526286666667","25.009695"
"231018","260-TV","2016/10/26 18:38:41","新北市新店區民族路2號","121.542126666667","24.9789916666667"
"224011","AGQ-8101","2016/10/26 18:38:40","新北市瑞芳區烏勢巷113號","121.846793333333","25.1086116666667"
"251013","180-VK","2016/10/26 18:38:22","新北市淡水區椿子林5-2號","121.482286666667","25.2056766666667"
"251015","182-VK","2016/10/26 17:51:44","新北市淡水區興福寮1-8號","121.489416666667","25.16488"
"236038","271-VK","2016/10/26 16:27:39","新北市土城區城林路6巷80號","121.43838","24.9797766666667"
"249003","3G-TL5","2016/10/26 17:17:16","桃園市楊梅區電研路100-24號","121.16609","24.9536766666667"
