"lineid","car","time","location","longitude","latitude"
"234054","553-UM","2016/10/26 14:55:23","新北市永和區福和路1號","121.526286666667","25.009695"
"231018","260-TV","2016/10/26 18:59:41","新北市新店區中央路45號","121.532811666667","24.97765"
"224011","AGQ-8101","2016/10/26 18:59:40","新北市瑞芳區基山街64號","121.844823333333","25.108485"
"251013","180-VK","2016/10/26 18:59:22","新北市淡水區頂田寮路1111號","121.49187","25.21284"
"251015","182-VK","2016/10/26 17:51:44","新北市淡水區興福寮1-8號","121.489416666667","25.16488"
"236038","271-VK","2016/10/26 16:27:39","新北市土城區城林路6巷80號","121.43838","24.9797766666667"
"249003","3G-TL5","2016/10/26 17:17:16","桃園市楊梅區電研路100-24號","121.16609","24.9536766666667"
