"lineid","car","time","location","longitude","latitude"
"234005","209-UY","2016/12/29 07:47:42","新北市永和區光復街8號","121.516386666667","25.0168766666667"
"248005","653-BX","2016/12/29 07:47:42","新北市五股區明德路8號","121.433325","25.0716466666667"
"232007","290-BY","2016/12/29 07:47:39","新北市坪林區九芎林14-3號","121.70619","24.93202"
"232001","291-BY","2016/12/29 07:47:36","新北市坪林區坪雙路一段117號","121.733138333333","24.9512433333333"
"232010","375-UM","2016/12/29 07:47:25","新北市坪林區厚德岡坑2-1號","121.727658333333","24.940755"
"232014","705-BZ","2016/12/29 07:47:29","新北市坪林區金瓜寮24號","121.678123333333","24.9087633333333"
"232018","758-BX","2016/12/29 07:39:20","新北市坪林區坪雙路一段31號","121.7117","24.9424083333333"
"244006","080-UY","2016/12/29 07:47:41","新北市林口區粉寮69號","121.405028333333","25.090875"
"244003","248-BX","2016/12/29 07:47:44","新北市林口區頂福里26號","121.349633333333","25.0953616666667"
"244020","838-TS","2016/12/29 07:47:37","新北市林口區粉寮69號","121.405043333333","25.09087"
"243001","548-UM","2016/12/29 07:47:41","新北市泰山區明志路一段95號","121.433535","25.0639533333333"
"222006","289-BY","2016/12/29 07:47:32","新北市深坑區文化街39巷13號","121.618766666667","25.0010316666667"
"231008","188-VK","2016/12/29 07:47:33","新北市新店區中正路104號","121.543265","24.9707116666667"
"235001","255-BX","2016/12/29 07:47:37","新北市中和區廟美街5號","121.500748333333","25.001455"
"235043","352-BY","2016/12/29 07:47:29","新北市中和區和平街88號","121.507465","24.9912216666667"
"226005","5620-A6","2016/12/29 07:47:41","新北市平溪區嶺腳里嶺腳寮89號","121.746598333333","25.034755"
"226002","7418-A5","2016/12/29 07:47:37","新北市平溪區南山里乾坑11號","121.782171666667","25.047195"
"226003","AGD-0702","2016/12/29 07:47:21","新北市平溪區嶺腳里嶺腳寮75號","121.747335","25.0329533333333"
"223006","022-BY","2016/12/29 07:47:32","新北市石碇區靜安路一段236號","121.67277","25.0082566666667"
"223002","198-BX","2016/12/29 07:47:37","新北市石碇區北宜路五段大湖巷12號","121.635421666667","24.9413916666667"
"223003","205-TH","2016/12/29 07:47:24","新北市石碇區蛇舌子6號","121.66482","24.9686016666667"
"223001","251-BX","2016/12/29 07:47:39","新北市石碇區蛇舌子6號","121.664841666667","24.9685083333333"
"223008","406-TH","2016/12/29 07:32:00","新北市石碇區靜安路一段337號","121.698765","25.0146933333333"
"223004","660-BX","2016/12/29 07:47:26","新北市石碇區新興坑1號","121.653885","25.0155"
"223007","661-BX","2016/12/29 07:47:27","新北市石碇區大溪墘2-4號","121.698833333333","25.0102666666667"
"223005","677-TV","2016/12/29 07:47:26","新北市石碇區新興坑1-1號","121.654055","25.014905"
"227007","282-VK","2016/12/29 07:47:36","新北市雙溪區雙溪里太平路54號","121.864771666667","25.0354866666667"
"252004","249-BX","2016/12/29 07:47:27","新北市三芝區店子里菜公坑75號","121.509901666667","25.2062266666667"
"252007","AAC-283","2016/12/29 01:07:51","新北市三芝區埔坪里埔頭坑41號","121.504473333333","25.2643883333333"
"237001","159-UY","2016/12/29 07:47:40","新北市三峽區國慶路301-1號","121.3739","24.9410266666667"
"236009","165-UM","2016/12/29 07:47:42","新北市土城區清水路269號","121.463685","24.9853166666667"
"236003","339-SR","2016/12/29 07:42:00","新北市土城區龍泉路89-3號","121.446436666667","24.9437733333333"
"242018","AAC-296","2016/12/29 07:47:31","新北市新莊區新泰路502巷53號","121.444293333333","25.0464366666667"
"242026","986-R7","2016/12/29 07:47:39","新北市新莊區新泰路500號","121.442363333333","25.0458783333333"
"242043","751-BX","2016/12/29 07:47:43","新北市新莊區富國路101-1號","121.421336666667","25.025575"
"242022","615-BX","2016/12/29 07:47:25","新北市新莊區新泰路361巷23號","121.44237","25.04251"
"242059","613-BX","2016/12/29 07:47:39","新北市新莊區公園一路73號","121.44239","25.0369966666667"
"242024","612-BX","2016/12/29 07:47:45","新北市新莊區新泰路502巷54號","121.444388333333","25.0463883333333"
"242033","566-BX","2016/12/29 07:47:24","新北市新莊區新泰路318號","121.445118333333","25.0415333333333"
"242038","497-BY","2016/12/29 07:47:34","新北市新莊區新樹路123-1號","121.437118333333","25.0262316666667"
"242001","442-UM","2016/12/29 07:47:33","新北市新莊區新泰路415-1號","121.4422","25.0444083333333"
"242047","440-UM","2016/12/29 07:47:30","新北市新莊區中正路877-5號","121.41793","25.0265066666667"
"242020","415-TV","2016/12/29 07:47:27","新北市新莊區中港一街151號","121.447646666667","25.045065"
"242055","413-TV","2016/12/29 07:47:29","新北市泰山區磚雅厝2-5號","121.442071666667","25.0432183333333"
"242057","362-BY","2016/12/29 05:01:28","新北市新莊區三和路12-21號","121.441996666667","25.038215"
"242028","353-BY","2016/12/29 07:47:35","新北市新莊區中平路377巷28號","121.44248","25.05284"
"242008","132-UY","2016/12/29 07:47:25","新北市新莊區中平路377巷28號","121.442525","25.0530883333333"
"242030","133-UY","2016/12/29 07:47:28","新北市新莊區新泰路417-2號","121.443178333333","25.04463"
"242016","135-UY","2016/12/29 07:47:40","新北市新莊區中環路二段392-1號","121.442438333333","25.0453083333333"
"242040","172-VK","2016/12/29 07:47:39","新北市新莊區新樹路113巷21號","121.439243333333","25.0263566666667"
"242003","173-VK","2016/12/29 07:47:39","新北市新莊區三和路12-21號","121.44231","25.0382816666667"
"242010","175-VK","2016/12/29 07:47:25","新北市新莊區三和路12-18號","121.442351666667","25.03764"
"242052","176-VK","2016/12/29 07:47:30","新北市新莊區新樹路67巷1號","121.442103333333","25.0296616666667"
"242045","346-TH","2016/12/29 07:47:40","新北市新莊區中正路384-1號","121.442246666667","25.035165"
"242035","347-TH","2016/12/29 03:35:15","新北市新莊區三和路12-17號","121.441878333333","25.0375016666667"
"242014","348-TH","2016/12/29 07:47:28","新北市新莊區新泰路275號","121.445688333333","25.0403766666667"
"242049","349-TH","2016/12/29 07:47:31","新北市新莊區瓊林路198號","121.439013333333","25.0207833333333"
"242006","351-TH","2016/12/29 07:47:30","新北市新莊區新泰路413巷22號","121.442423333333","25.0444366666667"
