"lineid","car","time","location","longitude","latitude"
"231009","188-VK","2016/10/21 09:56:03","新北市新店區平廣路一段270號","121.505783333333","24.8866466666667"
"231007","189-VK","2016/10/21 10:29:56","新北市新店區新潭路二段62巷15號","121.52002","24.9276633333333"
"226005","5620-A6","2016/10/21 10:19:05","新北市平溪區嶺腳里嶺腳寮109號","121.742856666667","25.0319783333333"
"223002","198-BX","2016/10/21 07:31:14","新北市石碇區北宜路六段十三股巷1-1號","121.645791666667","24.9427033333333"
"223008","406-TH","2016/10/21 08:42:46","新北市石碇區十八重溪68號","121.674075","25.0152283333333"
"237001","159-UY","2016/10/21 10:29:51","新北市三峽區學成路468號","121.378101666667","24.944675"
"236003","339-SR","2016/10/21 10:29:55","新北市土城區永平街51號","121.427658333333","24.9592033333333"
