"lineid","car","time","location","longitude","latitude"
"231057","515-UM","2016/11/02 17:58:53","新北市新店區安華路28-1號","121.519695","24.960945"
"251013","180-VK","2016/11/02 17:59:06","新北市淡水區泉洲厝31號","121.479516666667","25.1910216666667"
"251015","442-VK","2016/11/02 17:58:59","新北市淡水區興福寮22-3號","121.494071666667","25.1643316666667"
"236015","270-VK","2016/11/02 15:15:17","新北市土城區城林路6巷80號","121.438505","24.9798516666667"
"249002","3G-TL5","2016/11/02 15:32:44","桃園市楊梅區電研路100-24號","121.166105","24.9536883333333"
