"lineid","car","time","location","longitude","latitude"
"231057","515-UM","2016/11/02 18:08:13","新北市新店區安華路28-1號","121.520033333333","24.9613783333333"
"251013","180-VK","2016/11/02 18:08:07","新北市淡水區口湖子6號","121.476263333333","25.1914583333333"
"251015","442-VK","2016/11/02 18:08:19","新北市淡水區興福寮88巷1號","121.485428333333","25.16507"
"236015","270-VK","2016/11/02 15:15:17","新北市土城區城林路6巷80號","121.438505","24.9798516666667"
"249002","3G-TL5","2016/11/02 15:32:44","桃園市楊梅區電研路100-24號","121.166105","24.9536883333333"
