"lineid","car","time","location","longitude","latitude"
"231057","515-UM","2016/11/02 18:59:13","新北市新店區環河路176號","121.525245","24.975565"
"224011","AGQ-8101","2016/11/02 18:58:59","新北市瑞芳區基山街41-1號","121.845496666667","25.1090116666667"
"251013","180-VK","2016/11/02 18:59:06","新北市淡水區小坑子頭2號","121.484336666667","25.2134566666667"
"251015","442-VK","2016/11/02 18:59:19","新北市淡水區糞箕湖60號","121.4852","25.1722816666667"
"236015","270-VK","2016/11/02 15:15:17","新北市土城區城林路6巷80號","121.438505","24.9798516666667"
"249002","3G-TL5","2016/11/02 15:32:44","桃園市楊梅區電研路100-24號","121.166105","24.9536883333333"
