"lineid","car","time","location","longitude","latitude"
"231057","515-UM","2016/11/02 19:33:46","新北市新店區安華路28-1號","121.51963","24.9612016666667"
"251013","180-VK","2016/11/02 20:38:06","新北市淡水區後坑子6號","121.463775","25.2065716666667"
"251015","442-VK","2016/11/02 20:38:19","新北市淡水區淡金路四段180號","121.451635","25.2213966666667"
"236015","270-VK","2016/11/02 15:15:17","新北市土城區城林路6巷80號","121.438505","24.9798516666667"
"249002","3G-TL5","2016/11/02 15:32:44","桃園市楊梅區電研路100-24號","121.166105","24.9536883333333"
