"lineid","car","time","location","longitude","latitude"
"232014","076-UY","2016/11/03 06:38:21","新北市坪林區水柳腳36號","121.710031666667","24.9352416666667"
"232003","291-BY","2016/11/03 06:38:10","新北市坪林區水柳腳38號","121.70984","24.9352016666667"
"232018","758-BX","2016/11/03 06:38:20","新北市坪林區坪碇路69號","121.711666666667","24.93768"
"222006","289-BY","2016/11/03 06:38:01","新北市深坑區深南路51-1號","121.62144","25.0098583333333"
"223006","022-BY","2016/11/03 06:38:03","新北市石碇區下橫坪15號","121.668511666667","24.9837783333333"
"223004","660-BX","2016/11/03 06:38:11","新北市石碇區小粗坑(潭邊里)9-2號","121.678635","24.985505"
"227007","400-TW","2016/11/03 06:38:13","新北市雙溪區牡丹里牡丹58號","121.851208333333","25.0613483333333"
