"lineid","car","time","location","longitude","latitude"
"244002","248-BX","2016/12/27 09:36:15","新北市林口區粉寮路二段160巷28號","121.405151666667","25.09073"
"231009","188-VK","2016/12/27 09:45:21","新北市新店區平廣路一段273號","121.505798333333","24.8866216666667"
"231007","189-VK","2016/12/27 09:59:21","新北市新店區新潭路三段215巷25號","121.508038333333","24.9039916666667"
"223006","022-BY","2016/12/27 09:06:38","新北市石碇區小粗坑(潭邊里)9-2號","121.678595","24.9857633333333"
"227006","282-VK","2016/12/27 09:59:25","新北市雙溪區長源里柑腳52-1號","121.79465","25.0089316666667"
"227012","030-BX","2016/12/27 09:41:58","新北市坪林區中心崙2號","121.783495","24.9501633333333"
"252007","AAC-283","2016/12/27 01:13:21","新北市三芝區埔坪里埔頭坑41號","121.504418333333","25.2643366666667"
"236006","498-BY","2016/12/27 09:59:13","新北市土城區城林路6巷80號","121.438688333333","24.9797333333333"
