"lineid","car","time","location","longitude","latitude"
"244002","248-BX","2016/12/27 09:36:15","新北市林口區粉寮路二段160巷28號","121.405151666667","25.09073"
"231009","188-VK","2016/12/27 09:45:21","新北市新店區平廣路一段273號","121.505798333333","24.8866216666667"
"231007","189-VK","2016/12/27 10:29:01","新北市新店區小坑三路51-1號","121.515686666667","24.9090816666667"
"223006","022-BY","2016/12/27 09:06:38","新北市石碇區小粗坑(潭邊里)9-2號","121.678595","24.9857633333333"
"227006","282-VK","2016/12/27 10:29:05","新北市雙溪區外柑里外柑腳32號","121.815195","25.0223233333333"
"227012","030-BX","2016/12/27 10:28:18","新北市坪林區坪雙路三段58號","121.777931666667","24.96921"
