"lineid","car","time","location","longitude","latitude"
"244002","248-BX","2016/12/27 09:36:15","新北市林口區粉寮路二段160巷28號","121.405151666667","25.09073"
"231009","188-VK","2016/12/27 10:46:59","新北市新店區小坑一路6號","121.535685","24.911655"
"231007","189-VK","2016/12/27 10:47:01","新北市新店區新潭路二段86號","121.517186666667","24.9251116666667"
"223006","022-BY","2016/12/27 09:06:38","新北市石碇區小粗坑(潭邊里)9-2號","121.678595","24.9857633333333"
"227006","282-VK","2016/12/27 10:46:05","新北市雙溪區新基里新基東街17號","121.87347","25.0422766666667"
