"lineid","car","time","location","longitude","latitude"
"244002","248-BX","2016/12/27 09:36:15","新北市林口區粉寮路二段160巷28號","121.405151666667","25.09073"
"231009","188-VK","2016/12/27 10:58:33","新北市新店區小坑一路73巷6號","121.530705","24.90767"
"231007","189-VK","2016/12/27 10:59:01","新北市新店區新潭路一段160巷17號","121.529598333333","24.9319683333333"
"223006","022-BY","2016/12/27 09:06:38","新北市石碇區小粗坑(潭邊里)9-2號","121.678595","24.9857633333333"
"227006","282-VK","2016/12/27 10:59:05","新北市雙溪區新基里中華路2號","121.865755","25.0363633333333"
