"lineid","car","time","location","longitude","latitude"
"244002","248-BX","2016/12/27 09:36:15","新北市林口區粉寮路二段160巷28號","121.405151666667","25.09073"
"231009","188-VK","2016/12/27 11:19:59","新北市新店區廣興路5巷19號","121.545543333333","24.9143116666667"
"231007","189-VK","2016/12/27 11:20:03","新北市新店區新潭路一段140巷6號","121.52864","24.934835"
"223006","022-BY","2016/12/27 09:06:38","新北市石碇區小粗坑(潭邊里)9-2號","121.678595","24.9857633333333"
"227006","282-VK","2016/12/27 11:20:05","新北市雙溪區魚行里坤溪8號","121.86641","25.0212033333333"
