"lineid","car","time","location","longitude","latitude"
"244002","248-BX","2016/12/27 09:36:15","新北市林口區粉寮路二段160巷28號","121.405151666667","25.09073"
"231009","188-VK","2016/12/27 11:49:39","新北市新店區成功路91-1號","121.537676666667","24.89528"
"223006","022-BY","2016/12/27 09:06:38","新北市石碇區小粗坑(潭邊里)9-2號","121.678595","24.9857633333333"
"228005","663-BX","2016/12/27 11:49:51","新北市貢寮區貢寮里朝陽街1-2號","121.912298333333","25.0211566666667"
"227006","282-VK","2016/12/27 11:49:45","新北市雙溪區魚行里坤溪35號","121.871463333333","25.0308066666667"
