"lineid","car","time","location","longitude","latitude"
"234005","207-UY","2016/12/27 14:47:09","新北市永和區安樂路208-1號","121.515033333333","25.0019716666667"
"234062","337-UY","2016/12/27 14:47:03","新北市板橋區文化路二段641-21號","121.479825","25.042355"
"234028","746-BX","2016/12/27 14:46:02","新北市五股區中直路15-2號","121.423396666667","25.1110333333333"
"234025","9371-KE","2016/12/27 14:47:21","新北市永和區雙和街52巷2號","121.5089","25.00318"
"248017","225-UY","2016/12/27 14:32:29","新北市五股區外寮路13-1號","121.42488","25.0812333333333"
"234066","AAC-212","2016/12/27 14:47:16","新北市五股區成泰路一段98巷102號","121.450616666667","25.0774716666667"
"231029","001-UM","2016/12/27 14:47:12","新北市新店區安康路三段464號","121.483951666667","24.9509016666667"
"231006","002-UM","2016/12/27 14:47:13","新北市新店區北宜路二段69-1號","121.549626666667","24.9516"
"231025","0291-UT","2016/12/27 14:47:06","新北市新店區民族路161號","121.537818333333","24.9767216666667"
"231004","046-UY","2016/12/27 14:47:14","新北市新店區民族路161號","121.53764","24.9768416666667"
"231001","106-UY","2016/12/27 14:47:19","新北市新店區三民路45號","121.537106666667","24.9709216666667"
"231035","107-UY","2016/12/27 14:47:15","新北市新店區吉安街20號","121.516438333333","24.965845"
"231023","108-UY","2016/12/27 14:47:15","新北市新店區檳榔路111號","121.544595","24.96156"
"231013","187-VK","2016/12/27 14:47:23","新北市新店區北新路二段121巷15弄1號","121.54224","24.97465"
"231069","189-VK","2016/12/27 12:18:36","新北市新店區安華路28-1號","121.519553333333","24.9610466666667"
"231036","192-VK","2016/12/27 14:47:16","新北市新店區安祥路106巷2號","121.478973333333","24.9621883333333"
"231012","256-BX","2016/12/27 14:47:22","新北市新店區寶橋路61號","121.545311666667","24.9749616666667"
"231038","3712-VJ","2016/12/27 14:47:04","新北市新店區溪洲路192號","121.528705","24.9663433333333"
"231027","3713-VJ","2016/12/27 14:47:23","新北市新店區北新路二段2號","121.542931666667","24.9707816666667"
"231037","4715-K9","2016/12/27 14:47:12","新北市新店區安德街116巷26弄3號","121.508926666667","24.962075"
"231039","512-UM","2016/12/27 14:47:20","新北市新店區安平路23-1號","121.52078","24.96637"
"231018","513-UM","2016/12/27 14:47:15","新北市新店區中央四街5-1號","121.530248333333","24.9738116666667"
"231028","617-UM","2016/12/27 14:47:06","新北市新店區安德街148巷1號","121.508246666667","24.9597983333333"
"231002","618-UM","2016/12/27 14:47:22","新北市新店區民權路63號","121.539273333333","24.982925"
"231005","619-UM","2016/12/27 14:47:10","新北市新店區復興路2號","121.53232","24.9883133333333"
"231034","641-BX","2016/12/27 14:47:11","新北市新店區安康路二段362-5號","121.501611666667","24.9573383333333"
"231003","645-TV","2016/12/27 14:47:06","新北市新店區中興路二段55號","121.546465","24.9703016666667"
"231015","718-UY","2016/12/27 14:47:05","新北市新店區北宜路三段221號","121.592373333333","24.953275"
"231020","719-UM","2016/12/27 14:47:11","新北市新店區永福路38-1號","121.55308","24.929385"
"231032","719-UY","2016/12/27 14:47:09","新北市新店區安康路二段382號","121.500378333333","24.957185"
"231030","897-TW","2016/12/27 14:47:12","新北市新店區安民街254號","121.517685","24.973305"
"231024","AKT-0513","2016/12/27 14:47:21","新北市新店區新生街5巷2號","121.54013","24.9658816666667"
"235030","003-UY","2016/12/27 14:47:16","新北市中和區中和路267號","121.505378333333","24.999935"
"235027","006-UY","2016/12/27 14:47:21","新北市中和區連勝街93號","121.495536666667","24.9962866666667"
"235020","096-UM","2016/12/27 14:47:14","新北市中和區員山路514巷1號","121.47931","25.0095816666667"
"235003","097-UM","2016/12/27 14:47:18","新北市中和區安樂路69-1號","121.512543333333","24.9938616666667"
"235029","098-UM","2016/12/27 14:47:16","新北市中和區福美路267號","121.498313333333","25.0051333333333"
"235004","150-BY","2016/12/27 14:41:39","新北市中和區安平路59號","121.509425","24.995155"
"235022","151-BY","2016/12/27 14:47:24","新北市中和區員山路132巷21號","121.482373333333","24.9963133333333"
"235019","183-VK","2016/12/27 14:47:05","新北市中和區德光路15巷19號","121.471406666667","25.0034916666667"
"235002","185-VK","2016/12/27 14:47:09","新北市中和區自立路127號","121.5219","24.99408"
"235013","186-VK","2016/12/27 14:47:19","新北市中和區安平路17號","121.509165","24.994185"
"235031","255-BX","2016/12/27 14:47:08","新北市中和區連城路340巷14弄20號","121.482883333333","24.99719"
"235008","293-VK","2016/12/27 14:47:19","新北市中和區復興路290號","121.501816666667","24.9903566666667"
"235036","301-VK","2016/12/27 14:47:23","新北市中和區廣福路63號","121.502473333333","25.00115"
"235007","352-BY","2016/12/27 14:47:03","新北市中和區南華路71號","121.504798333333","24.9973566666667"
"235015","376-QA","2016/12/27 14:47:10","新北市中和區中興街180巷52弄1號","121.498608333333","24.988475"
"235032","377-QA","2016/12/27 14:47:13","新北市中和區福美路301巷16號","121.497521666667","25.0042283333333"
"235014","4979-A6","2016/12/27 14:47:04","新北市中和區景平路241巷84弄54號","121.506105","24.9924333333333"
"235033","4980-A6","2016/12/27 14:47:18","新北市中和區圓通路176-1號","121.49714","24.994495"
"235006","551-UM","2016/12/27 14:47:21","新北市中和區中和路350巷8弄40號","121.509795","24.9998216666667"
"235034","558-UM","2016/12/27 14:47:14","新北市中和區中和路51號","121.500343333333","25.0011833333333"
"235009","565-BX","2016/12/27 14:47:04","新北市中和區景新街491號","121.513801666667","24.9873333333333"
"235018","640-BX","2016/12/27 14:47:17","新北市中和區民德路81號","121.469075","25.0011283333333"
"235011","732-UM","2016/12/27 14:19:17","新北市中和區興南路一段56巷4號","121.51075","24.9908833333333"
"235010","733-UM","2016/12/27 14:47:20","新北市中和區忠孝街37巷52號","121.511081666667","24.9849933333333"
"235035","783-BX","2016/12/27 14:47:13","新北市中和區中正路635號","121.485258333333","24.9953233333333"
"235026","800-TS","2016/12/27 14:47:15","新北市中和區中山路二段504號","121.48669","25.00499"
"235021","801-TS","2016/12/27 14:47:15","新北市中和區員山路389號","121.481251666667","25.0026366666667"
"235005","802-TS","2016/12/27 14:47:17","新北市中和區宜安路142號","121.509631666667","24.9984816666667"
"235016","805-TS","2016/12/27 14:47:19","新北市中和區華新街143巷57弄1號","121.506345","24.9799116666667"
"235012","896-TW","2016/12/27 14:47:14","新北市中和區景新街483號","121.513626666667","24.9875033333333"
"235017","900-TW","2016/12/27 14:47:08","新北市中和區民德路197號","121.46887","24.9985366666667"
"235001","AAC-213","2016/12/27 14:47:22","新北市中和區自立路19號","121.522483333333","24.9960716666667"
"235023","AAC-215","2016/12/27 14:47:12","新北市中和區圓通路305巷5弄17號","121.494036666667","24.9903133333333"
"220016","013-TV","2016/12/27 14:47:22","新北市板橋區光復街101號","121.48406","25.0190533333333"
"220013","072-UY","2016/12/27 14:47:15","新北市板橋區國泰街39巷7弄1號","121.468695","25.0057133333333"
"220034","073-UY","2016/12/27 14:47:19","新北市板橋區林園街2號","121.45426","25.0092466666667"
"220105","075-UY","2016/12/27 14:47:25","新北市板橋區民治街44巷16號","121.47861","25.0330133333333"
"247003","341-TH","2016/12/27 14:47:16","新北市蘆洲區長安街267巷30號","121.457213333333","25.0831533333333"
"247005","339-TH","2016/12/27 14:47:02","新北市五股區中興路二段182巷3號","121.45655","25.07806"
"247024","336-TH","2016/12/27 14:47:15","新北市五股區中興路二段182巷3號","121.455648333333","25.078115"
"247001","056-VK","2016/12/27 14:47:10","新北市蘆洲區永康街2巷10號","121.459303333333","25.0862"
"223006","022-BY","2016/12/27 09:06:38","新北市石碇區小粗坑(潭邊里)9-2號","121.678595","24.9857633333333"
"228004","212-TW","2016/12/27 14:47:14","新北市貢寮區福隆里裕隆街2號","121.946536666667","25.0155316666667"
"228005","663-BX","2016/12/27 14:47:11","新北市貢寮區美豐里丹裡街50號","121.904711666667","25.061395"
"208004","642-TV","2016/12/27 14:47:17","新北市金山區半嶺41號","121.600966666667","25.2395416666667"
"207002","749-BX","2016/12/27 14:47:19","新北市萬里區崁腳里崁腳路106-4號","121.64605","25.1587333333333"
"207001","291-VK","2016/12/27 14:47:12","新北市萬里區雙興里二坪路11號","121.646388333333","25.1751533333333"
"236065","105-UM","2016/12/27 14:47:09","新北市土城區永豐路169-2號","121.467761666667","24.980355"
"236041","107-UM","2016/12/27 14:47:21","新北市土城區裕民路92巷10號","121.450051666667","24.9867416666667"
"236075","166-UM","2016/12/27 14:47:21","新北市土城區頂埔街7號","121.41674","24.95838"
"236029","253-BX","2016/12/27 14:47:20","新北市土城區忠義路26巷10號","121.439838333333","24.9699433333333"
"236025","269-VK","2016/12/27 14:47:16","新北市土城區興城路96巷2號","121.44049","24.9716616666667"
"236013","270-VK","2016/12/27 14:47:20","新北市土城區清水路235巷1弄2號","121.461063333333","24.983045"
"236034","271-VK","2016/12/27 14:47:14","新北市土城區明德路一段235巷28號","121.463296666667","24.977535"
"236017","401-BY","2016/12/27 14:47:12","新北市土城區延吉街253巷31號","121.468035","24.983635"
"236057","912-UM","2016/12/27 14:47:05","新北市土城區中央路三段171號","121.431761666667","24.9654066666667"
"236045","913-UM","2016/12/27 14:47:10","新北市土城區廣福街68巷26-3號","121.458981666667","24.9904983333333"
"236061","915-UM","2016/12/27 14:47:20","新北市土城區金城路三段207巷6弄13號","121.470716666667","24.9903166666667"
"236054","AAC-216","2016/12/27 14:47:10","新北市土城區裕民路190號","121.453045","24.98504"
"221032","280-BY","2016/12/27 14:47:18","新北市汐止區新台五路一段73-1號","121.644515","25.0597516666667"
"220027","145-BY","2016/12/27 14:47:22","新北市板橋區南雅西路二段175巷7號","121.451591666667","25.0122233333333"
"220037","145-RM","2016/12/27 14:47:22","新北市板橋區仁化街103號","121.4766","25.0322666666667"
"220028","200-UY","2016/12/27 14:47:18","新北市板橋區大觀路二段59巷22號","121.44738","25.0024183333333"
"220050","245-BX","2016/12/27 14:47:16","新北市板橋區莒光路213號","121.474163333333","25.022825"
"220017","258-TC","2016/12/27 14:47:19","新北市板橋區貴興路106巷16弄2號","121.454725","25.0035666666667"
"220004","276-BY","2016/12/27 14:47:23","新北市板橋區四川路二段96號","121.45168","24.99451"
"220020","277-BY","2016/12/27 14:47:25","新北市板橋區金門街151巷15號","121.433618333333","24.99035"
"220019","283-VK","2016/12/27 14:47:21","新北市板橋區信義路279巷23號","121.464961666667","24.9903966666667"
"220043","285-UM","2016/12/27 14:47:13","新北市板橋區溪頭街82-3號","121.459133333333","25.030015"
"220001","285-VK","2016/12/27 14:47:09","新北市板橋區中山路二段60巷1弄1號","121.474381666667","25.0153866666667"
"220031","286-VK","2016/12/27 14:47:19","新北市板橋區僑中二街12巷2號","121.446843333333","25.0106933333333"
"220029","287-VK","2016/12/27 14:47:13","新北市板橋區僑中一街80巷6弄1號","121.447716666667","25.0121533333333"
"220039","288-VK","2016/12/27 14:47:12","新北市板橋區龍泉街82巷2號","121.456151666667","25.0255233333333"
"220009","293-UM","2016/12/27 14:47:19","新北市板橋區觀光街5號","121.471628333333","25.0157033333333"
"220032","296-UM","2016/12/27 14:47:21","新北市板橋區溪崑二街92巷20弄1號","121.426086666667","24.9897316666667"
"220023","297-UM","2016/12/27 14:47:05","新北市板橋區大勇街7號","121.45553","25.017585"
"220010","305-R5","2016/12/27 14:47:20","新北市板橋區三民路二段29巷31弄7-3號","121.481595","25.0177716666667"
"220041","307-R5","2016/12/27 14:47:24","新北市板橋區四維路259巷17號","121.462506666667","25.0277433333333"
"220047","317-R6","2016/12/27 14:47:17","新北市板橋區裕民街126號","121.45905","25.0274133333333"
"220012","486-VK","2016/12/27 14:47:16","新北市板橋區實踐路85號","121.463968333333","25.0056416666667"
"220038","487-VK","2016/12/27 14:47:22","新北市板橋區新海路403巷18號","121.457761666667","25.0264116666667"
"220036","491-VK","2016/12/27 14:47:24","新北市板橋區文化路一段245號","121.46429","25.01792"
"220104","560-BX","2016/12/27 14:47:07","新北市板橋區金華街25號","121.45591","25.0205383333333"
"220052","561-BX","2016/12/27 14:47:11","新北市板橋區陽明街48號","121.465475","25.0221416666667"
"220011","609-BX","2016/12/27 14:47:17","新北市板橋區中山路二段469號","121.482045","25.020535"
"220040","637-BX","2016/12/27 14:47:15","新北市板橋區民治街97號","121.478983333333","25.0316166666667"
"220005","686-BX","2016/12/27 14:47:15","新北市板橋區廣權路33號","121.462655","24.9917166666667"
"220025","687-BX","2016/12/27 14:47:18","新北市板橋區僑中一街124巷70-5號","121.448518333333","25.01662"
"220042","689-BX","2016/12/27 14:47:08","新北市板橋區長江路二段333號","121.471638333333","25.033545"
"220002","741-BX","2016/12/27 14:47:14","新北市板橋區實踐路93巷33號","121.465445","25.0052733333333"
"220030","806-UM","2016/12/27 14:47:21","新北市板橋區金門街182-3號","121.432668333333","24.990915"
"220003","827-TW","2016/12/27 14:47:25","新北市板橋區國慶路149巷24號","121.461136666667","24.997545"
"220014","829-TW","2016/12/27 14:47:20","新北市板橋區漢生東路181號","121.46976","25.0116716666667"
"220051","830-TW","2016/12/27 14:47:16","新北市板橋區文聖街58號","121.47672","25.0310566666667"
"220045","831-TW","2016/12/27 14:47:22","新北市板橋區文化路二段124巷34弄24號","121.470511666667","25.0256383333333"
"220022","895-R6","2016/12/27 14:47:20","新北市板橋區明德街2-3號","121.459748333333","25.00984"
"220046","AAC-210","2016/12/27 14:47:20","新北市板橋區文化路一段285巷1弄8號","121.46406","25.01885"
"220018","AAC-253","2016/12/27 14:47:09","新北市板橋區民族路223號","121.469533333333","25.0072166666667"
