"lineid","car","time","location","longitude","latitude"
"234046","148-BY","2016/12/27 19:38:09","新北市永和區秀朗路二段89號","121.5232","25.001675"
"234013","149-BY","2016/12/27 19:38:23","新北市永和區永平路258號","121.508253333333","25.0114516666667"
"234007","207-UY","2016/12/27 19:38:05","新北市中和區中和路402-3號","121.511385","25.0028483333333"
"234081","298-R6","2016/12/27 18:22:10","新北市永和區福和路7巷15弄18號","121.525953333333","25.007305"
"234038","336-UY","2016/12/27 19:38:20","新北市永和區民樂街39巷18弄22號","121.528513333333","24.999395"
"234064","337-UY","2016/12/27 19:38:18","新北市永和區秀朗路二段24巷37號","121.520026666667","25.00194"
"234086","338-UY","2016/12/27 19:38:15","新北市永和區成功路一段48巷12號","121.526298333333","25.0042516666667"
"234070","552-UM","2016/12/27 19:38:21","新北市永和區中興街68巷1號","121.517623333333","25.0117033333333"
"234054","553-UM","2016/12/27 19:38:22","新北市永和區竹林路54號","121.517893333333","25.0141166666667"
"234017","745-BX","2016/12/27 19:38:13","新北市永和區永和路二段425巷33-1號","121.514381666667","25.017665"
"234030","746-BX","2016/12/27 19:38:20","新北市永和區民生路67巷8號","121.523108333333","24.9971933333333"
"234061","839-RS","2016/12/27 19:38:14","新北市永和區中正路397號","121.51724","25.004155"
"234074","847-RS","2016/12/27 19:38:10","新北市永和區福和路76巷3號","121.522925","25.008415"
"234042","862-TW","2016/12/27 19:38:12","新北市永和區水源街30巷2號","121.511475","25.0046633333333"
"234050","863-TW","2016/12/27 19:38:26","新北市永和區保安路35號","121.509795","25.0161533333333"
"234026","9371-KE","2016/12/27 19:38:22","新北市永和區中和路465號","121.51007","25.0015933333333"
"249004","303-UY","2016/12/27 19:38:19","新北市八里區忠孝路462號","121.414816666667","25.1612916666667"
"249002","305-UY","2016/12/27 19:38:18","新北市八里區頂寮二街35號","121.450245","25.12514"
"249003","593-UM","2016/12/27 19:38:23","新北市八里區華峰三街27號","121.399658333333","25.1458216666667"
"248016","026-BX","2016/12/27 19:38:18","新北市五股區成泰路三段583號","121.452416666667","25.1027016666667"
"248020","225-UY","2016/12/27 19:38:12","新北市五股區中直路19-1號","121.423635","25.11215"
"248014","261-SL","2016/12/27 19:38:11","新北市五股區民義路一段157號","121.432663333333","25.0876366666667"
"248010","272-BY","2016/12/27 19:38:17","新北市五股區水碓一路1號","121.432933333333","25.0727316666667"
"248012","655-BX","2016/12/27 19:38:17","新北市五股區工商路84-1號","121.438033333333","25.0850866666667"
"248004","677-BX","2016/12/27 19:38:11","新北市五股區成泰路二段186號","121.438745","25.0846516666667"
"248002","678-BX","2016/12/27 19:38:11","新北市五股區成泰路三段577巷77號","121.449766666667","25.1036916666667"
"234077","969-R7","2016/12/27 19:38:10","新北市永和區民權路29巷19號","121.521063333333","24.9980933333333"
"234067","AAC-212","2016/12/27 19:38:22","新北市永和區保平路196號","121.510273333333","25.006365"
"234003","AAC-295","2016/12/27 19:38:24","新北市永和區自由街5號","121.514951666667","25.0070433333333"
"244007","080-UY","2016/12/27 19:38:20","新北市林口區粉寮路一段78號","121.397153333333","25.0791883333333"
"243011","297-R6","2016/12/27 19:38:17","新北市泰山區明志路三段196巷21弄7號","121.423068333333","25.0383233333333"
"243014","380-SR","2016/12/27 19:38:26","新北市泰山區仁愛路6巷77號","121.431738333333","25.05328"
"243016","421-VK","2016/12/27 19:38:09","新北市泰山區新北大道七段103號","121.417678333333","25.0320633333333"
"243012","539-UM","2016/12/27 19:38:11","新北市泰山區全興路287號","121.436913333333","25.051375"
"243009","548-UM","2016/12/27 19:38:26","新北市泰山區美寧街60號","121.430936666667","25.0646566666667"
"243010","549-UM","2016/12/27 19:38:20","新北市泰山區民生路33號","121.430818333333","25.0521733333333"
"243013","646-TV","2016/12/27 19:38:16","新北市泰山區應化街13號","121.423855","25.0436533333333"
"243015","680-BX","2016/12/27 19:38:14","新北市泰山區民權街66巷2號","121.428716666667","25.05008"
"222003","436-BY","2016/12/27 19:38:16","新北市深坑區深南路51-1號","121.62113","25.0100366666667"
"222001","628-TS","2016/12/27 19:38:08","新北市深坑區北深路二段153號","121.614261666667","25.0022866666667"
"222002","659-BX","2016/12/27 19:38:25","新北市深坑區北深路一段177號","121.63252","25.01092"
"231060","001-UM","2016/12/27 19:38:07","新北市新店區安康路二段146號","121.512443333333","24.96149"
"231045","002-UM","2016/12/27 19:38:19","新北市新店區北宜路二段263號","121.55463","24.9535916666667"
"231043","046-UY","2016/12/27 19:38:27","新北市新店區北新路二段131號","121.542875","24.9754233333333"
"231040","106-UY","2016/12/27 19:38:14","新北市新店區北新路一段90號","121.541991666667","24.9686833333333"
"231064","107-UY","2016/12/27 19:38:11","新北市新店區安康路二段85號","121.513483333333","24.9629116666667"
"231054","108-UY","2016/12/27 19:38:11","新北市新店區文中路45號","121.539605","24.956595"
"231046","110-UY","2016/12/27 19:38:14","新北市新店區中正路203號","121.540265","24.97258"
"231049","187-VK","2016/12/27 19:38:26","新北市新店區大豐路9號","121.54149","24.980335"
"231069","189-VK","2016/12/27 12:18:36","新北市新店區安華路28-1號","121.519553333333","24.9610466666667"
"231065","192-VK","2016/12/27 19:38:22","新北市新店區安祥路109巷1弄11號","121.475945","24.9596366666667"
"231048","256-BX","2016/12/27 19:38:19","新北市新店區五峰路61巷2-3號","121.547621666667","24.9698566666667"
"231042","268-BY","2016/12/27 19:38:12","新北市新店區中興路一段216號","121.543893333333","24.9657966666667"
"231058","3713-VJ","2016/12/27 19:38:19","新北市新店區寶橋路23號","121.54394","24.97407"
"231066","4715-K9","2016/12/27 19:38:23","新北市新店區安康路三段165巷2弄2號","121.48956","24.9514016666667"
"231051","513-UM","2016/12/27 19:38:21","新北市新店區中央五街78號","121.526715","24.97608"
"231057","515-UM","2016/12/27 19:38:16","新北市新店區橘園一路4-2號","121.548376666667","24.934155"
"231059","617-UM","2016/12/27 19:38:14","新北市新店區安和路二段175號","121.518446666667","24.97457"
"231041","618-UM","2016/12/27 19:36:48","新北市新店區中央路99號","121.531091666667","24.9750183333333"
"231044","619-UM","2016/12/27 19:38:21","新北市新店區民族路1號","121.542348333333","24.9789633333333"
"231063","641-BX","2016/12/27 19:38:00","新北市新店區達觀路40號","121.50315","24.9391866666667"
"231050","718-UY","2016/12/27 19:38:23","新北市新店區郵政路70號","121.55544","24.9518033333333"
"231053","719-UM","2016/12/27 19:38:13","新北市新店區新烏路二段470號","121.552696666667","24.9083133333333"
"231062","719-UY","2016/12/27 19:38:22","新北市新店區太平路9號","121.534123333333","24.9579033333333"
"231061","897-TW","2016/12/27 19:38:09","新北市新店區碧安街7巷14號","121.516526666667","24.9681216666667"
"241011","013-R5","2016/12/27 19:38:21","新北市三重區秀江街132號","121.49883","25.0718683333333"
"241028","022-UY","2016/12/27 19:38:19","新北市三重區中正南路157號","121.493846666667","25.056115"
"241008","059-VK","2016/12/27 19:38:09","新北市三重區永福街135巷8號","121.478398333333","25.0768083333333"
"241009","060-VK","2016/12/27 19:38:25","新北市三重區永安北路一段105-1號","121.480075","25.0793766666667"
"241031","061-VK","2016/12/27 19:38:07","新北市三重區重新路四段250-1號","121.486036666667","25.0534933333333"
"241015","062-VK","2016/12/27 19:38:24","新北市三重區福德北路12號","121.502333333333","25.0644383333333"
"241017","063-VK","2016/12/27 19:38:22","新北市三重區大仁街5號","121.491646666667","25.0638933333333"
"241032","156-TC","2016/12/27 19:38:19","新北市三重區重陽路一段60巷73號","121.484286666667","25.05824"
"241035","265-UM","2016/12/27 19:38:26","新北市三重區正義北路110號","121.49701","25.065285"
"241016","266-UM","2016/12/27 19:38:27","新北市三重區正義北路28巷23號","121.496668333333","25.06315"
"241022","267-UM","2016/12/27 19:38:23","新北市三重區三民街157巷2號","121.48357","25.0647366666667"
"241013","270-UM","2016/12/27 19:38:20","新北市三重區仁福街64巷37號","121.497535","25.0757533333333"
"241025","271-UM","2016/12/27 19:38:16","新北市三重區頂崁街189號","121.477511666667","25.066415"
"241006","398-BY","2016/12/27 19:38:14","新北市三重區聯華街140號","121.4845","25.0749116666667"
"241020","413-TH","2016/12/27 19:38:25","新北市三重區三和路四段20巷99號","121.48818","25.07319"
"241019","478-VK","2016/12/27 19:38:25","新北市三重區力行路一段89巷6號","121.486688333333","25.06861"
"241030","480-VK","2016/12/27 19:38:10","新北市三重區環河南路221巷13號","121.491631666667","25.052475"
"241014","543-UM","2016/12/27 19:38:16","新北市三重區河邊北街84號","121.50419","25.0692966666667"
"241023","545-UM","2016/12/27 19:38:11","新北市三重區忠孝路三段93巷6-1號","121.479435","25.0647633333333"
"241001","547-UM","2016/12/27 19:38:08","新北市三重區仁愛街317號","121.492518333333","25.079255"
"241026","597-RM","2016/12/27 19:38:23","新北市三重區文化南路67號","121.500321666667","25.060755"
"241012","941-UM","2016/12/27 17:41:10","新北市三重區龍濱路190號","121.501206666667","25.0731633333333"
"241029","942-UM","2016/12/27 19:38:15","新北市三重區重安街104號","121.493158333333","25.055955"
"235066","003-UY","2016/12/27 19:38:23","新北市中和區景新街137號","121.505913333333","24.996995"
"235064","005-UY","2016/12/27 19:38:09","新北市中和區中和路35號","121.500076666667","25.00159"
"235063","006-UY","2016/12/27 19:38:08","新北市中和區連勝街121巷18弄7號","121.494956666667","24.99439"
"235056","096-UM","2016/12/27 19:38:12","新北市中和區民富街33號","121.476468333333","25.0078383333333"
"235039","097-UM","2016/12/27 19:38:24","新北市中和區秀峰街103巷2弄4號","121.51998","24.990565"
"235065","098-UM","2016/12/27 19:38:19","新北市中和區中山路二段2巷13弄22號","121.502745","25.0065216666667"
"235040","150-BY","2016/12/27 19:38:06","新北市中和區宜安路78號","121.51116","24.99737"
"235058","151-BY","2016/12/27 19:38:24","新北市中和區中正路637巷60弄61號","121.485375","24.992845"
"235055","183-VK","2016/12/27 19:38:10","新北市中和區莒光路120巷19弄1-4號","121.47172","25.0007566666667"
"235038","185-VK","2016/12/27 19:38:21","新北市中和區大仁街20巷50號","121.520146666667","24.9933366666667"
"235049","186-VK","2016/12/27 19:38:13","新北市中和區景新街295巷7號","121.510316666667","24.99331"
"235067","255-BX","2016/12/27 19:38:11","新北市中和區連城路340巷10弄23號","121.483273333333","24.9965783333333"
"235072","301-VK","2016/12/27 19:38:27","新北市中和區連城路265巷8弄2號","121.491491666667","24.9956533333333"
"235043","352-BY","2016/12/27 19:38:05","新北市中和區南華路20號","121.502911666667","24.9957833333333"
"235051","376-QA","2016/12/27 19:38:18","新北市中和區景平路225號","121.510325","24.9927783333333"
"235068","377-QA","2016/12/27 19:38:23","新北市中和區景平路493巷2弄12號","121.499106666667","24.99711"
"235061","378-QA","2016/12/27 19:38:12","新北市中和區民利街9巷2弄10號","121.480376666667","24.9986116666667"
"235050","4979-A6","2016/12/27 19:38:11","新北市中和區中正路637巷52弄1號","121.485556666667","24.993665"
"235042","551-UM","2016/12/27 19:38:24","新北市中和區安樂路143巷2弄5號","121.514025","24.9977516666667"
"235070","558-UM","2016/12/27 19:38:24","新北市中和區中山路二段243號","121.497953333333","25.00237"
"235045","565-BX","2016/12/27 19:38:11","新北市中和區景新街423巷33弄1號","121.513883333333","24.9897733333333"
"235054","640-BX","2016/12/27 19:38:20","新北市中和區國光街112巷17號","121.469685","25.0021333333333"
"235047","732-UM","2016/12/27 19:38:18","新北市中和區景平路235號","121.51012","24.9927583333333"
"235046","733-UM","2016/12/27 19:38:10","新北市中和區忠孝街37巷52號","121.511123333333","24.9849266666667"
"235062","800-TS","2016/12/27 19:36:59","新北市五股區中直路13-6號","121.42438","25.110645"
"235057","801-TS","2016/12/27 19:38:07","新北市中和區員山路425號","121.480878333333","25.0034583333333"
"235041","802-TS","2016/12/27 19:38:07","新北市中和區中和路258號","121.507708333333","24.9995383333333"
"235052","805-TS","2016/12/27 19:38:24","新北市中和區華新街137號","121.506553333333","24.9818033333333"
"235048","896-TW","2016/12/27 19:38:09","新北市中和區四維街24巷1號","121.512701666667","24.987575"
"235053","900-TW","2016/12/27 19:38:21","新北市中和區華安街21巷2號","121.46746","24.9974516666667"
"235060","911-UM","2016/12/27 19:38:09","新北市中和區新生街114巷37弄12號","121.482408333333","25.0017966666667"
"235037","AAC-213","2016/12/27 19:38:09","新北市中和區秀朗路三段50巷6弄1號","121.525315","24.995255"
"235059","AAC-215","2016/12/27 19:38:20","新北市中和區圓通路321-5號","121.492596666667","24.990745"
"220068","013-TV","2016/12/27 19:38:11","新北市板橋區中山路二段531巷40號","121.482631666667","25.0224966666667"
"220065","072-UY","2016/12/27 19:38:10","新北市板橋區國泰街38巷4弄6號","121.468095","25.0066716666667"
"220086","073-UY","2016/12/27 19:38:19","新北市板橋區國光路31號","121.457041666667","25.017545"
"220106","075-UY","2016/12/27 19:38:12","新北市板橋區文化路二段548巷21號","121.476675","25.0339283333333"
"247018","893-R6","2016/12/27 19:38:23","新北市蘆洲區民權路144號","121.472863333333","25.0891216666667"
"247008","546-UM","2016/12/27 19:38:17","新北市蘆洲區中山一路166號","121.474568333333","25.0813933333333"
"247016","500-BY","2016/12/27 19:38:10","新北市蘆洲區中正路294號","121.46569","25.0907366666667"
"247004","341-TH","2016/12/27 19:38:19","新北市蘆洲區長安街109號","121.461466666667","25.0810616666667"
"247006","339-TH","2016/12/27 19:38:06","新北市蘆洲區中山二路300巷1號","121.468483333333","25.0766916666667"
"247024","336-TH","2016/12/27 19:38:18","新北市五股區凌雲路一段21號","121.452503333333","25.1005216666667"
"247012","057-VK","2016/12/27 19:38:25","新北市五股區中興路三段5號","121.449778333333","25.0805466666667"
"247002","056-VK","2016/12/27 19:38:24","新北市蘆洲區三民路589號","121.46132","25.093115"
"247010","007-UY","2016/12/27 19:38:15","新北市五股區新五路二段372巷20號","121.448231666667","25.084705"
"247020","002-UY","2016/12/27 19:38:04","新北市蘆洲區中正路520巷18號","121.465255","25.09946"
"247014","001-UY","2016/12/27 19:38:16","新北市蘆洲區中正路102號","121.469683333333","25.0845066666667"
"226004","205-ST","2016/12/27 19:38:20","新北市平溪區靜安路三段86號","121.770078333333","25.0347916666667"
"223006","022-BY","2016/12/27 09:06:38","新北市石碇區小粗坑(潭邊里)9-2號","121.678595","24.9857633333333"
"228003","097-TW","2016/12/27 19:38:15","新北市貢寮區真理里美艷山街19-1號","121.923423333333","25.068545"
"228002","212-TW","2016/12/27 19:38:19","新北市貢寮區龍門里龍門街64號","121.931456666667","25.027015"
"228001","663-BX","2016/12/27 19:38:22","新北市貢寮區真理里延平街67巷1號","121.924338333333","25.0556516666667"
"224010","AGQ-8101","2016/12/27 19:37:54","新北市瑞芳區基山街204號","121.84222","25.106875"
"224002","639-TC","2016/12/27 19:38:23","新北市瑞芳區三爪子坑路13巷155號","121.815095","25.106275"
"227003","642-TC","2016/12/27 19:38:08","新北市雙溪區雙溪里太平路66號","121.865328333333","25.0359816666667"
"227009","030-BX","2016/12/27 19:38:23","新北市雙溪區新基里新基北街22號","121.86723","25.03891"
"208003","665-BX","2016/12/27 19:38:22","新北市金山區仁愛路1巷1號","121.638598333333","25.2200266666667"
"251009","008-UM","2016/12/27 19:09:52","新北市淡水區中正路51號","121.441873333333","25.1695716666667"
"251004","009-UM","2016/12/27 19:37:23","新北市淡水區民權路187巷34號","121.46048","25.1333816666667"
"251001","011-UM","2016/12/27 19:38:16","新北市淡水區淡金路150號","121.459235","25.1659316666667"
"251008","181-VK","2016/12/27 19:38:22","新北市淡水區中正路一段8巷1弄3號","121.428083333333","25.1770833333333"
"251014","182-VK","2016/12/27 19:38:06","新北市淡水區桂竹圍4-2號","121.474518333333","25.2317783333333"
"251010","413-VK","2016/12/27 19:38:23","新北市淡水區新市二路二段200號","121.429941666667","25.194725"
"251012","441-VK","2016/12/27 19:38:25","新北市淡水區淡金路二段599號","121.445815","25.19219"
"251016","442-VK","2016/12/27 19:38:15","新北市淡水區下圭柔山119-51號","121.45079","25.20843"
"251005","443-VK","2016/12/27 19:38:15","新北市淡水區原德路62號","121.442635","25.1727833333333"
"251006","561-UM","2016/12/27 19:38:19","新北市淡水區中山北路一段168號","121.4443","25.1787633333333"
"251007","577-R6","2016/12/27 19:38:13","新北市淡水區中正東路一段3巷31號","121.451881666667","25.1656216666667"
"251011","650-BX","2016/12/27 19:38:11","新北市淡水區八勢路20號","121.460788333333","25.153465"
"207003","550-UM","2016/12/27 19:38:10","新北市萬里區大鵬里下社49號","121.6487","25.2160666666667"
"207004","225-TW","2016/12/27 19:38:22","新北市萬里區萬里里瑪鋉路5號","121.68677","25.1751833333333"
"252002","178-VK","2016/12/27 19:38:17","新北市三芝區利民街35號","121.503655","25.2594666666667"
"252001","702-TV","2016/12/27 19:38:20","新北市三芝區公正街66號","121.499783333333","25.2574833333333"
"208002","170-UY","2016/12/27 19:38:21","新北市金山區四維路11號","121.63538","25.222595"
"237004","078-UY","2016/12/27 19:38:23","新北市三峽區插角1-1號","121.39726","24.8737583333333"
"237007","153-BY","2016/12/27 19:38:06","新北市三峽區二鬮路182號","121.3589","24.9068166666667"
"237009","210-TH","2016/12/27 19:38:16","新北市三峽區中園街62-2號","121.368095","24.9258066666667"
"237013","252-BX","2016/12/27 19:36:01","新北市三峽區介壽路一段354號","121.381791666667","24.9303816666667"
"237012","275-BY","2016/12/27 19:38:10","新北市三峽區中華路8號","121.375378333333","24.9332633333333"
"237008","302-VK","2016/12/27 19:38:21","新北市三峽區大同路132巷12號","121.373818333333","24.9273266666667"
"237014","433-BY","2016/12/27 19:38:13","新北市三峽區嘉添74-6號","121.368673333333","24.9100433333333"
"237006","5529-G3","2016/12/27 19:38:10","新北市三峽區中正路一段336巷15弄2號","121.369948333333","24.92495"
"237016","649-BX","2016/12/27 19:38:07","新北市三峽區成福路101號","121.419135","24.9297716666667"
"237010","706-TV","2016/12/27 19:38:09","新北市鶯歌區文化路57號","121.358856666667","24.9565516666667"
"237005","AKY-6261","2016/12/27 19:38:17","新北市三峽區中山路231巷1弄6號","121.36316","24.93671"
"236070","105-UM","2016/12/27 19:38:23","新北市土城區裕民路185巷36弄8號","121.45444","24.9845766666667"
"236043","107-UM","2016/12/27 19:38:07","新北市土城區裕民路214巷1號","121.453226666667","24.9842366666667"
"236079","166-UM","2016/12/27 19:38:28","新北市土城區中州路27巷59號","121.41293","24.9568916666667"
"236031","253-BX","2016/12/27 19:38:16","新北市土城區中央路二段80巷4弄1號","121.442005","24.9790433333333"
"236027","269-VK","2016/12/27 19:38:16","新北市土城區中央路二段61巷20號","121.443065","24.9787916666667"
"236038","271-VK","2016/12/27 19:38:08","新北市土城區清水路98巷3弄1號","121.457578333333","24.981335"
"236023","401-BY","2016/12/27 19:38:26","新北市土城區峰廷街22號","121.469151666667","24.98698"
"236049","913-UM","2016/12/27 19:38:26","新北市土城區明德路一段3號","121.464913333333","24.9857083333333"
"236055","AAC-216","2016/12/27 19:38:11","新北市土城區學成路2號","121.453746666667","24.9863516666667"
"242023","615-BX","2016/12/27 19:38:24","新北市新莊區化成路106號","121.465251666667","25.044495"
"242025","612-BX","2016/12/27 19:38:24","新北市新莊區中華路三段212號","121.451945","25.0588416666667"
"242039","497-BY","2016/12/27 19:38:14","新北市新莊區瓊林路206-6號","121.435428333333","25.0221733333333"
"242044","441-UM","2016/12/27 19:38:09","新北市新莊區中正路400號","121.441916666667","25.0341966666667"
"242048","440-UM","2016/12/27 19:38:17","新北市新莊區民安路106號","121.42423","25.0256566666667"
"242037","400-BY","2016/12/27 19:38:26","新北市新莊區民安路207巷27號","121.427245","25.02354"
"242009","132-UY","2016/12/27 19:38:06","新北市新莊區三和路12-21號","121.441918333333","25.0387966666667"
"242032","133-UY","2016/12/27 19:38:18","新北市新莊區新泰路213巷31號","121.444861666667","25.0384033333333"
"242005","173-VK","2016/12/27 19:38:28","新北市新莊區化成路11巷23號","121.464023333333","25.0434116666667"
"242034","347-TH","2016/12/27 19:38:13","新北市新莊區仁愛街4號","121.444273333333","25.034795"
"242013","350-TH","2016/12/27 19:38:24","新北市新莊區中泰街107號","121.448668333333","25.0465733333333"
"242007","351-TH","2016/12/27 19:38:19","新北市新莊區思源路593巷29號","121.457641666667","25.0596133333333"
"238015","755-BX","2016/12/27 19:38:23","新北市樹林區日新街115號","121.421335","24.9897033333333"
"238023","601-UM","2016/12/27 19:38:13","新北市樹林區三福街25號","121.408598333333","25.016695"
"238019","599-UM","2016/12/27 19:38:21","新北市樹林區中山路三段210-2號","121.380755","24.9668333333333"
"238024","5061-A6","2016/12/27 19:38:20","新北市樹林區中山路三段155巷2號","121.395601666667","24.972555"
"238022","312-TH","2016/12/27 19:38:27","新北市樹林區名園街78巷16弄8號","121.419718333333","24.977525"
"238021","308-TH","2016/12/27 19:38:14","新北市樹林區學府路382號","121.381625","24.95092"
"238025","303-VK","2016/12/27 19:38:13","新北市樹林區中山路一段115-1號","121.42284","24.9904166666667"
"238017","283-BY","2016/12/27 19:38:12","新北市樹林區光興街18號","121.41231","25.0029033333333"
"238014","282-BY","2016/12/27 19:38:19","新北市樹林區保安二街64巷3號","121.424496666667","24.9961266666667"
"238020","268-VK","2016/12/27 19:38:15","新北市樹林區俊英街133巷23號","121.423143333333","25.01074"
"238026","172-UY","2016/12/27 19:38:22","新北市樹林區佳園路二段91號","121.390643333333","24.95942"
"238016","169-UY","2016/12/27 19:38:15","新北市樹林區東興街3號","121.409545","24.9804216666667"
"239007","AAC-297","2016/12/27 19:38:24","新北市鶯歌區東湖路19-1號","121.357851666667","24.973535"
"239006","891-R6","2016/12/27 19:38:25","新北市鶯歌區文化路115巷23號","121.357753333333","24.9550383333333"
"221008","129-UY","2016/12/27 19:38:04","新北市汐止區康寧街145號","121.622095","25.0666466666667"
"221036","130-UY","2016/12/27 19:38:21","新北市汐止區汐萬路一段256巷1號","121.651825","25.0748483333333"
"221015","131-UY","2016/12/27 19:38:15","新北市汐止區康寧街901號","121.651656666667","25.0748883333333"
"221010","269-BY","2016/12/27 19:38:11","新北市汐止區汐萬路一段312號","121.650503333333","25.0753733333333"
"221012","278-VK","2016/12/27 19:38:16","新北市汐止區汐平路一段5號","121.680788333333","25.0712333333333"
"221023","279-VK","2016/12/27 19:38:10","新北市汐止區中興路201號","121.62923","25.06843"
"221027","281-BY","2016/12/27 19:38:12","新北市汐止區忠孝東路9號","121.65829","25.0659766666667"
"221038","297-VK","2016/12/27 19:38:09","新北市汐止區大同路二段370號","121.657746666667","25.0671966666667"
"221029","298-VK","2016/12/27 19:38:21","新北市汐止區康寧街901號","121.651478333333","25.0749983333333"
"221021","299-VK","2016/12/27 19:38:07","新北市汐止區汐萬路一段169巷55號","121.653035","25.0698216666667"
"221031","353-TW","2016/12/27 19:38:19","新北市汐止區福德三路127號","121.633555","25.0675566666667"
"221025","623-UM","2016/12/27 19:38:23","新北市汐止區福安街19號","121.662615","25.0650533333333"
"221033","647-BX","2016/12/27 19:38:06","新北市汐止區南勢街1巷1號","121.627016666667","25.0374616666667"
"221002","707-TV","2016/12/27 19:38:22","新北市汐止區大同路一段239號","121.635056666667","25.0579166666667"
"221018","753-BX","2016/12/27 19:35:00","新北市汐止區茄苳路12號","121.664818333333","25.0706883333333"
"220079","145-BY","2016/12/27 19:38:23","新北市板橋區建國街52號","121.458771666667","25.0170233333333"
"220088","145-RM","2016/12/27 19:38:16","新北市板橋區仁化街164號","121.478185","25.033675"
"220080","200-UY","2016/12/27 19:38:02","新北市板橋區大觀路二段37巷172號","121.449406666667","25.0018333333333"
"220101","245-BX","2016/12/27 19:38:13","新北市板橋區縣民大道三段95號","121.475818333333","25.02204"
"220069","258-TC","2016/12/27 19:38:13","新北市板橋區稚暉街35號","121.45709","25.0040633333333"
"220056","276-BY","2016/12/27 19:38:10","新北市板橋區四川路二段47巷4弄1號","121.45417","24.9946416666667"
"220072","277-BY","2016/12/27 19:38:19","新北市板橋區金門街215巷2弄21號","121.43314","24.988705"
"220071","283-VK","2016/12/27 19:38:21","新北市板橋區仁愛路73巷12號","121.461035","25.0003966666667"
"220094","285-UM","2016/12/27 19:38:19","新北市板橋區吳鳳路50巷42弄2號","121.47035","25.0303333333333"
"220053","285-VK","2016/12/27 19:38:07","新北市板橋區中山路二段275號","121.477758333333","25.0178466666667"
"220083","286-VK","2016/12/27 19:38:18","新北市板橋區龍興街71巷39號","121.442143333333","25.0024383333333"
"220081","287-VK","2016/12/27 19:38:05","新北市板橋區大觀路一段29巷179弄12號","121.449006666667","25.0048033333333"
"220090","288-VK","2016/12/27 19:38:19","新北市板橋區裕民街62號","121.461178333333","25.02855"
"220061","293-UM","2016/12/27 19:38:21","新北市板橋區成功路6巷2號","121.475711666667","25.0169466666667"
"220084","296-UM","2016/12/27 19:38:17","新北市板橋區篤行路三段玉平巷76弄14號","121.4275","24.9860133333333"
"220075","297-UM","2016/12/27 19:17:45","新北市板橋區僑中一街124巷74-5號","121.448393333333","25.0179"
"220062","305-R5","2016/12/27 19:38:13","新北市板橋區三民路二段123巷29號","121.480551666667","25.0157333333333"
"220092","307-R5","2016/12/27 19:38:16","新北市板橋區自由路6號","121.465571666667","25.022375"
"220098","317-R6","2016/12/27 19:38:28","新北市板橋區民生路三段299巷10號","121.463025","25.0303183333333"
"220064","486-VK","2016/12/27 19:38:25","新北市板橋區實踐路64號","121.463861666667","25.00586"
"220089","487-VK","2016/12/27 19:38:23","新北市板橋區龍泉街55巷26號","121.45768","25.0251333333333"
"220087","491-VK","2016/12/27 19:38:22","新北市板橋區文化路一段213號","121.463588333333","25.01699"
"220035","560-BX","2016/12/27 19:38:07","新北市板橋區中正路375巷27號","121.453878333333","25.0203033333333"
"220103","561-BX","2016/12/27 19:38:18","新北市板橋區文化路一段286巷2弄5號","121.468451666667","25.0209183333333"
"220063","609-BX","2016/12/27 19:38:24","新北市板橋區三民路一段31巷2-4號","121.481875","25.02313"
"220091","637-BX","2016/12/27 19:38:26","新北市板橋區懷德街139巷20弄10號","121.480215","25.0306316666667"
"220057","686-BX","2016/12/27 19:37:30","新北市板橋區和平路安樂巷16號","121.461365","24.9940583333333"
"220077","687-BX","2016/12/27 19:38:09","新北市板橋區大觀路二段20巷2號","121.445236666667","25.0042766666667"
"220093","689-BX","2016/12/27 19:38:13","新北市板橋區長江路二段157號","121.466171666667","25.0318733333333"
"220054","741-BX","2016/12/27 19:38:13","新北市板橋區四川路一段259號","121.459665","25.0023183333333"
"220082","806-UM","2016/12/27 19:38:17","新北市板橋區大觀路三段162號","121.431396666667","24.993125"
"220055","827-TW","2016/12/27 19:38:20","新北市板橋區國慶路149巷5號","121.46119","24.99691"
"220067","829-TW","2016/12/27 19:38:13","新北市板橋區長安街251巷42號","121.471828333333","25.0114183333333"
"220102","830-TW","2016/12/27 19:38:25","新北市板橋區松柏街50巷25號","121.47591","25.0297266666667"
"220096","831-TW","2016/12/27 19:38:10","新北市板橋區民生路二段234巷26弄9號","121.470468333333","25.02211"
"220074","895-R6","2016/12/27 19:38:23","新北市板橋區文化路一段54號","121.459818333333","25.01222"
"220073","985-R7","2016/12/27 19:38:17","新北市板橋區中正路170號","121.456485","25.0171233333333"
"220097","AAC-210","2016/12/27 19:38:12","新北市板橋區幸福路32巷4弄15號","121.461413333333","25.021585"
"220070","AAC-253","2016/12/27 19:38:21","新北市板橋區四川路一段35號","121.459585","25.0069816666667"
