"lineid","car","time","location","longitude","latitude"
"248005","653-BX","2016/10/27 08:10:03","新北市五股區明德路12巷1號","121.433325","25.0717483333333"
"232007","290-BY","2016/10/27 08:20:00","新北市坪林區北宜路八段477號","121.706725","24.92164"
"232001","291-BY","2016/10/27 08:19:58","新北市坪林區九芎坑15號","121.738038333333","24.9492566666667"
"232005","375-UM","2016/10/27 08:19:26","新北市坪林區厚德岡坑8-5號","121.733133333333","24.941145"
"232018","758-BX","2016/10/27 08:19:53","新北市坪林區坪雙路一段43號","121.711735","24.9424266666667"
"244012","069-UM","2016/10/27 08:19:58","新北市林口區中正路525巷5號","121.382811666667","25.077055"
"244006","080-UY","2016/10/27 08:19:49","新北市林口區中湖56號","121.375246666667","25.0922533333333"
"244018","403-UM","2016/10/27 08:19:47","新北市林口區公園路223巷15號","121.373323333333","25.0747733333333"
"244008","410-SL","2016/10/27 08:18:50","新北市林口區中北三街342號","121.38324","25.084325"
"244022","483-VK","2016/10/27 08:19:55","新北市林口區東明一街1巷8號","121.39336","25.072515"
"244016","485-VK","2016/10/27 08:19:45","新北市林口區文化二路一段260巷9-1號","121.371225","25.0730216666667"
"244020","657-BX","2016/10/27 08:19:46","新北市林口區中山路2-2號","121.396811666667","25.0786816666667"
"244010","701-TV","2016/10/27 08:19:42","新北市林口區仁愛路一段378號","121.388683333333","25.0767733333333"
"244024","837-TS","2016/10/27 08:19:57","新北市林口區南勢街19號","121.365085","25.0737766666667"
"222006","289-BY","2016/10/27 08:18:17","新北市深坑區萬福路83號","121.602686666667","25.0102816666667"
"231008","188-VK","2016/10/27 08:19:56","新北市新店區新烏路二段301號","121.549346666667","24.9116266666667"
"231069","189-VK","2016/10/27 08:19:50","新北市新店區安康路一段116號","121.52713","24.96257"
"226005","5620-A6","2016/10/27 07:58:41","新北市平溪區嶺腳里嶺腳寮83-2號","121.75042","25.0350683333333"
"226002","7418-A5","2016/10/27 08:19:41","新北市平溪區嶺腳里田子1-3號","121.750566666667","25.0238683333333"
"226003","AGD-0702","2016/10/27 08:19:47","新北市平溪區新寮里頂寮子40號","121.774105","25.051315"
"223006","022-BY","2016/10/27 08:19:35","新北市石碇區八分寮45-2號","121.641641666667","25.0126266666667"
"223002","198-BX","2016/10/27 07:35:31","新北市石碇區北宜路五段大湖巷8號","121.632985","24.9442866666667"
"223001","251-BX","2016/10/27 08:19:45","新北市石碇區北宜路五段80號","121.64666","24.951845"
"223008","406-TH","2016/10/27 07:02:33","新北市石碇區雙溪84號","121.662873333333","25.0087833333333"
"223004","660-BX","2016/10/27 08:19:44","新北市石碇區碇坪路一段8號","121.651568333333","25.00612"
"223007","661-BX","2016/10/27 08:19:52","新北市石碇區大溪墘2-4號","121.6993","25.0114916666667"
"227007","282-VK","2016/10/27 08:19:52","新北市雙溪區魚行里魚杭14號","121.875875","25.030555"
"253003","6232-TK","2016/10/27 08:04:10","新北市石門區石崩山1號","121.563888333333","25.285585"
"253001","6251-TK","2016/10/27 08:19:41","新北市石門區楓林1號","121.537033333333","25.2977666666667"
"253002","637-UY","2016/10/27 08:19:42","新北市石門區大溪墘9號","121.55346","25.272685"
"252004","249-BX","2016/10/27 08:19:54","新北市三芝區興華里車埕8號","121.501676666667","25.2014133333333"
"252007","AAC-283","2016/10/27 01:54:47","新北市三芝區埔坪里埔頭坑41號","121.50446","25.2643866666667"
"237001","159-UY","2016/10/27 08:19:59","新北市三峽區學勤路38號","121.374381666667","24.9458566666667"
"236003","105-UM","2016/10/27 08:19:55","新北市土城區石門路85-6號","121.468511666667","24.9564116666667"
"236001","339-SR","2016/10/27 08:15:13","新北市土城區龍泉路89-2號","121.445185","24.942345"
"236005","498-BY","2016/10/27 08:19:44","新北市土城區永平街2巷1號","121.427481666667","24.9634466666667"
"242018","AAC-296","2016/10/27 08:19:45","新北市新莊區明中街44號","121.456805","25.0397433333333"
"242026","986-R7","2016/10/27 08:19:50","新北市新莊區福壽街145號","121.457906666667","25.0529"
"242045","751-BX","2016/10/27 08:20:01","新北市新莊區福營路184號","121.431315","25.0307966666667"
"242022","615-BX","2016/10/27 08:19:54","新北市新莊區福壽街65號","121.458203333333","25.04928"
"242059","613-BX","2016/10/27 08:19:43","新北市新莊區新樹路455號","121.432666666667","25.0132866666667"
"242024","612-BX","2016/10/27 08:19:50","新北市新莊區五工路62號","121.458271666667","25.0632866666667"
"242033","566-BX","2016/10/27 08:19:52","新北市新莊區瓊泰路176號","121.443263333333","25.0331566666667"
"242038","497-BY","2016/10/27 08:20:00","新北市新莊區民安路236號","121.42632","25.0221983333333"
"242001","442-UM","2016/10/27 08:20:01","新北市新莊區中正路147-2號","121.457865","25.037235"
"242043","441-UM","2016/10/27 08:19:53","新北市新莊區雙鳳路35號","121.416208333333","25.0269783333333"
"242047","440-UM","2016/10/27 08:19:56","新北市新莊區萬安街65號","121.42136","25.02406"
"242020","415-TV","2016/10/27 08:19:51","新北市新莊區永寧街30巷1號","121.452851666667","25.0390416666667"
"242055","413-TV","2016/10/27 08:19:35","新北市新莊區瓊林路40巷22號","121.447045","25.0302233333333"
"242035","400-BY","2016/10/27 08:19:59","新北市新莊區建福路15號","121.426146666667","25.0292966666667"
"242057","362-BY","2016/10/27 08:19:50","新北市新莊區新北大道七段313號","121.4123","25.0280766666667"
"242028","353-BY","2016/10/27 08:19:56","新北市新莊區中平路63-1號","121.444663333333","25.0446566666667"
"242008","132-UY","2016/10/27 08:19:45","新北市新莊區昌平街59巷11弄7號","121.453836666667","25.0530366666667"
"242030","133-UY","2016/10/27 08:19:35","新北市新莊區新泰路305巷15號","121.444726666667","25.0407816666667"
"242016","135-UY","2016/10/27 08:19:57","新北市新莊區中港路341號","121.45212","25.04542"
"242040","172-VK","2016/10/27 08:20:00","新北市新莊區壽山路31號","121.42021","25.0290633333333"
"242010","175-VK","2016/10/27 08:19:51","新北市新莊區中港路699號","121.450656666667","25.057025"
"242052","176-VK","2016/10/27 08:19:53","新北市新莊區新樹路697號","121.432253333333","25.002325"
"242006","346-TH","2016/10/27 08:19:50","新北市新莊區自信街37號","121.454073333333","25.0482783333333"
"242003","347-TH","2016/10/27 08:19:59","新北市新莊區自立街232號","121.458073333333","25.045425"
"242014","348-TH","2016/10/27 08:19:45","新北市新莊區中平路119巷2號","121.444488333333","25.0466983333333"
"242049","349-TH","2016/10/27 08:19:54","新北市新莊區民本街53巷19號","121.428983333333","25.0181866666667"
"242012","350-TH","2016/10/27 08:19:45","新北市新莊區中和街61號","121.447463333333","25.04691"
