"lineid","car","time","location","longitude","latitude"
"234012","149-BY","2016/10/27 12:35:45","新北市永和區環河東路二段36號","121.522756666667","25.0126883333333"
"234082","208-UY","2016/10/27 14:08:44","新北市永和區中正路493號","121.516991666667","25.0067"
"234028","746-BX","2016/10/27 16:11:02","新北市永和區福和路1號","121.526405","25.0096533333333"
"234072","840-RS","2016/10/27 16:06:45","新北市永和區福和路1號","121.526238333333","25.009555"
"234010","9373-KE","2016/10/27 18:07:57","新北市永和區永利路23號","121.517935","25.0059783333333"
"249005","172-UM","2016/10/27 18:07:45","新北市八里區荖阡坑路18號","121.398103333333","25.1383083333333"
"249001","173-UM","2016/10/27 18:07:57","新北市八里區龍米路二段36號","121.448498333333","25.1400933333333"
"249004","303-UY","2016/10/27 18:07:55","新北市八里區龍米路二段159-2號","121.439176666667","25.153925"
"249002","305-UY","2016/10/27 16:59:34","新北市八里區牛寮埔11號","121.432943333333","25.14252"
"249003","593-UM","2016/10/27 18:07:34","新北市八里區中山路二段298號","121.404695","25.1502483333333"
"248016","026-BX","2016/10/27 18:02:01","新北市五股區中興路二段83巷26-6號","121.459528333333","25.0752783333333"
"248006","077-UY","2016/10/27 18:07:52","新北市五股區中興路二段101號","121.459988333333","25.0777583333333"
"248008","095-VK","2016/10/27 18:07:58","新北市五股區中興路二段182巷15弄16號","121.45816","25.0805166666667"
"248020","225-UY","2016/10/27 18:07:59","新北市五股區凌雲路一段21號","121.455196666667","25.0977416666667"
"248012","247-BX","2016/10/27 18:07:53","新北市五股區中興路三段160號","121.445566666667","25.0808633333333"
"248014","261-SL","2016/10/27 18:07:57","新北市五股區中興路四段38巷3號","121.438798333333","25.0830383333333"
"248004","677-BX","2016/10/27 18:07:57","新北市五股區工商路24號","121.439488333333","25.0833716666667"
"248002","678-BX","2016/10/27 18:07:57","新北市五股區中興路三段192-10號","121.442996666667","25.0816766666667"
"234076","969-R7","2016/10/27 16:03:25","新北市永和區福和路1號","121.526535","25.009815"
"232011","375-UM","2016/10/27 18:07:56","新北市坪林區水柳腳39號","121.70964","24.93519"
"244013","069-UM","2016/10/27 18:07:58","新北市林口區林口路31號","121.390708333333","25.078655"
"244007","080-UY","2016/10/27 18:07:49","新北市林口區佳林路3號","121.38721","25.0824183333333"
"244019","403-UM","2016/10/27 18:07:47","新北市林口區文化一路一段22巷17號","121.371355","25.067665"
"244009","410-SL","2016/10/27 18:07:50","新北市林口區佳林路56巷39號","121.385196666667","25.08082"
"244023","483-VK","2016/10/27 18:07:54","新北市林口區仁愛路二段24號","121.385513333333","25.0760466666667"
"244017","485-VK","2016/10/27 18:07:45","新北市林口區忠孝路488號","121.370448333333","25.0704233333333"
"244021","657-BX","2016/10/27 18:07:49","新北市林口區自強五街5號","121.398798333333","25.0765466666667"
"244025","837-TS","2016/10/27 18:07:56","新北市林口區文化三路一段39巷132號","121.359851666667","25.06874"
"243003","297-R6","2016/10/27 18:07:41","新北市泰山區犁頭窠16-1號","121.420783333333","25.0539466666667"
"243015","680-BX","2016/10/27 17:26:30","新北市泰山區黎明路25號","121.42195","25.0608616666667"
"222003","436-BY","2016/10/27 18:07:59","新北市深坑區腳坑5號","121.609196666667","24.99476"
"222001","628-TS","2016/10/27 18:07:56","新北市深坑區北深路二段188號","121.614018333333","25.0022266666667"
"222002","659-BX","2016/10/27 18:07:43","新北市深坑區文化街42號","121.619046666667","25.0016033333333"
"231056","0293-UT","2016/10/27 18:07:45","新北市新店區安華路28-1號","121.519241666667","24.9606933333333"
"231004","046-UY","2016/10/27 18:07:59","新北市新店區安華路28-1號","121.519468333333","24.9607266666667"
"231064","107-UY","2016/10/27 18:07:49","新北市新店區安華路28-1號","121.519805","24.9611516666667"
"231046","110-UY","2016/10/27 18:07:36","新北市新店區康雅崙路25號","121.536415","24.9271816666667"
"231065","192-VK","2016/10/27 16:13:25","新北市新店區安華路28-1號","121.51968","24.9611716666667"
"231058","3713-VJ","2016/10/27 18:07:54","新北市新店區安華路28-1號","121.519181666667","24.960705"
"231057","515-UM","2016/10/27 18:07:40","新北市新店區安華路28-1號","121.519785","24.9610933333333"
"231063","641-BX","2016/10/27 18:07:50","新北市新店區安華路28-1號","121.519491666667","24.9606316666667"
"231052","720-UM","2016/10/27 18:07:50","新北市新店區安華路28-1號","121.519356666667","24.9612766666667"
"231055","AKT-0513","2016/10/27 18:07:34","新北市新店區安華路28-1號","121.519705","24.96148"
"241015","062-VK","2016/10/27 18:07:43","新北市五股區五工一路115號","121.455255","25.0721983333333"
"241024","065-VK","2016/10/27 18:07:48","新北市三重區中正北路193巷35弄73號","121.478801666667","25.0714566666667"
"241006","398-BY","2016/10/27 18:07:44","新北市五股區中興路三段3-8號","121.448476666667","25.0786466666667"
"241033","AAC-255","2016/10/27 18:07:41","新北市三重區光復路一段66號","121.472001666667","25.0490616666667"
"235066","003-UY","2016/10/27 18:07:51","新北市中和區連勝街95號","121.495165","24.9961783333333"
"235064","005-UY","2016/10/27 18:07:49","新北市中和區員山路36巷13號","121.48402","24.9909516666667"
"235065","098-UM","2016/10/27 18:07:50","新北市中和區中山路二段441號","121.484661666667","25.0046483333333"
"235038","185-VK","2016/10/27 18:07:58","新北市中和區錦和路350-1號","121.490418333333","24.9936116666667"
"235067","255-BX","2016/10/27 18:07:58","新北市中和區和城路一段271巷1號","121.485438333333","24.9917766666667"
"235072","301-VK","2016/10/27 18:07:52","新北市中和區員山路36巷16-3號","121.48508","24.9913733333333"
"235050","4979-A6","2016/10/27 18:07:53","新北市中和區中正路305號","121.492706666667","24.993935"
"235069","4980-A6","2016/10/27 18:07:48","新北市中和區中正路637巷60弄61號","121.48546","24.9929583333333"
"235042","551-UM","2016/10/27 18:07:52","新北市中和區中正路305號","121.49262","24.9939416666667"
"235034","558-UM","2016/10/27 18:07:58","新北市中和區員山路36巷16-2號","121.48533","24.9915016666667"
"235024","647-TV","2016/10/27 18:07:44","新北市中和區員山路36巷16-3號","121.485088333333","24.9914633333333"
"235026","800-TS","2016/10/27 17:18:32","新北市中和區員山路36巷16-3號","121.485066666667","24.9915233333333"
"235057","801-TS","2016/10/27 18:07:47","新北市中和區員山路36巷16-2號","121.485213333333","24.9914033333333"
"235054","911-UM","2016/10/27 17:45:02","新北市中和區員山路36巷16-2號","121.485256666667","24.9917666666667"
"235002","952-SL","2016/10/27 15:02:27","新北市中和區員山路36巷13號","121.48431","24.9909933333333"
"235037","AAC-213","2016/10/27 18:07:46","新北市中和區和城路一段271巷1號","121.48551","24.99193"
"220016","013-TV","2016/10/27 18:07:56","新北市板橋區民生路二段22號","121.472708333333","25.0165316666667"
"247012","057-VK","2016/10/27 18:07:42","新北市蘆洲區中山二路290號","121.468641666667","25.0775033333333"
"247002","056-VK","2016/10/27 18:07:42","新北市五股區成泰路三段320號","121.450445","25.0967916666667"
"226004","312-R5","2016/10/27 18:07:53","新北市平溪區靜安路二段198號","121.723555","25.0220983333333"
"223006","022-BY","2016/10/27 10:20:35","新北市石碇區小粗坑(潭邊里)9-2號","121.678596666667","24.985845"
"223002","198-BX","2016/10/27 07:35:31","新北市石碇區北宜路五段大湖巷8號","121.632985","24.9442866666667"
"223008","406-TH","2016/10/27 07:02:33","新北市石碇區雙溪84號","121.662873333333","25.0087833333333"
"228003","097-TW","2016/10/27 18:07:44","新北市貢寮區真理里美艷山街8-3號","121.929608333333","25.06272"
"228002","212-TW","2016/10/27 18:07:44","新北市貢寮區福連里香蘭街32號","121.985653333333","25.0206483333333"
"228001","670-TC","2016/10/27 18:07:50","新北市貢寮區真理里新港街26巷55弄2-1號","121.927303333333","25.05288"
"224006","676-BX","2016/10/27 18:07:56","新北市瑞芳區東和路31號","121.804993333333","25.106055"
"224002","639-TC","2016/10/27 18:07:52","新北市瑞芳區三爪子坑路106巷1-8號","121.808408333333","25.1053633333333"
"224009","275-VK","2016/10/27 18:07:56","新北市瑞芳區金光路221號","121.852261666667","25.1067633333333"
"224008","273-VK","2016/10/27 18:07:50","新北市瑞芳區三爪子坑路27號","121.813873333333","25.10766"
"224005","271-BY","2016/10/27 18:07:53","新北市瑞芳區深澳路129號","121.8194","25.1313016666667"
"227004","642-TC","2016/10/27 18:07:57","新北市雙溪區共和里東榮街31號","121.866308333333","25.0334916666667"
"253005","295-VK","2016/10/27 18:00:08","新北市石門區中山路62-11號","121.567546666667","25.28963"
"253003","6232-TK","2016/10/27 18:07:40","新北市石門區大丘田25號","121.547986666667","25.2829866666667"
"208003","665-BX","2016/10/27 18:07:47","新北市金山區磺港里磺港路310號","121.644061666667","25.2277516666667"
"208001","761-BX","2016/10/27 18:07:48","新北市金山區磺港里磺港路114號","121.646141666667","25.2266316666667"
"251004","009-UM","2016/10/27 18:07:51","新北市淡水區民族路102號","121.462436666667","25.1353733333333"
"251001","011-UM","2016/10/27 18:07:44","新北市淡水區自立路15巷1號","121.462995","25.1298216666667"
"251002","012-UM","2016/10/27 18:07:52","新北市淡水區中正東路40-7號","121.450263333333","25.1650283333333"
"251014","180-VK","2016/10/27 18:07:50","新北市淡水區南平14號","121.485465","25.2211833333333"
"251008","181-VK","2016/10/27 18:07:46","新北市淡水區中正東路二段7號","121.458226666667","25.1589033333333"
"251016","182-VK","2016/10/27 18:07:42","新北市淡水區下圭柔山18號","121.453566666667","25.2027116666667"
"251012","441-VK","2016/10/27 18:07:54","新北市淡水區泉洲厝13-1號","121.48861","25.19018"
"251005","443-VK","2016/10/27 18:07:40","新北市淡水區水源街一段139號","121.447185","25.1719966666667"
"251006","561-UM","2016/10/27 18:07:53","新北市淡水區新民街76巷36弄2號","121.439293333333","25.1778083333333"
"251009","575-R6","2016/10/27 18:07:50","新北市淡水區大仁街6巷23號","121.443018333333","25.1752"
"251011","650-BX","2016/10/27 18:07:52","新北市淡水區三空泉9-2號","121.474125","25.1635216666667"
"251003","766-UM","2016/10/27 18:07:57","新北市淡水區北新路182巷22號","121.448956666667","25.1780166666667"
"207003","550-UM","2016/10/27 18:07:55","新北市萬里區野柳里港西路8-1號","121.685138333333","25.20359"
"252002","178-VK","2016/10/27 18:07:59","新北市三芝區中山路二段41號","121.502975","25.2550716666667"
"252003","249-BX","2016/10/27 18:07:54","新北市三芝區北海路二段167號","121.502476666667","25.26162"
"252001","292-VK","2016/10/27 18:07:39","新北市三芝區中興街二段2號","121.498401666667","25.2566783333333"
"208002","170-UY","2016/10/27 18:07:55","新北市金山區三界壇路97巷1號","121.619286666667","25.2275016666667"
"237007","153-BY","2016/10/27 18:07:58","新北市三峽區中正路二段370巷9-1號","121.365376666667","24.910005"
"237009","210-TH","2016/10/27 18:07:56","新北市三峽區大仁路50巷22號","121.365383333333","24.9383166666667"
"237013","252-BX","2016/10/27 18:07:40","新北市三峽區長泰街70-2號","121.376668333333","24.9335466666667"
"237012","275-BY","2016/10/27 18:07:51","新北市三峽區民生街1巷1-28號","121.377601666667","24.93534"
"237008","302-VK","2016/10/27 18:07:48","新北市三峽區白雞40-5號","121.376115","24.9117783333333"
"237014","433-BY","2016/10/27 18:07:59","新北市三峽區復興路80巷9號","121.373453333333","24.9376666666667"
"237006","5529-G3","2016/10/27 18:07:57","新北市三峽區介壽路二段138巷1弄133號","121.399671666667","24.9309583333333"
"237011","572-TV","2016/10/27 18:07:56","新北市三峽區介壽路一段496號","121.385633333333","24.93223"
"237015","649-BX","2016/10/27 18:07:51","新北市三峽區紫微路42-1號","121.422236666667","24.91993"
"237010","706-TV","2016/10/27 18:07:57","新北市三峽區民權街193號","121.367733333333","24.9290783333333"
"237005","AKY-6261","2016/10/27 18:07:52","新北市三峽區和平街24-5號","121.370321666667","24.9365283333333"
"236071","105-UM","2016/10/27 18:07:54","新北市土城區石門路28號","121.458288333333","24.9653816666667"
"236042","107-UM","2016/10/27 18:07:56","新北市土城區裕生路82巷2號","121.447486666667","24.98594"
"236078","166-UM","2016/10/27 17:55:48","新北市土城區永寧路109-5號","121.430568333333","24.9539566666667"
"236030","253-BX","2016/10/27 18:07:55","新北市土城區城林路6巷80號","121.438526666667","24.9797833333333"
"236026","269-VK","2016/10/27 18:07:39","新北市土城區承天路67號","121.439586666667","24.9636066666667"
"236014","270-VK","2016/10/27 18:07:59","新北市土城區學府路一段276號","121.450168333333","24.98319"
"236037","271-VK","2016/10/27 18:06:37","新北市土城區金城路二段26號","121.45031","24.9781066666667"
"236001","339-SR","2016/10/27 10:43:17","新北市土城區永平街51號","121.427636666667","24.95919"
"236021","401-BY","2016/10/27 18:07:57","新北市土城區明德路一段169號","121.464253333333","24.9793316666667"
"236058","912-UM","2016/10/27 18:07:55","新北市土城區中央路三段254-1號","121.427465","24.964135"
"236051","913-UM","2016/10/27 18:07:51","新北市土城區學士路121號","121.446181666667","24.975875"
"236062","915-UM","2016/10/27 18:07:52","新北市土城區中央路二段89號","121.442376666667","24.97815"
"236053","AAC-216","2016/10/27 18:07:49","新北市土城區中華路二段92號","121.43825","24.9747783333333"
"242019","AAC-296","2016/10/27 18:07:44","新北市新莊區中港路138巷7弄6號","121.455836666667","25.0411483333333"
"242027","986-R7","2016/10/27 18:07:49","新北市新莊區幸福路21號","121.459038333333","25.0494166666667"
"242046","751-BX","2016/10/27 18:07:50","新北市新莊區福營路378號","121.420531666667","25.0264816666667"
"242023","615-BX","2016/10/27 18:07:53","新北市新莊區幸福路904號","121.443098333333","25.048985"
"242061","613-BX","2016/10/27 18:07:43","新北市新莊區新樹路224號","121.433691666667","25.0200333333333"
"242025","612-BX","2016/10/27 18:07:58","新北市新莊區五工一路98號","121.460525","25.0681183333333"
"242034","566-BX","2016/10/27 18:07:51","新北市新莊區景德路310號","121.447421666667","25.0336083333333"
"242039","497-BY","2016/10/27 18:07:50","新北市新莊區民安東路145號","121.431826666667","25.020605"
"242002","442-UM","2016/10/27 17:47:15","新北市新莊區新泰路51號","121.44947","25.03382"
"242044","441-UM","2016/10/27 18:07:52","新北市新莊區中正路力行巷1弄1號","121.417076666667","25.026215"
"242048","440-UM","2016/10/27 18:07:55","新北市新莊區民安路49號","121.423893333333","25.0262233333333"
"242021","415-TV","2016/10/27 18:07:50","新北市新莊區新興街98巷1號","121.450636666667","25.03882"
"242056","413-TV","2016/10/27 18:07:35","新北市新莊區豐年街豐1巷19號","121.447313333333","25.031225"
"242036","400-BY","2016/10/27 18:07:43","新北市新莊區後港一路31巷1弄2號","121.425098333333","25.0264933333333"
"242058","362-BY","2016/10/27 18:07:51","新北市新莊區新北大道七段838號","121.41357","25.0239283333333"
"242029","353-BY","2016/10/27 18:07:46","新北市新莊區中平路110巷13號","121.445788333333","25.0460383333333"
"242009","132-UY","2016/10/27 18:07:44","新北市新莊區昌盛街2巷1弄1號","121.453023333333","25.0495816666667"
"242031","133-UY","2016/10/27 18:07:34","新北市新莊區新泰路277巷12號","121.445048333333","25.0404316666667"
"242017","135-UY","2016/10/27 18:07:56","新北市新莊區中港路335號","121.4523","25.0451866666667"
"242042","172-VK","2016/10/27 18:07:59","新北市新莊區天祥街94號","121.4151","25.0295516666667"
"242011","175-VK","2016/10/27 18:07:51","新北市新莊區中信街96號","121.447961666667","25.05356"
"242053","176-VK","2016/10/27 18:07:52","新北市新莊區光華街47號","121.428765","25.0114616666667"
"242007","346-TH","2016/10/27 18:07:54","新北市新莊區中華路二段40號","121.45405","25.04556"
"242004","347-TH","2016/10/27 18:07:58","新北市新莊區自由街34號","121.455865","25.046545"
"242015","348-TH","2016/10/27 18:07:56","新北市新莊區中平路152巷48號","121.4468","25.0473333333333"
"242051","349-TH","2016/10/27 18:07:52","新北市新莊區民本街25巷15號","121.429045","25.019455"
"238015","755-BX","2016/10/27 18:07:56","新北市樹林區啟智街172號","121.414513333333","24.987005"
"238010","601-UM","2016/10/27 15:15:21","新北市樹林區中山路二段121-1號","121.40828","24.9799233333333"
"238019","599-UM","2016/10/27 18:07:51","新北市樹林區忠孝街101巷1號","121.424588333333","24.9810483333333"
"238018","571-TV","2016/10/27 18:07:46","新北市樹林區樹新路205-3號","121.429676666667","24.99788"
"238022","312-TH","2016/10/27 18:07:55","新北市樹林區太平路150巷68號","121.41739","24.9775"
"238021","311-TH","2016/10/27 18:07:52","新北市樹林區田尾街82號","121.40884","24.95821"
"238025","303-VK","2016/10/27 18:07:41","新北市樹林區保安街二段335號","121.412478333333","25.0080233333333"
"238017","283-BY","2016/10/27 18:07:50","新北市樹林區中正路716號","121.409101666667","25.0179283333333"
"238014","282-BY","2016/10/27 18:07:52","新北市樹林區大安路125巷29號","121.423333333333","24.99675"
"238020","268-VK","2016/10/27 18:07:57","新北市樹林區三龍街118巷18號","121.415318333333","25.01782"
"238026","172-UY","2016/10/27 18:07:54","新北市樹林區中山路三段50號","121.39412","24.97245"
"238016","169-UY","2016/10/27 18:07:57","新北市樹林區日新街139號","121.4206","24.9886666666667"
"239007","AAC-297","2016/10/27 18:07:44","新北市鶯歌區尖山埔路64號","121.348383333333","24.9510533333333"
"239006","891-R6","2016/10/27 18:07:51","新北市鶯歌區鶯桃路381巷2弄10號","121.333171666667","24.963705"
"239008","527-UM","2016/10/27 18:07:55","新北市鶯歌區國際一路14號","121.336175","24.97651"
"239005","526-UM","2016/10/27 18:07:54","新北市鶯歌區鶯桃路668巷73號","121.329891666667","24.9717916666667"
"239001","417-VK","2016/10/27 18:07:41","新北市鶯歌區國中街1-1號","121.342095","24.943405"
"239003","360-BY","2016/10/27 18:07:59","新北市鶯歌區福安街11巷2號","121.335456666667","24.9652833333333"
"239002","359-BY","2016/10/27 18:07:44","新北市鶯歌區建國路156號","121.350725","24.9538083333333"
"221008","129-UY","2016/10/27 18:07:42","新北市汐止區明峰街185號","121.62832","25.0698483333333"
"221036","130-UY","2016/10/27 18:07:58","新北市汐止區大同路三段243-1號","121.672983333333","25.0762683333333"
"221015","131-UY","2016/10/27 18:07:48","新北市汐止區長江街329號","121.666725","25.0818216666667"
"221012","278-VK","2016/10/27 18:07:43","新北市汐止區長興街二段50巷30弄1號","121.674855","25.0811333333333"
"221023","279-VK","2016/10/27 18:07:59","新北市汐止區民族六街2巷23號","121.628436666667","25.0701416666667"
"221032","280-BY","2016/10/27 18:07:52","新北市汐止區力行街14號","121.617038333333","25.0508966666667"
"221027","281-BY","2016/10/27 18:07:42","新北市汐止區大同路二段474號","121.66011","25.0678"
"221038","297-VK","2016/10/27 18:07:56","新北市汐止區連興街128巷7弄2號","121.653343333333","25.0616166666667"
"221029","298-VK","2016/10/27 18:07:40","新北市汐止區樟樹二路108號","121.639616666667","25.0646066666667"
"221021","299-VK","2016/10/27 18:06:00","新北市汐止區新台五路一段201-1號","121.656211666667","25.063485"
"221031","353-TW","2016/10/27 18:07:52","新北市汐止區中興路181巷14弄10號","121.629846666667","25.0667666666667"
"221035","622-UM","2016/10/27 18:07:53","新北市汐止區汐萬路一段115巷50號","121.65287","25.07004"
"221025","623-UM","2016/10/27 18:07:44","新北市汐止區秀峰路145號","121.660465","25.062205"
"221033","647-BX","2016/10/27 18:07:50","新北市汐止區宜興街2號","121.621061666667","25.04119"
"221018","753-BX","2016/10/27 18:07:38","新北市汐止區忠孝東路384號","121.665551666667","25.0702216666667"
"220010","305-R5","2016/10/27 14:14:10","新北市板橋區三民路二段居仁巷2弄25號","121.479955","25.01305"
"220002","741-BX","2016/10/27 15:59:04","新北市八里區中山路三段216號","121.377843333333","25.1416083333333"
"220018","AAC-253","2016/10/27 16:25:16","新北市板橋區民生路二段15-1號","121.472768333333","25.0164766666667"
"249001","3G-TL5","2016/10/27 17:43:59","桃園市楊梅區電研路100-24號","121.166086666667","24.953685"
