"lineid","car","time","location","longitude","latitude"
"249005","172-UM","2016/12/30 17:29:23","新北市八里區荖阡坑路69號","121.406388333333","25.127085"
"249001","173-UM","2016/12/30 17:29:20","新北市八里區中華路一段1-5號","121.423265","25.1585933333333"
"249004","303-UY","2016/12/30 17:29:29","新北市八里區賢一街217號","121.41573","25.15594"
"249002","305-UY","2016/12/30 17:29:18","新北市八里區烏山頭1-10號","121.447376666667","25.1403416666667"
"249003","593-UM","2016/12/30 17:29:16","新北市八里區中山路二段378號","121.400725","25.14791"
"244013","069-UM","2016/12/30 17:29:03","新北市林口區粉寮路二段160巷28號","121.405125","25.0907716666667"
"244007","080-UY","2016/12/30 17:25:15","新北市林口區文化北路二段616號","121.379465","25.0943533333333"
"244019","403-UM","2016/12/30 17:29:28","新北市林口區文化一路一段190巷7弄2-3號","121.380126666667","25.0743616666667"
"244009","410-SL","2016/12/30 17:29:21","新北市林口區松柏路22號","121.3795","25.0924283333333"
"244025","837-TS","2016/12/30 17:29:19","新北市林口區民權路8號","121.371126666667","25.079945"
"244021","838-TS","2016/12/30 17:29:17","新北市林口區粉寮路一段181號","121.400181666667","25.0825133333333"
"241011","013-R5","2016/12/30 17:29:20","新北市三重區河邊北街124巷27號","121.503061666667","25.0713"
"241008","059-VK","2016/12/30 17:29:23","新北市三重區車路頭街135-1號","121.484298333333","25.0760733333333"
"241017","063-VK","2016/12/30 17:29:21","新北市三重區大同北路34巷46號","121.493753333333","25.0621033333333"
"241024","065-VK","2016/12/30 17:29:12","新北市三重區國道路一段58巷17號","121.481331666667","25.0721233333333"
"241026","066-VK","2016/12/30 16:42:12","新北市三重區福和街1號","121.502996666667","25.0617583333333"
"241007","156-TC","2016/12/30 17:29:27","新北市三重區三和路四段145巷82號","121.486486666667","25.0788566666667"
"241005","262-UM","2016/12/30 17:29:26","新北市三重區永安北路二段33號","121.482306666667","25.0821666666667"
"241016","266-UM","2016/12/30 17:29:17","新北市三重區大同北路83號","121.494873333333","25.06362"
"241022","267-UM","2016/12/30 17:29:10","新北市三重區新北大道一段7號","121.4897","25.0613816666667"
"241018","268-UM","2016/12/30 17:29:28","新北市三重區新北大道一段7號","121.48965","25.0613883333333"
"241013","270-UM","2016/12/30 17:29:13","新北市三重區仁愛街112巷4號","121.494468333333","25.07427"
"241025","271-UM","2016/12/30 17:29:21","新北市三重區中正北路430號","121.474591666667","25.0711"
"241006","398-BY","2016/12/30 17:29:14","新北市蘆洲區永安南路一段136號","121.470751666667","25.0758983333333"
"241020","413-TH","2016/12/30 17:29:17","新北市三重區忠孝路二段34號","121.485868333333","25.0710116666667"
"241019","478-VK","2016/12/30 17:29:12","新北市三重區自強路二段28號","121.489358333333","25.06914"
"241030","480-VK","2016/12/30 17:29:29","新北市三重區環河南路220-8號","121.493358333333","25.0527116666667"
"241014","543-UM","2016/12/30 17:29:20","新北市三重區安和路13號","121.501355","25.06838"
"241023","545-UM","2016/12/30 17:29:20","新北市三重區忠孝路三段84巷32號","121.4816","25.064145"
"241001","547-UM","2016/12/30 17:29:15","新北市三重區自強路五段61號","121.494708333333","25.081875"
"241003","593-RM","2016/12/30 17:29:24","新北市三重區碧華街292號","121.489641666667","25.08329"
"241015","597-RM","2016/12/30 17:29:22","新北市三重區長元街65巷22弄20號","121.503643333333","25.06587"
"241012","941-UM","2016/12/30 17:29:26","新北市三重區河邊北街379-1號","121.501725","25.076575"
"241029","942-UM","2016/12/30 17:29:10","新北市三重區泉州街96巷6號","121.49523","25.0537983333333"
"241033","AAC-255","2016/12/30 17:29:18","新北市三重區興德路131巷32號","121.46975","25.054105"
"235072","301-VK","2016/12/30 17:29:17","新北市中和區員山路36巷16-3號","121.485106666667","24.9912866666667"
"235034","558-UM","2016/12/30 15:49:18","新北市中和區員山路36巷16-2號","121.4854","24.9913983333333"
"235024","647-TV","2016/12/30 17:10:04","新北市中和區員山路36巷16-3號","121.48506","24.991295"
"235062","800-TS","2016/12/30 16:57:00","新北市中和區員山路36巷16-3號","121.484971666667","24.9914683333333"
"247018","893-R6","2016/12/30 17:29:24","新北市蘆洲區三民路110巷26號","121.472573333333","25.08758"
"247008","546-UM","2016/12/30 17:29:09","新北市蘆洲區民生街64號","121.473378333333","25.07878"
"247016","500-BY","2016/12/30 17:29:20","新北市蘆洲區光華路70巷8號","121.46763","25.0833433333333"
"247004","341-TH","2016/12/30 17:29:11","新北市蘆洲區永安南路二段296號","121.457258333333","25.0819283333333"
"247006","339-TH","2016/12/30 17:29:17","新北市蘆洲區長安街22巷39弄3號","121.464701666667","25.0804333333333"
"247022","337-TH","2016/12/30 17:29:17","新北市蘆洲區三民路234號","121.468361666667","25.08958"
"247024","336-TH","2016/12/30 17:29:15","新北市蘆洲區長樂路159號","121.462031666667","25.0882116666667"
"247002","335-TH","2016/12/30 17:29:23","新北市蘆洲區永平街65號","121.457213333333","25.0915566666667"
"247012","057-VK","2016/12/30 17:29:12","新北市蘆洲區復興路58號","121.47398","25.0859833333333"
"247010","007-UY","2016/12/30 17:29:11","新北市蘆洲區集賢路406號","121.479913333333","25.081895"
"247020","002-UY","2016/12/30 17:29:21","新北市蘆洲區民義街111號","121.473931666667","25.0909683333333"
"247014","001-UY","2016/12/30 17:29:14","新北市蘆洲區三民路33號","121.475406666667","25.0830133333333"
"228002","585-TW","2016/12/30 17:25:38","新北市貢寮區雙玉里田寮洋街25-4號","121.931278333333","25.0176066666667"
"228001","663-BX","2016/12/30 17:29:19","新北市貢寮區仁理村仁愛路62巷1號","121.925708333333","25.0534333333333"
"228003","828-UM","2016/12/30 17:29:01","新北市貢寮區仁理村仁和路20號","121.922963333333","25.049025"
"224010","AGQ-8101","2016/12/30 17:29:22","新北市瑞芳區明燈路二段2巷7號","121.814391666667","25.1086533333333"
"224006","676-BX","2016/12/30 17:29:15","新北市瑞芳區傑魚坑路167號","121.789768333333","25.1094233333333"
"224002","639-TC","2016/12/30 17:22:10","新北市瑞芳區民權街3-1號","121.809176666667","25.1082666666667"
"224009","275-VK","2016/12/30 17:29:17","新北市瑞芳區汽車路97號","121.842505","25.10925"
"224008","273-VK","2016/12/30 17:29:24","新北市瑞芳區九芎橋路69號","121.833661666667","25.0953266666667"
"224005","271-BY","2016/12/30 17:29:18","新北市瑞芳區海濱路8-6號","121.831668333333","25.1261033333333"
"227003","642-TC","2016/12/30 17:29:18","新北市雙溪區平林里梅竹蹊69號","121.844143333333","25.030255"
"227011","030-BX","2016/12/30 17:29:21","新北市雙溪區三貂里定福路1-2號","121.850745","25.063395"
"251009","008-UM","2016/12/30 17:25:39","新北市淡水區重建街1巷6-1號","121.439733333333","25.1734066666667"
"251004","009-UM","2016/12/30 17:29:27","新北市淡水區中正東路二段88巷15號","121.459133333333","25.150465"
"251013","180-VK","2016/12/30 17:29:12","新北市淡水區大竹圍5號","121.466591666667","25.1952533333333"
"251008","181-VK","2016/12/30 17:29:21","新北市淡水區大同路122巷18號","121.46342","25.1397733333333"
"251010","413-VK","2016/12/30 17:29:12","新北市淡水區中正路二段206號","121.426136666667","25.1888816666667"
"251012","441-VK","2016/12/30 17:29:14","新北市淡水區北新路111號","121.448046666667","25.17852"
"251015","442-VK","2016/12/30 17:29:10","新北市淡水區三空泉20號","121.469175","25.1663616666667"
"251005","443-VK","2016/12/30 17:29:14","新北市淡水區鄧公路31巷1號","121.451311666667","25.1708266666667"
"251001","559-UM","2016/12/30 17:29:28","新北市淡水區中山路66-1號","121.443568333333","25.17057"
"251006","561-UM","2016/12/30 17:29:15","新北市淡水區大信街30號","121.442023333333","25.1770066666667"
"251007","577-R6","2016/12/30 17:29:24","新北市淡水區民生路60號","121.462055","25.1379416666667"
"251011","650-BX","2016/12/30 17:29:23","新北市淡水區坪頂路616號","121.479633333333","25.159835"
"251002","672-BX","2016/12/30 17:29:25","新北市淡水區中正路261號","121.431891666667","25.1747733333333"
"251003","673-BX","2016/12/30 17:27:05","新北市淡水區中山路157號","121.44074","25.1728683333333"
"207003","550-UM","2016/12/30 17:29:08","新北市萬里區龜吼里日光路6巷16號","121.68353","25.1864783333333"
"207004","225-TW","2016/12/30 17:29:10","新北市萬里區萬里里景美路3號","121.683588333333","25.1721666666667"
"252002","178-VK","2016/12/30 17:29:21","新北市三芝區忠孝街1-14號","121.505403333333","25.2539216666667"
"237015","649-BX","2016/12/30 17:29:22","新北市三峽區中山路198號","121.363333333333","24.93712"
"242019","AAC-296","2016/12/30 17:29:23","新北市新莊區中港路50號","121.455388333333","25.0385083333333"
"242027","986-R7","2016/12/30 17:29:22","新北市新莊區復興路二段176號","121.458768333333","25.0443933333333"
"242046","751-BX","2016/12/30 17:29:20","新北市新莊區新樹路43號","121.440283333333","25.0321066666667"
"242023","615-BX","2016/12/30 17:29:23","新北市新莊區公園路148號","121.45309","25.0400866666667"
"242060","613-BX","2016/12/30 17:29:29","新北市新莊區瓊林路188-1號","121.440606666667","25.02246"
"242025","612-BX","2016/12/30 17:29:12","新北市新莊區中港路272號","121.453095","25.0439333333333"
"242044","566-BX","2016/12/30 17:29:25","新北市新莊區富國路80號","121.420063333333","25.0259183333333"
"242039","497-BY","2016/12/30 17:29:16","新北市新莊區民安路274號","121.427673333333","25.0214383333333"
"242002","442-UM","2016/12/30 17:29:20","新北市新莊區環漢路二段385號","121.451261666667","25.0326683333333"
"242037","440-UM","2016/12/30 17:29:21","新北市新莊區建國一路288巷48號","121.434196666667","25.025835"
"242021","415-TV","2016/12/30 17:29:24","新北市新莊區中華路一段8號","121.452035","25.0368583333333"
"242056","413-TV","2016/12/30 17:29:20","新北市新莊區新莊路362號","121.4496","25.0335066666667"
"242058","362-BY","2016/12/30 17:29:26","新北市新莊區中正路524號","121.431158333333","25.0316133333333"
"242029","353-BY","2016/12/30 17:29:22","新北市新莊區思源路159號","121.459771666667","25.0446416666667"
"242009","132-UY","2016/12/30 17:29:14","新北市新莊區昌明街12號","121.457416666667","25.0524166666667"
"242032","133-UY","2016/12/30 17:29:14","新北市新莊區新泰路381巷38號","121.442416666667","25.0436583333333"
"242017","135-UY","2016/12/30 17:29:20","新北市新莊區中華路一段103號","121.452685","25.043955"
"242041","172-VK","2016/12/30 17:29:16","新北市新莊區福營路103號","121.433671666667","25.032155"
"242005","173-VK","2016/12/30 17:29:19","新北市新莊區中港路278號","121.453046666667","25.0440933333333"
"242011","175-VK","2016/12/30 17:24:21","新北市新莊區中港路380號","121.452428333333","25.0478266666667"
"242054","176-VK","2016/12/30 17:29:08","新北市新莊區新樹路392號","121.432356666667","25.00279"
"242034","346-TH","2016/12/30 17:29:09","新北市新莊區瓊林路7號","121.449868333333","25.0320166666667"
"242048","347-TH","2016/12/30 17:29:16","新北市新莊區四維路212巷13號","121.421","25.02025"
"242015","348-TH","2016/12/30 17:29:25","新北市新莊區新泰路161號","121.447843333333","25.0370066666667"
"242050","349-TH","2016/12/30 17:29:26","新北市新莊區新樹路447號","121.432815","25.01351"
"242013","350-TH","2016/12/30 17:29:28","新北市新莊區中誠街13號","121.451863333333","25.0480316666667"
"242007","351-TH","2016/12/30 17:29:19","新北市新莊區自強街21號","121.454711666667","25.0461883333333"
"238015","755-BX","2016/12/30 17:29:21","新北市樹林區大安路267號","121.419043333333","24.99365"
"238023","601-UM","2016/12/30 17:29:16","新北市樹林區中正路433-2號","121.414985","25.00817"
"238019","599-UM","2016/12/30 17:29:27","新北市樹林區太平路1-5號","121.418533333333","24.98466"
"238018","571-TV","2016/12/30 17:29:13","新北市樹林區樹中街7號","121.42069","24.9860116666667"
"238024","5061-A6","2016/12/30 17:29:13","新北市樹林區鎮前街13號","121.425941666667","24.9927133333333"
"238022","312-TH","2016/12/30 17:29:27","新北市樹林區和平街41號","121.423126666667","24.981815"
"238021","311-TH","2016/12/30 17:29:27","新北市樹林區西圳街一段26號","121.4023","24.9612966666667"
"238025","303-VK","2016/12/30 17:29:30","新北市樹林區保安二街69號","121.424523333333","24.9950066666667"
"238017","283-BY","2016/12/30 17:29:20","新北市樹林區光武街7-3號","121.41577","25.0052633333333"
"238014","282-BY","2016/12/30 17:29:18","新北市樹林區長壽街70巷35弄9號","121.421363333333","24.99518"
"238020","268-VK","2016/12/30 17:29:12","新北市樹林區千歲街103號","121.428555","25.0009183333333"
"238026","172-UY","2016/12/30 17:29:13","新北市樹林區味王街46巷36號","121.402368333333","24.9736316666667"
"238016","169-UY","2016/12/30 17:29:13","新北市樹林區中山路一段189號","121.42132","24.9877833333333"
"239007","AAC-297","2016/12/30 17:29:23","新北市鶯歌區鶯桃路182巷10號","121.337168333333","24.9557833333333"
"239006","891-R6","2016/12/30 17:29:12","新北市鶯歌區鶯桃路472巷26號","121.333346666667","24.96586"
"239008","527-UM","2016/12/30 17:29:15","新北市鶯歌區大湖路700巷38號","121.333265","24.9771666666667"
"239005","526-UM","2016/12/30 17:27:08","桃園市桃園區大仁路88號","121.323248333333","24.97146"
"239001","417-VK","2016/12/30 17:29:22","新北市鶯歌區中正三路248號","121.32991","24.9365583333333"
"239003","360-BY","2016/12/30 17:29:28","新北市鶯歌區鶯桃路206巷17號","121.337643333333","24.959625"
"239002","359-BY","2016/12/30 17:29:08","新北市鶯歌區光明街105號","121.344508333333","24.9557983333333"
"239004","193-VK","2016/12/30 17:29:22","新北市鶯歌區三鶯路22號","121.356223333333","24.9415616666667"
"221010","269-BY","2016/12/30 17:29:09","新北市汐止區汐萬路一段256巷3號","121.652178333333","25.0748483333333"
"221032","280-BY","2016/12/30 17:29:14","新北市汐止區汐萬路一段256巷1號","121.651978333333","25.0748766666667"
"242001","280-VK","2016/12/30 17:29:10","新北市新莊區環河路636-7號","121.437413333333","25.0112116666667"
