"lineid","car","time","location","longitude","latitude"
"234046","148-BY","2016/12/30 18:47:00","新北市永和區永元路40巷41號","121.52364","25.0006516666667"
"234013","149-BY","2016/12/30 18:47:13","新北市永和區保福路二段133巷2號","121.50952","25.0138166666667"
"234007","207-UY","2016/12/30 18:47:11","新北市永和區文化路123號","121.512155","25.0153516666667"
"234081","298-R6","2016/12/30 18:46:53","新北市永和區永利路138號","121.521953333333","25.0028633333333"
"234038","336-UY","2016/12/30 18:46:55","新北市永和區成功路一段2號","121.527078333333","25.0056833333333"
"234086","338-UY","2016/12/30 18:47:04","新北市中和區安樂路101號","121.5133","24.9949333333333"
"234070","552-UM","2016/12/30 18:47:05","新北市永和區竹林路159號","121.520585","25.010325"
"234054","553-UM","2016/12/30 18:46:55","新北市永和區竹林路155號","121.520495","25.01032"
"234030","746-BX","2016/12/30 18:47:08","新北市永和區得和路328號","121.523288333333","24.999535"
"234061","839-RS","2016/12/30 18:46:53","新北市永和區福和路307號","121.516265","25.0070733333333"
"234074","847-RS","2016/12/30 18:46:57","新北市永和區福和路1號","121.526193333333","25.0095266666667"
"234042","862-TW","2016/12/30 18:46:56","新北市永和區永和路一段118號","121.514005","25.0078566666667"
"234050","863-TW","2016/12/30 18:46:59","新北市永和區保安路2號","121.51085","25.01746"
"234026","9371-KE","2016/12/30 18:47:09","新北市永和區永貞路416號","121.508856666667","25.007975"
"234011","9381-KE","2016/12/30 18:47:00","新北市永和區文化路126巷4號","121.51309","25.01567"
"249005","172-UM","2016/12/30 18:47:02","新北市八里區長道坑16-4號","121.393873333333","25.1171533333333"
"249001","173-UM","2016/12/30 18:47:00","新北市八里區龍米路二段3號","121.448898333333","25.13921"
"249004","303-UY","2016/12/30 18:47:09","新北市八里區博物館路10-1號","121.41535","25.1641483333333"
"248014","025-BX","2016/12/30 18:47:08","新北市五股區成泰路一段130-2號","121.4351","25.0752866666667"
"248016","026-BX","2016/12/30 18:47:01","新北市五股區凌雲路一段149巷13-1號","121.448603333333","25.10088"
"248006","077-UY","2016/12/30 18:47:12","新北市五股區中興路二段83巷26-6號","121.459935","25.0752566666667"
"248008","095-VK","2016/12/30 18:46:54","新北市五股區中興路一段151巷61號","121.465128333333","25.0716683333333"
"248018","225-UY","2016/12/30 18:47:02","新北市五股區民義路二段46-6號","121.413753333333","25.1020383333333"
"248012","247-BX","2016/12/30 18:47:01","新北市五股區成泰路二段175號","121.439495","25.0861433333333"
"248004","677-BX","2016/12/30 18:47:04","新北市五股區民義路一段312-10號","121.422965","25.0951016666667"
"248002","678-BX","2016/12/30 18:46:59","新北市五股區西雲路245號","121.449205","25.097765"
"248010","682-TV","2016/12/30 18:46:33","新北市五股區自強路90巷26號","121.431795","25.0721583333333"
"234023","9380-KE","2016/12/30 18:47:13","新北市永和區竹林路119巷22弄29號","121.522163333333","25.0113283333333"
"234077","969-R7","2016/12/30 18:47:02","新北市永和區中正路2巷13號","121.51326","24.9934216666667"
"234003","AAC-295","2016/12/30 18:45:20","新北市永和區福和路10巷1號","121.524641666667","25.0086833333333"
"232011","375-UM","2016/12/30 18:17:29","新北市坪林區坪雙路一段43號","121.711756666667","24.94248"
"244013","069-UM","2016/12/30 18:47:03","新北市林口區中正路494號","121.382386666667","25.0773216666667"
"244007","080-UY","2016/12/30 18:46:55","新北市林口區湖子11號","121.387096666667","25.0890733333333"
"244019","403-UM","2016/12/30 18:47:08","新北市林口區忠孝路646巷70號","121.379613333333","25.0670633333333"
"244009","410-SL","2016/12/30 18:47:01","新北市林口區竹林路269號","121.3896","25.08093"
"244023","483-VK","2016/12/30 18:47:02","新北市林口區仁愛路二段377號","121.370326666667","25.0799933333333"
"244017","485-VK","2016/12/30 18:47:08","新北市林口區文化二路一段68巷18-2號","121.366205","25.0677483333333"
"244011","701-TV","2016/12/30 18:46:53","新北市林口區興林路17巷3弄2號","121.390271666667","25.0769933333333"
"244025","837-TS","2016/12/30 18:46:59","新北市林口區南勢街258號","121.358235","25.0759116666667"
"244021","838-TS","2016/12/30 18:46:57","新北市林口區工六路92號","121.400923333333","25.076815"
"243016","421-VK","2016/12/30 18:47:11","新北市泰山區泰林路二段247號","121.43193","25.0621816666667"
"243012","539-UM","2016/12/30 18:47:09","新北市泰山區福興三街13號","121.434413333333","25.0577716666667"
"243009","548-UM","2016/12/30 18:47:11","新北市泰山區泰林路二段362號","121.42874","25.0636166666667"
"243013","646-TV","2016/12/30 18:47:04","新北市泰山區明志路三段206巷3號","121.423226666667","25.03793"
"243015","680-BX","2016/12/30 18:47:02","新北市泰山區泰林路二段362號","121.42868","25.0636916666667"
"222003","436-BY","2016/12/30 18:46:55","新北市深坑區翠谷街17巷36號","121.62553","25.009965"
"222001","628-TS","2016/12/30 18:46:56","新北市深坑區北深路一段32-19號","121.638466666667","25.0107266666667"
"222002","659-BX","2016/12/30 18:47:04","新北市深坑區文山路一段62巷3號","121.622913333333","25.0008566666667"
"231060","001-UM","2016/12/30 18:46:59","新北市新店區安華路28-1號","121.519433333333","24.9609766666667"
"231045","002-UM","2016/12/30 18:46:54","新北市新店區安華路28-1號","121.519693333333","24.9608783333333"
"231056","0291-UT","2016/12/30 18:47:04","新北市新店區大豐路68巷40號","121.538215","24.9802766666667"
"231043","046-UY","2016/12/30 18:47:09","新北市新店區安康路一段355號","121.519978333333","24.96357"
"231040","106-UY","2016/12/30 18:47:07","新北市新店區環河路121號","121.529821666667","24.9717766666667"
"231064","107-UY","2016/12/30 18:47:05","新北市新店區安華路28-1號","121.519906666667","24.961065"
"231054","108-UY","2016/12/30 18:46:58","新北市新店區安康路一段201-1號","121.526218333333","24.9629466666667"
"231046","110-UY","2016/12/30 18:46:59","新北市新店區直潭二街1號","121.535508333333","24.943185"
"231049","187-VK","2016/12/30 18:47:09","新北市新店區中央路98-1號","121.53163","24.9756816666667"
"231065","192-VK","2016/12/30 18:46:57","新北市新店區安康路二段393號","121.494243333333","24.9539366666667"
"231048","256-BX","2016/12/30 18:46:56","新北市新店區北新路二段96號","121.542976666667","24.9731116666667"
"231042","268-BY","2016/12/30 18:47:04","新北市新店區中正路71號","121.543446666667","24.96983"
"231058","3713-VJ","2016/12/30 18:47:04","新北市新店區新店路39號","121.540326666667","24.9528816666667"
"231066","4715-K9","2016/12/30 18:47:04","新北市新店區安豐路22巷4號","121.501456666667","24.9561"
"231067","4772-VM","2016/12/30 18:47:10","新北市新店區安華路3號","121.519061666667","24.9604433333333"
"231051","513-UM","2016/12/30 18:46:58","新北市新店區環河路121號","121.529981666667","24.9716716666667"
"231057","515-UM","2016/12/30 18:46:58","新北市新店區金興路40號","121.552603333333","24.932105"
"231059","617-UM","2016/12/30 18:47:02","新北市新店區安華路28-1號","121.519388333333","24.960915"
"231041","618-UM","2016/12/30 16:08:32","新北市新店區安華路28-1號","121.519286666667","24.9608383333333"
"231044","619-UM","2016/12/30 18:47:00","新北市新店區中正路111號","121.542466666667","24.9705983333333"
"231063","641-BX","2016/12/30 18:46:57","新北市新店區安華路1-1號","121.519478333333","24.9604416666667"
"231050","718-UY","2016/12/30 18:47:06","新北市新店區安康路一段94-1號","121.527665","24.962135"
"231053","719-UM","2016/12/30 18:46:57","新北市新店區新烏路一段106號","121.545836666667","24.9363516666667"
"231062","719-UY","2016/12/30 18:47:13","新北市新店區安華路28-1號","121.519113333333","24.961225"
"231061","897-TW","2016/12/30 18:47:06","新北市新店區安忠路86-1號","121.511891666667","24.9584766666667"
"231055","AKT-0513","2016/12/30 18:47:12","新北市新店區新生街37號","121.53937","24.9669416666667"
"241006","398-BY","2016/12/30 18:37:44","新北市三重區車路頭街135-1號","121.48429","25.07615"
"235066","003-UY","2016/12/30 18:47:04","新北市中和區水源路34巷2號","121.504781666667","25.00345"
"235064","005-UY","2016/12/30 18:47:11","新北市中和區連城路139巷63號","121.496888333333","24.9971083333333"
"235063","006-UY","2016/12/30 18:47:09","新北市中和區連城路401號","121.48619","24.9959566666667"
"235056","096-UM","2016/12/30 18:47:09","新北市中和區員山路611巷1號","121.477853333333","25.0112933333333"
"235039","097-UM","2016/12/30 18:46:55","新北市中和區安樂路139號","121.51445","24.996655"
"235065","098-UM","2016/12/30 18:46:55","新北市中和區莊敬路33巷36弄2號","121.500091666667","25.0064383333333"
"235040","150-BY","2016/12/30 18:47:08","新北市中和區保健路78號","121.511675","24.99639"
"235058","151-BY","2016/12/30 18:47:14","新北市中和區員山路111號","121.480873333333","24.9947533333333"
"235055","183-VK","2016/12/30 18:47:04","新北市中和區民生街93-2號","121.468521666667","25.00478"
"235038","185-VK","2016/12/30 18:47:08","新北市中和區立人街14巷40弄8號","121.519073333333","24.9957766666667"
"235049","186-VK","2016/12/30 18:46:57","新北市中和區景安路157號","121.505391666667","24.9949283333333"
"235067","255-BX","2016/12/30 18:47:10","新北市中和區中正路899號","121.484148333333","25.0048633333333"
"235072","301-VK","2016/12/30 18:46:57","新北市中和區連城路128號","121.495956666667","24.999205"
"235043","352-BY","2016/12/30 18:47:03","新北市中和區景平路155號","121.514066666667","24.9921216666667"
"235051","376-QA","2016/12/30 18:47:12","新北市中和區興南路二段114巷10弄10號","121.504005","24.9846983333333"
"235068","377-QA","2016/12/30 18:47:00","新北市中和區中正路175號","121.497533333333","24.9935216666667"
"235061","378-QA","2016/12/30 18:47:08","新北市中和區民享街41號","121.474008333333","25.003065"
"235050","4979-A6","2016/12/30 18:46:54","新北市中和區景新街496巷30弄15號","121.512983333333","24.9855466666667"
"235069","4980-A6","2016/12/30 18:47:04","新北市中和區泰和街27號","121.499368333333","24.9999783333333"
"235042","551-UM","2016/12/30 18:47:06","新北市中和區成功路127巷1號","121.526325","24.99105"
"235070","558-UM","2016/12/30 18:47:10","新北市中和區南華路57號","121.504258333333","24.9969733333333"
"235045","565-BX","2016/12/30 18:47:05","新北市中和區南山路236巷15號","121.50571","24.988745"
"235054","640-BX","2016/12/30 18:46:52","新北市中和區莒光路113號","121.472426666667","25.0025"
"235060","647-TV","2016/12/30 18:47:08","新北市中和區中山路二段519號","121.481835","25.0051466666667"
"235047","732-UM","2016/12/30 18:43:25","新北市中和區南山路300號","121.507863333333","24.98712"
"235046","733-UM","2016/12/30 18:46:56","新北市中和區景安路209號","121.504588333333","24.991795"
"235071","783-BX","2016/12/30 18:47:03","新北市中和區員山路36巷16-3號","121.485156666667","24.9912333333333"
"235062","800-TS","2016/12/30 18:47:05","新北市中和區景平路703巷2弄2號","121.496198333333","25.0034983333333"
"235057","801-TS","2016/12/30 18:47:08","新北市中和區員山路327巷48號","121.480256666667","25.001785"
"235052","805-TS","2016/12/30 18:47:03","新北市中和區興南路二段132號","121.50425","24.98337"
"235048","896-TW","2016/12/30 18:46:54","新北市中和區中正路3號","121.503426666667","24.9931883333333"
"235053","900-TW","2016/12/30 18:47:04","新北市中和區莒光路211-39號","121.470256666667","24.9931683333333"
"235037","AAC-213","2016/12/30 18:47:06","新北市中和區景德街76號","121.51664","24.99154"
"235059","AAC-215","2016/12/30 18:46:58","新北市中和區錦和路408號","121.491101666667","24.989765"
"220068","013-TV","2016/12/30 18:46:59","新北市板橋區民生路二段36-1號","121.47241","25.0166316666667"
"220065","072-UY","2016/12/30 18:47:02","新北市板橋區民生路二段17號","121.472541666667","25.016375"
"220086","073-UY","2016/12/30 18:47:06","新北市板橋區南雅西路二段192巷3號","121.452035","25.0144666666667"
"220106","075-UY","2016/12/30 15:08:28","新北市板橋區民生路二段120號","121.470455","25.0198616666667"
"247008","546-UM","2016/12/30 18:47:09","新北市五股區中興路三段5號","121.449191666667","25.0808383333333"
"247016","500-BY","2016/12/30 18:45:37","新北市五股區中興路三段5號","121.449236666667","25.0808366666667"
"247004","341-TH","2016/12/30 18:34:48","新北市五股區中興路三段2巷10號","121.448938333333","25.0814716666667"
"247024","336-TH","2016/12/30 18:06:04","新北市五股區中興路三段5號","121.449375","25.0806466666667"
"247012","057-VK","2016/12/30 18:47:12","新北市五股區成洲五路38號","121.45341","25.1012783333333"
"226004","205-ST","2016/12/30 18:47:02","新北市平溪區平溪里平溪街22號","121.738803333333","25.0253"
"228002","585-TW","2016/12/30 18:40:58","新北市貢寮區福連里香蘭街16-2號","121.98226","25.0221333333333"
"228001","663-BX","2016/12/30 18:46:59","新北市貢寮區仁理村研海街12-1號","121.92376","25.0516383333333"
"228003","828-UM","2016/12/30 18:45:54","新北市貢寮區和美里龍洞街53號","121.912525","25.1135"
"224010","AGQ-8101","2016/12/30 18:47:08","新北市瑞芳區烏勢巷124號","121.84656","25.1087766666667"
"224006","676-BX","2016/12/30 18:46:48","新北市瑞芳區民生街18號","121.805861666667","25.107545"
"224007","285-BY","2016/12/30 18:47:07","新北市瑞芳區大埔路台北新城11號","121.764618333333","25.1006683333333"
"224009","275-VK","2016/12/30 18:46:57","新北市瑞芳區祈堂路2號","121.859655","25.1115366666667"
"224008","273-VK","2016/12/30 18:47:04","新北市瑞芳區逢甲路432-1號","121.798153333333","25.1162533333333"
"224005","271-BY","2016/12/30 18:46:58","新北市瑞芳區瑞濱路87號","121.820733333333","25.1210183333333"
"227003","642-TC","2016/12/30 18:47:05","新北市雙溪區平林里梅竹蹊3號","121.862876666667","25.03485"
"227011","030-BX","2016/12/30 18:47:01","新北市雙溪區牡丹里下坑11號","121.851015","25.0561816666667"
"253006","032-BX","2016/12/30 18:46:56","新北市石門區下員坑28-6號","121.515216666667","25.283305"
"253005","295-VK","2016/12/30 18:47:03","新北市石門區中山路28號","121.565716666667","25.289925"
"208003","665-BX","2016/12/30 18:47:11","新北市金山區中山路340號","121.633536666667","25.2253216666667"
"208001","761-BX","2016/12/30 18:47:01","新北市金山區文化三路66巷2弄1號","121.634261666667","25.2256966666667"
"251009","008-UM","2016/12/30 18:42:39","新北市淡水區中山北路一段163號","121.443528333333","25.1776783333333"
"251013","180-VK","2016/12/30 18:47:12","新北市淡水區安子內5號","121.48319","25.2144616666667"
"251008","181-VK","2016/12/30 18:47:01","新北市淡水區埤島7-2號","121.444751666667","25.1923633333333"
"251010","413-VK","2016/12/30 18:47:12","新北市淡水區沙崙路11號","121.421146666667","25.1812416666667"
"251012","441-VK","2016/12/30 18:46:54","新北市淡水區中山北路一段168號","121.444416666667","25.17882"
"251015","442-VK","2016/12/30 18:46:50","新北市淡水區興福寮66巷115號","121.48746","25.1615366666667"
"251001","559-UM","2016/12/30 18:47:08","新北市淡水區自強路78-1號","121.462863333333","25.1279883333333"
"251007","577-R6","2016/12/30 18:47:07","新北市淡水區中正東路二段161巷8弄11號","121.462046666667","25.14493"
"251011","650-BX","2016/12/30 18:47:03","新北市淡水區鄧公路30巷2弄30號","121.453818333333","25.16904"
"251002","672-BX","2016/12/30 18:47:05","新北市淡水區學府路71號","121.448393333333","25.1697783333333"
"251003","673-BX","2016/12/30 18:46:37","新北市淡水區大義街3號","121.443841666667","25.1781016666667"
"207003","550-UM","2016/12/30 18:47:08","新北市萬里區大鵬里頂社24-5號","121.658148333333","25.20902"
"207004","225-TW","2016/12/30 18:47:10","新北市萬里區萬里里獅頭路23號","121.693528333333","25.1781783333333"
"252002","178-VK","2016/12/30 18:47:01","新北市三芝區中正路一段112號","121.504835","25.2563483333333"
"252003","249-BX","2016/12/30 18:47:04","新北市三芝區後厝里土地公坑55-10號","121.459633333333","25.2466733333333"
"252001","292-VK","2016/12/30 18:47:02","新北市三芝區中正路三段30號","121.502283333333","25.2524866666667"
"208002","170-UY","2016/12/30 18:47:11","新北市金山區信義路61號","121.635861666667","25.2190533333333"
"237004","078-UY","2016/12/30 18:47:05","新北市三峽區有木31號","121.43058","24.863275"
"237007","153-BY","2016/12/30 18:46:55","新北市三峽區柑樹路2巷3號","121.362348333333","24.905785"
"237009","210-TH","2016/12/30 18:47:10","新北市三峽區中山路59號","121.367606666667","24.9347283333333"
"237013","252-BX","2016/12/30 18:46:59","新北市三峽區光明路69巷25號","121.376623333333","24.9292583333333"
"237012","275-BY","2016/12/30 18:47:02","新北市三峽區三樹路340號","121.38398","24.9433433333333"
"237008","302-VK","2016/12/30 18:46:54","新北市三峽區白雞33-48號","121.370866666667","24.9124566666667"
"237014","433-BY","2016/12/30 18:47:06","新北市三峽區隆恩街176號","121.362338333333","24.942695"
"237006","5529-G3","2016/12/30 18:47:05","新北市三峽區溪東路233巷4弄25號","121.407425","24.934"
"237011","572-TV","2016/12/30 18:47:02","新北市三峽區溪東路372號","121.413776666667","24.92796"
"237015","649-BX","2016/12/30 18:47:02","新北市三峽區建安107-5號","121.456953333333","24.9224483333333"
"237010","706-TV","2016/12/30 18:47:03","新北市三峽區復興路313號","121.365123333333","24.938835"
"237005","AKY-6261","2016/12/30 18:47:09","新北市三峽區復興路36號","121.374088333333","24.936335"
"236072","105-UM","2016/12/30 18:46:52","新北市土城區永豐路157巷1號","121.467388333333","24.9818216666667"
"236043","107-UM","2016/12/30 18:47:02","新北市土城區裕民路57號","121.448915","24.9879866666667"
"236059","137-TH","2016/12/30 18:46:55","新北市土城區中央路四段3號","121.425633333333","24.9627916666667"
"236079","166-UM","2016/12/30 18:47:02","新北市土城區頂埔街62號","121.418058333333","24.9597966666667"
"236031","253-BX","2016/12/30 18:47:08","新北市土城區中央路三段57號","121.439061666667","24.969465"
"236027","269-VK","2016/12/30 18:46:59","新北市土城區農豐街14號","121.44258","24.97391"
"236015","270-VK","2016/12/30 18:47:07","新北市土城區清水路278巷15號","121.462721666667","24.9827333333333"
"236039","271-VK","2016/12/30 18:47:03","新北市土城區明德路一段283號","121.460696666667","24.9773966666667"
"236022","401-BY","2016/12/30 18:47:13","新北市土城區延吉街253巷31號","121.468135","24.9836633333333"
"236050","913-UM","2016/12/30 18:47:08","新北市土城區青雲路1-1號","121.460383333333","24.9898133333333"
"236063","915-UM","2016/12/30 18:47:01","新北市土城區延和路177巷11弄5號","121.469635","24.990805"
"236055","AAC-216","2016/12/30 18:47:02","新北市土城區裕民路145-1號","121.45176","24.9861883333333"
"242060","613-BX","2016/12/30 18:47:09","新北市新莊區新莊路666號","121.441615","25.0328516666667"
"242002","442-UM","2016/12/30 18:47:00","新北市新莊區環河路636-7號","121.437455","25.0116883333333"
"238023","601-UM","2016/12/30 18:46:55","新北市樹林區三福街114號","121.406506666667","25.0163833333333"
"238019","599-UM","2016/12/30 18:46:33","新北市樹林區中華路190-16號","121.411781666667","24.98059"
"238018","571-TV","2016/12/30 18:47:13","新北市樹林區樹新路205號","121.429348333333","24.9975533333333"
"238024","5061-A6","2016/12/30 18:46:53","新北市樹林區太順街79巷17號","121.417058333333","24.9780516666667"
"238022","312-TH","2016/12/30 18:47:07","新北市樹林區中華路379巷5號","121.412603333333","24.9796416666667"
"238021","311-TH","2016/12/30 18:47:07","新北市樹林區柑園街二段9號","121.388123333333","24.9558166666667"
"238025","303-VK","2016/12/30 18:47:06","新北市樹林區中山路三段22號","121.395601666667","24.9729733333333"
"238017","283-BY","2016/12/30 18:47:00","新北市樹林區光興街18號","121.412416666667","25.0029333333333"
"238014","282-BY","2016/12/30 18:46:58","新北市樹林區大安路111巷25號","121.423275","24.99764"
"238020","268-VK","2016/12/30 18:46:52","新北市樹林區俊安街19號","121.419786666667","25.0138133333333"
"238026","172-UY","2016/12/30 18:46:53","新北市樹林區中山路三段176號","121.388345","24.9696316666667"
"238016","169-UY","2016/12/30 18:47:13","新北市樹林區文化街28號","121.419361666667","24.987735"
"239007","AAC-297","2016/12/30 18:47:04","新北市鶯歌區中正一路193號","121.35316","24.9573033333333"
"239006","891-R6","2016/12/30 18:46:52","新北市鶯歌區鶯桃路201號","121.337341666667","24.95877"
"239008","527-UM","2016/12/30 18:46:55","新北市鶯歌區晨曦街37號","121.338153333333","24.9771966666667"
"239005","526-UM","2016/12/30 18:44:44","新北市鶯歌區鶯桃路二段58號","121.324988333333","24.972975"
"239001","417-VK","2016/12/30 18:47:02","新北市鶯歌區永明街66號","121.34086","24.9559816666667"
"239003","360-BY","2016/12/30 18:47:07","新北市鶯歌區鶯桃路551號","121.330371666667","24.9680033333333"
"239002","359-BY","2016/12/30 18:47:08","新北市鶯歌區中正一路187號","121.353483333333","24.9569783333333"
"239004","193-VK","2016/12/30 18:47:01","新北市鶯歌區中正三路302巷15號","121.32796","24.9360316666667"
"221008","129-UY","2016/12/30 18:47:04","新北市汐止區康寧街901號","121.651365","25.075055"
"221036","130-UY","2016/12/30 18:47:09","新北市汐止區忠孝東路339巷7號","121.664671666667","25.0701033333333"
"221015","131-UY","2016/12/30 18:47:02","新北市汐止區大同路二段685號","121.665105","25.0721683333333"
"221010","269-BY","2016/12/30 18:47:09","新北市汐止區康寧街901號","121.651548333333","25.0750516666667"
"221012","278-VK","2016/12/30 18:40:52","新北市汐止區長江街190號","121.660075","25.076735"
"221023","279-VK","2016/12/30 18:47:05","新北市汐止區康寧街753巷2弄26號","121.640393333333","25.0746483333333"
"221032","280-BY","2016/12/30 18:47:02","新北市汐止區橫科路241-3號","121.622316666667","25.04889"
"221027","281-BY","2016/12/30 18:47:10","新北市汐止區康寧街901號","121.650896666667","25.07523"
"221038","297-VK","2016/12/30 18:47:01","新北市汐止區汐萬路一段115巷1號","121.654395","25.0706383333333"
"221029","298-VK","2016/12/30 18:47:00","新北市汐止區樟樹一路93號","121.642126666667","25.0634783333333"
"221021","299-VK","2016/12/30 18:46:53","新北市汐止區新台五路一段131號","121.652456666667","25.0619533333333"
"221031","353-TW","2016/12/30 18:44:50","新北市汐止區大同路一段405-1號","121.641698333333","25.060185"
"221035","622-UM","2016/12/30 18:47:12","新北市汐止區大同路二段341-1號","121.656121666667","25.0672333333333"
"221025","623-UM","2016/12/30 18:47:13","新北市汐止區仁愛路34號","121.660435","25.0628666666667"
"221033","647-BX","2016/12/30 18:46:59","新北市汐止區南勢街1巷1號","121.627026666667","25.0374616666667"
"221002","707-TV","2016/12/30 18:46:59","新北市汐止區大同路一段215-1號","121.634001666667","25.0574816666667"
"221018","753-BX","2016/12/30 18:47:05","新北市汐止區茄苳路125號","121.667366666667","25.0705166666667"
"220079","145-BY","2016/12/30 18:46:56","新北市板橋區民權路202巷2弄1號","121.459485","25.01414"
"220088","145-RM","2016/12/30 18:46:54","新北市板橋區民生路二段120號","121.4706","25.0195483333333"
"220080","200-UY","2016/12/30 18:47:08","新北市板橋區大觀路二段265巷76弄20號","121.44176","24.9967166666667"
"220101","245-BX","2016/12/30 18:47:08","新北市板橋區民生路二段161巷7號","121.470155","25.0196316666667"
"220069","258-TC","2016/12/30 18:47:03","新北市板橋區民生路二段36-1號","121.472426666667","25.0168433333333"
"220056","276-BY","2016/12/30 18:44:26","新北市板橋區四川路一段336號","121.456991666667","24.9971183333333"
"220072","277-BY","2016/12/30 18:46:54","新北市板橋區大觀路三段133巷12號","121.433251666667","24.9939733333333"
"220071","283-VK","2016/12/30 18:46:56","新北市板橋區民生路二段36-1號","121.47259","25.0166616666667"
"220094","285-UM","2016/12/30 18:47:07","新北市板橋區民生路二段120號","121.470278333333","25.01983"
"220053","285-VK","2016/12/30 18:47:11","新北市板橋區民生路二段36-1號","121.472595","25.0166683333333"
"220083","286-VK","2016/12/30 18:46:58","新北市板橋區大觀路二段22號","121.446695","25.003225"
"220081","287-VK","2016/12/30 18:47:04","新北市板橋區大觀路一段28巷88號","121.449796666667","25.010975"
"220090","288-VK","2016/12/30 18:47:07","新北市板橋區民生路二段161巷5號","121.470276666667","25.019725"
"220061","293-UM","2016/12/30 18:46:59","新北市板橋區民生路二段17號","121.47268","25.016465"
"220084","296-UM","2016/12/30 18:47:03","新北市板橋區大觀路二段108號","121.443976666667","24.9993933333333"
"220075","297-UM","2016/12/30 18:42:11","新北市板橋區南雅南路二段144巷60號","121.45026","24.99738"
"220062","305-R5","2016/12/30 15:19:43","新北市板橋區民生路二段16號","121.472786666667","25.016355"
"220092","307-R5","2016/12/30 18:47:05","新北市板橋區民生路二段120號","121.470591666667","25.019725"
"220098","317-R6","2016/12/30 18:47:06","新北市板橋區民生路二段120號","121.470488333333","25.0195533333333"
"220064","486-VK","2016/12/30 18:47:10","新北市板橋區民生路二段36-1號","121.472618333333","25.0165516666667"
"242001","280-VK","2016/12/30 18:47:10","新北市新莊區環河路636-7號","121.437368333333","25.0112"
"220087","491-VK","2016/12/30 18:47:00","新北市板橋區民生路二段161巷1號","121.47013","25.01989"
"220035","560-BX","2016/12/30 18:47:09","新北市板橋區南雅西路二段301巷16號","121.451816666667","25.0162383333333"
"220103","561-BX","2016/12/30 18:47:10","新北市板橋區民生路二段120號","121.470495","25.0194666666667"
"220063","609-BX","2016/12/30 18:46:55","新北市板橋區民生路二段36-1號","121.472556666667","25.0166366666667"
"220091","637-BX","2016/12/30 18:46:54","新北市板橋區民生路二段188號","121.470203333333","25.0201983333333"
"220057","686-BX","2016/12/30 18:47:06","新北市板橋區民生路二段36-1號","121.472568333333","25.01658"
"220077","687-BX","2016/12/30 18:46:57","新北市板橋區大觀路二段365巷13號","121.440973333333","24.9980516666667"
"220054","741-BX","2016/12/30 18:47:11","新北市板橋區民生路二段36-1號","121.472511666667","25.0167466666667"
"220082","806-UM","2016/12/30 18:47:09","新北市板橋區篤行路二段81號","121.431708333333","24.9918466666667"
"220055","827-TW","2016/12/30 18:47:06","新北市板橋區民生路二段17號","121.47257","25.016385"
"220067","829-TW","2016/12/30 18:47:02","新北市板橋區民生路二段22號","121.472716666667","25.0165366666667"
"220102","830-TW","2016/12/30 18:46:58","新北市板橋區民生路二段161巷3號","121.470161666667","25.0197883333333"
"220096","831-TW","2016/12/30 18:47:01","新北市板橋區民生路二段120號","121.470361666667","25.0195733333333"
"220074","895-R6","2016/12/30 18:46:53","新北市板橋區南雅南路二段68號","121.453805","25.0020083333333"
"220073","985-R7","2016/12/30 18:47:05","新北市板橋區縣民大道一段96-1號","121.456333333333","25.0049833333333"
"220097","AAC-210","2016/12/30 18:47:08","新北市板橋區民生路二段120號","121.47045","25.0195883333333"
"220070","AAC-253","2016/12/30 18:47:04","新北市板橋區民生路二段36-1號","121.472578333333","25.0166366666667"
