"lineid","car","time","location","longitude","latitude"
"235060","647-TV","2016/12/30 21:49:53","新北市中和區員山路36巷16-3號","121.48512","24.991345"
"235026","800-TS","2016/12/30 20:56:46","新北市中和區員山路36巷16-3號","121.485028333333","24.9913733333333"
"226004","205-ST","2016/12/30 20:05:55","新北市平溪區石底里公園街18-3號","121.733216666667","25.02585"
"251004","009-UM","2016/12/30 22:17:27","新北市淡水區民族路33號","121.462295","25.1358433333333"
"251008","181-VK","2016/12/30 22:17:23","新北市淡水區學府路104號","121.449835","25.1718"
"251015","442-VK","2016/12/30 22:17:31","新北市淡水區水碓街3號","121.443088333333","25.1771183333333"
"251007","577-R6","2016/12/30 22:17:27","新北市淡水區北新路137號","121.449411666667","25.178875"
"242001","280-VK","2016/12/30 22:02:08","新北市新莊區環河路636-7號","121.437396666667","25.0111816666667"
