"lineid","car","time","location","longitude","latitude"
"234044","148-BY","2016/11/04 12:59:10","新北市永和區得和路373巷16弄1號","121.525196666667","25.0002566666667"
"234012","149-BY","2016/11/04 12:59:08","新北市永和區信義路14號","121.514475","25.0121266666667"
"234006","207-UY","2016/11/04 12:58:59","新北市永和區中山路一段50號","121.513265","25.0105966666667"
"234082","208-UY","2016/11/04 12:59:05","新北市中和區安樂路89號","121.51312","24.9946016666667"
"234078","298-R6","2016/11/04 12:59:00","新北市永和區國中路156號","121.522601666667","25.0067633333333"
"234062","337-UY","2016/11/04 12:58:56","新北市永和區秀朗路一段140號","121.517956666667","25.0034733333333"
"234084","338-UY","2016/11/04 12:58:53","新北市永和區永寧街127號","121.518063333333","25.0056366666667"
"234068","552-UM","2016/11/04 12:59:04","新北市永和區豫溪街57巷22號","121.517083333333","25.010935"
"234052","553-UM","2016/11/04 12:59:10","新北市永和區竹林路66巷2號","121.518296666667","25.01341"
"234016","745-BX","2016/11/04 12:59:10","新北市永和區永和路二段299號","121.516133333333","25.0161583333333"
"234028","746-BX","2016/11/04 12:59:09","新北市永和區四維街62號","121.524343333333","24.9982366666667"
"234036","838-RS","2016/11/04 12:59:09","新北市永和區民樂街77巷1號","121.527471666667","24.99679"
"234060","839-RS","2016/11/04 12:59:01","新北市永和區福和路307號","121.516276666667","25.00714"
"234072","840-RS","2016/11/04 12:59:09","新北市永和區環河東路二段100號","121.524156666667","25.0103533333333"
"234040","862-TW","2016/11/04 12:58:55","新北市永和區永貞路308號","121.511846666667","25.0048816666667"
"234048","863-TW","2016/11/04 12:58:54","新北市永和區文化路208號","121.510273333333","25.016545"
"234010","9373-KE","2016/11/04 12:59:11","新北市永和區文化路9巷22弄40號","121.514283333333","25.01456"
"248019","225-UY","2016/11/04 12:59:05","新北市五股區中興路二段83巷26-6號","121.460098333333","25.075295"
"234022","9380-KE","2016/11/04 12:58:58","新北市永和區竹林路75巷17號","121.520028333333","25.0140333333333"
"234076","969-R7","2016/11/04 12:58:56","新北市永和區民享街23巷3號","121.515823333333","24.9951016666667"
"234066","AAC-212","2016/11/04 12:59:02","新北市永和區永和路一段1號","121.513003333333","25.0051116666667"
"234001","AAC-295","2016/11/04 12:59:07","新北市永和區永平路38號","121.513053333333","25.0088016666667"
"244004","248-BX","2016/11/04 12:59:01","新北市林口區粉寮路16-3號","121.398155","25.0805416666667"
"231029","001-UM","2016/11/04 12:59:08","新北市新店區安華路28-1號","121.51954","24.96096"
"231006","002-UM","2016/11/04 12:59:03","新北市新店區安華路28-1號","121.519676666667","24.96089"
"231025","0291-UT","2016/11/04 12:58:53","新北市新店區安華路28-1號","121.519386666667","24.9612466666667"
"231004","046-UY","2016/11/04 12:58:52","新北市新店區安華路28-1號","121.519651666667","24.9607816666667"
"231001","106-UY","2016/11/04 12:59:07","新北市新店區安華路28-1號","121.519753333333","24.96081"
"231035","107-UY","2016/11/04 12:59:01","新北市新店區安華路28-1號","121.519775","24.9611366666667"
"231010","110-UY","2016/11/04 12:59:07","新北市新店區安華路28-1號","121.519453333333","24.9613166666667"
"231013","187-VK","2016/11/04 12:59:02","新北市新店區安華路28-1號","121.519598333333","24.9612183333333"
"231009","188-VK","2016/11/04 12:58:59","新北市新店區頂石厝路72號","121.535338333333","24.9184333333333"
"231036","192-VK","2016/11/04 12:59:00","新北市新店區安華路28-1號","121.519813333333","24.961015"
"231027","3713-VJ","2016/11/04 12:59:01","新北市新店區安華路28-1號","121.519333333333","24.960725"
"231037","4715-K9","2016/11/04 12:58:59","新北市新店區安華路28-1號","121.519458333333","24.96072"
"231018","513-UM","2016/11/04 12:59:12","新北市新店區安華路28-1號","121.519825","24.9612"
"231026","515-UM","2016/11/04 12:59:02","新北市新店區安華路28-1號","121.519686666667","24.9612666666667"
"231028","617-UM","2016/11/04 12:59:01","新北市新店區安華路28-1號","121.519501666667","24.96101"
"231002","618-UM","2016/11/04 11:23:17","新北市新店區安華路28-1號","121.519203333333","24.9611033333333"
"231005","619-UM","2016/11/04 12:59:06","新北市新店區安華路28-1號","121.519523333333","24.9608916666667"
"231034","641-BX","2016/11/04 12:59:11","新北市新店區安華路1-1號","121.519513333333","24.9605183333333"
"231016","718-UY","2016/11/04 12:58:59","新北市新店區安華路28-1號","121.51954","24.9616033333333"
"231032","719-UY","2016/11/04 12:59:05","新北市新店區安華路28-1號","121.519281666667","24.96132"
"231022","720-UM","2016/11/04 12:59:08","新北市新店區安華路28-1號","121.519285","24.9612966666667"
"231024","AKT-0513","2016/11/04 12:59:02","新北市新店區安華路28-1號","121.519445","24.9607183333333"
"235003","097-UM","2016/11/04 12:59:02","新北市中和區和城路一段271巷1號","121.48543","24.9917383333333"
"235029","098-UM","2016/11/04 12:58:59","新北市中和區中正路544號","121.48731","24.9944"
"235002","185-VK","2016/11/04 12:58:57","新北市中和區中正路281-6號","121.494386666667","24.9939233333333"
"235031","255-BX","2016/11/04 12:58:57","新北市中和區中山路二段471號","121.483398333333","25.0049616666667"
"235036","301-VK","2016/11/04 12:59:00","新北市中和區員山路36巷16-3號","121.48511","24.991325"
"235001","352-BY","2016/11/04 09:20:53","新北市中和區員山路36巷16-3號","121.485088333333","24.99133"
"235035","783-BX","2016/11/04 12:59:06","新北市中和區員山路36巷16-2號","121.48529","24.9911533333333"
"235017","911-UM","2016/11/04 10:04:57","新北市中和區員山路36巷16-2號","121.485303333333","24.9917333333333"
"223008","205-TH","2016/11/04 09:52:54","新北市石碇區小粗坑(潭邊里)9-2號","121.67848","24.9855683333333"
"223005","677-TV","2016/11/04 09:31:00","新北市石碇區小粗坑(潭邊里)9-2號","121.678998333333","24.986375"
"227003","400-TW","2016/11/04 08:32:48","新北市雙溪區三貂里政光路3-1號","121.850866666667","25.06303"
"227005","282-VK","2016/11/04 12:37:42","新北市雙溪區三貂里政光路3-1號","121.85082","25.06303"
"207002","749-BX","2016/11/04 12:59:11","新北市萬里區雙興里大坪路16號","121.636971666667","25.1648783333333"
"207001","291-VK","2016/11/04 12:59:10","新北市萬里區萬里里獅頭路23號","121.693265","25.1782666666667"
"207004","225-TW","2016/11/04 12:57:57","新北市新店區北宜路一段7號","121.538121666667","24.95829"
"208005","170-UY","2016/11/04 12:59:10","新北市金山區磺清路135號","121.639365","25.2277916666667"
"237001","252-BX","2016/11/04 12:59:11","新北市三峽區中山路459巷135號","121.349126666667","24.93301"
"237001","682-BX","2016/11/04 12:59:06","新北市三峽區中山路459巷135號","121.34879","24.932695"
"221018","753-BX","2016/11/04 12:58:57","新北市汐止區中興路144號","121.632865","25.0644933333333"
"220020","277-BY","2016/11/04 12:53:30","新北市板橋區華東街1-9號","121.44817","24.9950033333333"
"220010","305-R5","2016/11/04 12:51:22","新北市板橋區民生路二段36-1號","121.472571666667","25.0168833333333"
