"lineid","car","time","location","longitude","latitude"
"234044","148-BY","2016/11/04 13:47:10","新北市永和區成功路一段78號","121.5263","25.0033066666667"
"234012","149-BY","2016/11/04 13:47:08","新北市永和區保生路55號","121.50471","25.0106266666667"
"234006","207-UY","2016/11/04 13:46:59","新北市中和區中和路234號","121.506835","24.9995083333333"
"234082","208-UY","2016/11/04 13:46:57","新北市永和區福和路82-1號","121.522736666667","25.0080733333333"
"234078","298-R6","2016/11/04 13:47:00","新北市永和區林森路62號","121.52393","25.0042616666667"
"234062","337-UY","2016/11/04 13:46:56","新北市永和區中正路368巷22號","121.518531666667","25.0007283333333"
"234084","338-UY","2016/11/04 13:47:13","新北市永和區中正路513號","121.516916666667","25.0073766666667"
"234068","552-UM","2016/11/04 13:46:57","新北市永和區國光路6號","121.5198","25.0085383333333"
"234052","553-UM","2016/11/04 13:47:11","新北市永和區竹林路39巷26-2號","121.519196666667","25.0148383333333"
"234016","745-BX","2016/11/04 13:47:10","新北市永和區文化路123號","121.51227","25.0153433333333"
"234028","746-BX","2016/11/04 13:47:09","新北市永和區民生路22巷5號","121.522118333333","24.9972633333333"
"234036","838-RS","2016/11/04 13:47:09","新北市永和區成功路二段141號","121.526696666667","24.9978533333333"
"234060","839-RS","2016/11/04 13:47:01","新北市永和區中正路336號","121.517586666667","25.0000133333333"
"234072","840-RS","2016/11/04 13:47:09","新北市永和區豫溪街207巷2號","121.523808333333","25.0095566666667"
"234040","862-TW","2016/11/04 13:46:55","新北市永和區中和路305巷2弄1號","121.50668","25.0001883333333"
"234048","863-TW","2016/11/04 13:46:54","新北市永和區保安路264號","121.505891666667","25.0123283333333"
"249001","759-BX","2016/11/04 13:47:13","新北市八里區挖子尾街100號","121.411466666667","25.16522"
"248019","225-UY","2016/11/04 13:47:05","新北市五股區凌雲路三段88號","121.42889","25.11866"
"234022","9380-KE","2016/11/04 13:46:58","新北市永和區中正路605號","121.516508333333","25.0096616666667"
"234076","969-R7","2016/11/04 13:46:56","新北市永和區民族街43巷13號","121.5191","24.9984"
"234066","AAC-212","2016/11/04 13:47:02","新北市永和區中山路一段213號","121.508681666667","25.008015"
"234001","AAC-295","2016/11/04 13:47:07","新北市永和區永和路一段122號","121.513881666667","25.0078083333333"
"231029","001-UM","2016/11/04 13:47:08","新北市新店區安康路二段196-3號","121.510936666667","24.9598483333333"
"231006","002-UM","2016/11/04 13:47:03","新北市新店區北宜路一段190號","121.541133333333","24.95281"
"231025","0291-UT","2016/11/04 13:47:14","新北市新店區中央五街22號","121.52929","24.9745066666667"
"231004","046-UY","2016/11/04 13:47:12","新北市新店區寶橋路15號","121.5437","24.97399"
"231001","106-UY","2016/11/04 13:47:11","新北市新店區三民路128號","121.534776666667","24.9747483333333"
"231035","107-UY","2016/11/04 13:47:12","新北市新店區安忠路205巷8號","121.509635","24.9548466666667"
"231023","108-UY","2016/11/04 13:47:12","新北市新店區國校路51巷1號","121.538156666667","24.9546183333333"
"231010","110-UY","2016/11/04 13:47:07","新北市新店區平等街79號","121.535721666667","24.97225"
"231013","187-VK","2016/11/04 13:47:02","新北市新店區二十張路40-1號","121.537266666667","24.980775"
"231036","192-VK","2016/11/04 13:47:00","新北市新店區安祥路110巷30弄1號","121.473996666667","24.9564116666667"
"231003","268-BY","2016/11/04 13:46:57","新北市新店區中興路一段159號","121.542496666667","24.9640216666667"
"231012","278-BY","2016/11/04 13:46:56","新北市新店區德正街27巷29弄17號","121.544956666667","24.9718483333333"
"231038","3712-VJ","2016/11/04 13:46:55","新北市新店區安華路30巷1號","121.519581666667","24.9592833333333"
"231027","3713-VJ","2016/11/04 13:47:01","新北市新店區國校路77號","121.538556666667","24.9522866666667"
"231037","4715-K9","2016/11/04 13:46:59","新北市新店區安康路三段466-2號","121.48408","24.9508966666667"
"231018","513-UM","2016/11/04 13:47:11","新北市新店區中正路409巷30號","121.53362","24.977"
"231026","515-UM","2016/11/04 13:47:02","新北市新店區自由街47號","121.534696666667","24.97363"
"231028","617-UM","2016/11/04 13:47:01","新北市新店區安和路三段6-1號","121.518078333333","24.980805"
"231002","618-UM","2016/11/04 13:46:57","新北市新店區溪園路245-6號","121.52526","24.9832066666667"
"231005","619-UM","2016/11/04 13:47:06","新北市新店區寶中路99號","121.548873333333","24.980205"
"231034","641-BX","2016/11/04 13:47:11","新北市新店區達觀路16號","121.503075","24.9408883333333"
"231016","718-UY","2016/11/04 13:47:00","新北市新店區竹林路81號","121.55401","24.95092"
"231032","719-UY","2016/11/04 13:47:05","新北市新店區莒光路44巷21弄11號","121.519298333333","24.9527433333333"
"231022","720-UM","2016/11/04 13:47:08","新北市新店區自強路36號","121.546083333333","24.9260233333333"
"231030","897-TW","2016/11/04 13:47:14","新北市新店區安康路一段50號","121.530206666667","24.9612016666667"
"231024","AKT-0513","2016/11/04 13:47:02","新北市新店區新生街13巷36號","121.539136666667","24.966825"
"235030","003-UY","2016/11/04 13:47:01","新北市中和區水源路7巷4號","121.504023333333","25.0037383333333"
"235027","006-UY","2016/11/04 13:47:03","新北市中和區連城路347巷45號","121.488631666667","24.9947033333333"
"235020","096-UM","2016/11/04 13:46:55","新北市中和區新民街94巷11號","121.481243333333","25.0088833333333"
"235003","097-UM","2016/11/04 13:47:02","新北市中和區大勇街25巷15弄21-3號","121.51499","24.99351"
"235029","098-UM","2016/11/04 13:46:59","新北市中和區中山路二段2巷49號","121.502138333333","25.00724"
"235022","151-BY","2016/11/04 13:46:40","新北市中和區圓通路369巷63號","121.490606666667","24.983335"
"235019","183-VK","2016/11/04 13:46:58","新北市中和區國光街102巷40號","121.471175","25.000625"
"235002","185-VK","2016/11/04 13:46:57","新北市中和區立人街63號","121.520131666667","24.9942866666667"
"235013","186-VK","2016/11/04 13:47:01","新北市中和區景安路147號","121.505523333333","24.995395"
"235031","255-BX","2016/11/04 13:46:57","新北市中和區新生街220巷4號","121.482981666667","24.9984983333333"
"235008","293-VK","2016/11/04 13:47:08","新北市中和區中興街228巷6號","121.500578333333","24.9898083333333"
"235036","301-VK","2016/11/04 13:47:00","新北市中和區連城路167號","121.495563333333","24.998375"
"235001","352-BY","2016/11/04 09:20:53","新北市中和區員山路36巷16-3號","121.485088333333","24.99133"
"235032","377-QA","2016/11/04 13:47:08","新北市中和區中正路167巷52號","121.498786666667","24.9925433333333"
"235025","378-QA","2016/11/04 13:47:08","新北市中和區民享街47號","121.47404","25.0027716666667"
"235014","4979-A6","2016/11/04 13:46:55","新北市中和區忠孝街62巷9弄10號","121.51313","24.9839766666667"
"235033","4980-A6","2016/11/04 13:47:10","新北市中和區南山路52巷28號","121.501163333333","24.9972916666667"
"235006","551-UM","2016/11/04 13:46:58","新北市中和區成功路127巷16號","121.527033333333","24.99089"
"235034","558-UM","2016/11/04 13:46:58","新北市中和區南華路5號","121.501995","24.995455"
"235009","565-BX","2016/11/04 13:47:07","新北市中和區復興路1號","121.506438333333","24.9896416666667"
"235007","611-BX","2016/11/04 13:47:05","新北市中和區景平路255號","121.508635","24.9929266666667"
"235018","640-BX","2016/11/04 13:47:06","新北市中和區莒光路89號","121.472296666667","25.0032466666667"
"235024","647-TV","2016/11/04 13:47:05","新北市中和區員山路483號","121.480041666667","25.0054266666667"
"235011","732-UM","2016/11/04 02:02:07","新北市中和區員山路36巷13號","121.484115","24.9910716666667"
"235010","733-UM","2016/11/04 13:46:55","新北市中和區中正路271-1號","121.49577","24.9936083333333"
"235035","783-BX","2016/11/04 13:47:06","新北市中和區立德街100號","121.487236666667","25.0082533333333"
"235026","800-TS","2016/11/04 13:46:59","新北市中和區景平路703巷1號","121.49623","25.003465"
"235021","801-TS","2016/11/04 13:47:10","新北市中和區員山路327巷46號","121.480431666667","25.001665"
"235005","802-TS","2016/11/04 13:47:02","新北市中和區永貞路249巷12號","121.512521666667","25.0036916666667"
"235016","805-TS","2016/11/04 13:47:02","新北市中和區興南路二段133號","121.505273333333","24.9841716666667"
"235012","896-TW","2016/11/04 13:47:05","新北市中和區中正路81號","121.500721666667","24.9934366666667"
"235017","900-TW","2016/11/04 13:46:54","新北市中和區莒光路211-39號","121.470328333333","24.9931983333333"
"235017","911-UM","2016/11/04 10:04:57","新北市中和區員山路36巷16-2號","121.485303333333","24.9917333333333"
"235001","AAC-213","2016/11/04 13:46:55","新北市中和區景平路111巷8號","121.516566666667","24.9911416666667"
"235023","AAC-215","2016/11/04 13:47:12","新北市中和區錦和路354巷3號","121.490333333333","24.9915016666667"
"220016","013-TV","2016/11/04 13:47:00","新北市板橋區民生路二段15-1號","121.472753333333","25.0162816666667"
"220013","072-UY","2016/11/04 13:47:00","新北市板橋區觀光街8號","121.472288333333","25.01648"
"220034","073-UY","2016/11/04 13:46:54","新北市板橋區南雅西路二段180巷9號","121.452066666667","25.014025"
"220105","075-UY","2016/11/04 02:15:09","新北市板橋區民生路二段120號","121.470575","25.0196116666667"
"247017","893-R6","2016/11/04 13:47:13","新北市蘆洲區復興路323巷366號","121.474381666667","25.0941533333333"
"247007","546-UM","2016/11/04 13:47:01","新北市蘆洲區集賢路269巷4-1號","121.481415","25.083605"
"247015","500-BY","2016/11/04 13:47:05","新北市蘆洲區民權路54-1號","121.475338333333","25.08699"
"247003","341-TH","2016/11/04 13:47:05","新北市蘆洲區中原路46號","121.459256666667","25.0824016666667"
"247005","339-TH","2016/11/04 13:47:11","新北市蘆洲區和平路77號","121.469271666667","25.0790433333333"
"247021","337-TH","2016/11/04 13:47:05","新北市蘆洲區中正路263巷2號","121.467338333333","25.087425"
"247011","057-VK","2016/11/04 13:47:06","新北市蘆洲區復興路323巷150號","121.480253333333","25.09554"
"247019","053-VK","2016/11/04 13:42:19","新北市蘆洲區復興路323巷150號","121.48014","25.0953983333333"
"247009","007-UY","2016/11/04 13:47:11","新北市三重區五華街339號","121.484703333333","25.090425"
"247013","001-UY","2016/11/04 13:47:02","新北市蘆洲區民義街53號","121.472845","25.089765"
"223008","205-TH","2016/11/04 09:52:54","新北市石碇區小粗坑(潭邊里)9-2號","121.67848","24.9855683333333"
"227003","400-TW","2016/11/04 08:32:48","新北市雙溪區三貂里政光路3-1號","121.850866666667","25.06303"
"208004","761-BX","2016/11/04 13:46:59","新北市金山區山城路1巷3號","121.596186666667","25.20069"
"207002","749-BX","2016/11/04 13:47:10","新北市萬里區崁腳里崁腳路166號","121.64517","25.1560466666667"
"207001","291-VK","2016/11/04 13:47:09","新北市金山區月眉21-1號","121.635833333333","25.214775"
"208005","170-UY","2016/11/04 13:47:10","新北市金山區海興路6-1號","121.629873333333","25.2370083333333"
"237001","682-BX","2016/11/04 12:59:20","新北市三峽區中山路459巷135號","121.348788333333","24.9326966666667"
"236067","105-UM","2016/11/04 13:47:09","新北市土城區城林路6巷80號","121.438491666667","24.9797916666667"
"236041","107-UM","2016/11/04 13:47:04","新北市土城區城林路6巷80號","121.438333333333","24.9795466666667"
"236077","166-UM","2016/11/04 13:46:55","新北市土城區城林路6巷80號","121.438315","24.979755"
"236029","253-BX","2016/11/04 13:46:58","新北市土城區城林路6巷80號","121.438448333333","24.97982"
"236025","269-VK","2016/11/04 13:46:55","新北市土城區中華路二段210號","121.43761","24.9686966666667"
"236013","270-VK","2016/11/04 13:47:12","新北市土城區城林路6巷80號","121.438538333333","24.9797483333333"
"236035","271-VK","2016/11/04 13:47:00","新北市土城區城林路6巷80號","121.438668333333","24.9797816666667"
"236019","401-BY","2016/11/04 13:47:03","新北市土城區城林路6巷80號","121.438543333333","24.9798566666667"
"236057","912-UM","2016/11/04 13:47:08","新北市土城區城林路6巷80號","121.438375","24.9798183333333"
"236047","913-UM","2016/11/04 13:47:10","新北市土城區城林路6巷80號","121.438336666667","24.979775"
"236061","915-UM","2016/11/04 13:46:56","新北市土城區城林路6巷80號","121.438583333333","24.9796916666667"
"236054","AAC-216","2016/11/04 13:47:12","新北市土城區城林路6巷80號","121.438426666667","24.97974"
"242013","350-TH","2016/11/04 13:47:07","新北市新莊區自治街35號","121.45409","25.04802"
"221018","753-BX","2016/11/04 13:46:57","新北市汐止區福德一路392巷56號","121.626176666667","25.06344"
"220027","145-BY","2016/11/04 13:47:06","新北市板橋區公館街18號","121.457075","25.0125183333333"
"220037","145-RM","2016/11/04 13:47:10","新北市板橋區民生路二段120號","121.470573333333","25.0195916666667"
"220028","200-UY","2016/11/04 13:47:01","新北市板橋區大觀路二段265巷76弄5號","121.442201666667","24.9965833333333"
"220050","245-BX","2016/11/03 21:06:10","新北市板橋區民生路二段161巷1號","121.470281666667","25.0201366666667"
"220017","258-TC","2016/11/04 13:47:09","新北市板橋區民生路二段36-1號","121.472478333333","25.0166366666667"
"220020","277-BY","2016/11/04 13:47:02","新北市板橋區金門街49-1號","121.433601666667","24.9933533333333"
"220043","283-UM","2016/11/04 13:47:00","新北市板橋區民生路二段120號","121.470568333333","25.01958"
"220019","283-VK","2016/11/04 13:47:14","新北市板橋區民生路二段17號","121.472458333333","25.01643"
"220001","285-VK","2016/11/04 13:46:59","新北市板橋區民生路二段89-9號","121.471238333333","25.0169633333333"
"220031","286-VK","2016/11/04 13:47:02","新北市板橋區大觀路二段22巷2號","121.446366666667","25.00339"
"220029","287-VK","2016/11/04 13:47:14","新北市板橋區華東街300號","121.452773333333","25.0027633333333"
"220039","288-VK","2016/11/04 13:47:00","新北市板橋區民生路二段161巷9號","121.470298333333","25.0195216666667"
"220009","293-UM","2016/11/04 12:53:40","新北市板橋區觀光街10號","121.471901666667","25.01646"
"220032","296-UM","2016/11/04 13:47:00","新北市板橋區大觀路二段148巷26號","121.441941666667","24.9998066666667"
"220023","297-UM","2016/11/04 13:47:01","新北市板橋區華東街308號","121.452808333333","25.0031216666667"
"220046","299-UM","2016/11/04 13:47:00","新北市板橋區民生路二段161巷11號","121.4702","25.0193466666667"
"220010","305-R5","2016/11/04 13:47:02","新北市板橋區民生路二段22號","121.472731666667","25.0165516666667"
"220041","307-R5","2016/11/04 13:47:06","新北市板橋區民生路二段161巷17號","121.470288333333","25.01933"
"220047","317-R6","2016/11/04 13:47:06","新北市板橋區民生路二段161巷1號","121.469891666667","25.0197633333333"
"220012","486-VK","2016/11/04 13:47:04","新北市板橋區民生路二段36-1號","121.472506666667","25.01683"
"220038","487-VK","2016/11/04 13:46:58","新北市板橋區民生路二段120號","121.470548333333","25.01965"
"220036","491-VK","2016/11/04 13:47:07","新北市板橋區民生路二段120號","121.47046","25.0197333333333"
"220104","560-BX","2016/11/04 13:47:10","新北市板橋區南雅西路二段301巷43-1號","121.451823333333","25.0166616666667"
"220011","609-BX","2016/11/04 13:46:55","新北市板橋區觀光街8號","121.472315","25.0165166666667"
"220040","637-BX","2016/11/04 13:46:56","新北市板橋區民生路二段161巷1號","121.470131666667","25.0201633333333"
"220005","686-BX","2016/11/04 13:46:18","新北市板橋區民生路二段36-1號","121.472588333333","25.0166216666667"
"220025","687-BX","2016/11/04 13:47:10","新北市板橋區大觀路二段174巷157號","121.441565","25.0028216666667"
"220042","689-BX","2016/11/04 13:47:02","新北市板橋區民生路二段120號","121.470483333333","25.0196983333333"
"220002","741-BX","2016/11/04 13:47:00","新北市板橋區民生路二段36-1號","121.472376666667","25.0166266666667"
"220030","806-UM","2016/11/04 13:47:04","新北市板橋區篤行路二段59號","121.43172","24.992455"
"220003","827-TW","2016/11/04 13:47:01","新北市板橋區民生路二段36-1號","121.472606666667","25.0167533333333"
"220014","829-TW","2016/11/03 21:13:36","新北市板橋區民生路二段17號","121.472765","25.0163633333333"
"220051","830-TW","2016/11/04 13:47:03","新北市板橋區民生路二段120號","121.47046","25.0195733333333"
"220045","831-TW","2016/11/04 03:15:02","新北市板橋區民生路二段120號","121.470418333333","25.0194716666667"
"220022","895-R6","2016/11/04 13:47:01","新北市板橋區南雅南路一段78號","121.455245","25.0050533333333"
"220021","985-R7","2016/11/04 13:47:14","新北市板橋區南雅南路二段1-1號","121.454681666667","25.0036533333333"
"220018","AAC-253","2016/11/04 13:47:00","新北市板橋區民生路二段36-1號","121.472476666667","25.0166383333333"
