"lineid","car","time","location","longitude","latitude"
"234052","553-UM","2016/11/04 16:00:03","新北市永和區福和路1號","121.525898333333","25.0097383333333"
"249005","172-UM","2016/11/04 16:49:48","新北市八里區大堀湖1-5號","121.422801666667","25.15496"
"249001","173-UM","2016/11/04 16:49:51","新北市八里區博物館路10-1號","121.415265","25.1639816666667"
"249004","303-UY","2016/11/04 16:50:03","新北市八里區博物館路15號","121.415245","25.1636266666667"
"249002","305-UY","2016/11/04 16:49:46","新北市八里區牛寮埔31號","121.42987","25.1457416666667"
"249003","593-UM","2016/11/04 16:49:47","新北市八里區博物館路15號","121.415296666667","25.1639733333333"
"249001","759-BX","2016/11/04 15:02:16","新北市八里區博物館路10-1號","121.415043333333","25.1642633333333"
"244006","080-UY","2016/11/04 16:49:18","新北市林口區粉寮路17-3號","121.39867","25.0809316666667"
"231056","0291-UT","2016/11/04 16:03:52","新北市新店區安華路28-1號","121.51915","24.9612666666667"
"231046","110-UY","2016/11/04 16:49:58","新北市新店區灣潭路15-8號","121.540668333333","24.938785"
"241011","013-R5","2016/11/04 16:50:00","新北市三重區仁愛街55巷89號","121.500065","25.0729716666667"
"241028","022-UY","2016/11/04 16:49:47","新北市三重區光興街91號","121.497381666667","25.060015"
"241008","059-VK","2016/11/04 16:49:48","新北市三重區永福街179巷27號","121.477941666667","25.0749116666667"
"241009","060-VK","2016/11/04 16:49:59","新北市三重區溪尾街222號","121.487793333333","25.08155"
"241031","061-VK","2016/11/04 16:49:59","新北市三重區新北大道一段15巷2號","121.48806","25.060405"
"241015","062-VK","2016/11/04 16:50:03","新北市三重區文化北路47號","121.498836666667","25.0655083333333"
"241017","063-VK","2016/11/04 16:49:59","新北市三重區國隆路7號","121.493425","25.0637433333333"
"241024","065-VK","2016/11/04 16:49:45","新北市三重區中正北路315巷6弄24號","121.47602","25.0722016666667"
"241026","066-VK","2016/11/04 16:49:48","新北市三重區和平街4號","121.500436666667","25.062605"
"241002","090-VK","2016/11/04 16:50:00","新北市三重區五華街1巷96號","121.49722","25.0807316666667"
"241003","091-VK","2016/11/04 16:49:53","新北市三重區五華街75巷14號","121.493233333333","25.0836283333333"
"241005","262-UM","2016/11/04 16:49:51","新北市三重區仁華街80巷23號","121.484466666667","25.08378"
"241016","266-UM","2016/11/04 16:50:01","新北市三重區大同北路115巷8號","121.494078333333","25.0644633333333"
"241022","267-UM","2016/11/04 16:50:00","新北市三重區貴陽街47巷2弄30號","121.484575","25.0634116666667"
"241018","268-UM","2016/11/04 16:50:04","新北市三重區正義北路302巷35號","121.49412","25.06951"
"241032","269-UM","2016/11/04 16:49:57","新北市三重區重陽路一段120巷44號","121.485148333333","25.06014"
"241013","270-UM","2016/11/04 16:49:50","新北市三重區仁壽街18號","121.496656666667","25.07346"
"241025","271-UM","2016/11/04 16:49:56","新北市三重區中正北路530巷27號","121.471936666667","25.0702616666667"
"241006","398-BY","2016/11/04 16:49:55","新北市三重區車路頭街122巷1號","121.483935","25.0752083333333"
"241007","412-TH","2016/11/04 16:50:00","新北市三重區三和路四段181巷58號","121.483921666667","25.0794616666667"
"241004","475-VK","2016/11/04 16:50:05","新北市三重區仁愛街403號","121.491008333333","25.0809783333333"
"241019","478-VK","2016/11/04 16:49:53","新北市三重區力行路一段179巷17弄1號","121.484986666667","25.0699216666667"
"241030","480-VK","2016/11/04 16:50:04","新北市三重區新興路4號","121.49276","25.05296"
"241023","545-UM","2016/11/04 16:50:04","新北市三重區新北大道一段206巷18號","121.482556666667","25.0622883333333"
"241001","547-UM","2016/11/04 16:50:00","新北市三重區仁政街54巷17號","121.492465","25.07689"
"241020","593-RM","2016/11/04 16:50:01","新北市三重區忠孝路二段34號","121.485811666667","25.071035"
"241014","597-RM","2016/11/04 16:49:57","新北市三重區長興街61號","121.501121666667","25.0688016666667"
"241012","941-UM","2016/11/04 16:49:55","新北市三重區仁興街11巷36號","121.500675","25.0743666666667"
"241029","942-UM","2016/11/04 16:49:49","新北市三重區集美街210-5號","121.491356666667","25.0544066666667"
"241033","AAC-255","2016/11/04 16:49:54","新北市三重區光華路69號","121.466493333333","25.0598966666667"
"235072","301-VK","2016/11/04 15:18:08","新北市中和區員山路36巷16-3號","121.484981666667","24.99136"
"235001","352-BY","2016/11/04 09:20:53","新北市中和區員山路36巷16-3號","121.485088333333","24.99133"
"235034","558-UM","2016/11/04 16:12:37","新北市中和區員山路36巷16-2號","121.485388333333","24.9911083333333"
"235024","647-TV","2016/11/04 16:43:58","新北市中和區員山路36巷16-3號","121.485121666667","24.9914983333333"
"235011","732-UM","2016/11/04 02:02:07","新北市中和區員山路36巷13號","121.484115","24.9910716666667"
"235017","911-UM","2016/11/04 10:04:57","新北市中和區員山路36巷16-2號","121.485303333333","24.9917333333333"
"247018","893-R6","2016/11/04 16:49:52","新北市蘆洲區民族路257巷2號","121.476525","25.090535"
"247008","546-UM","2016/11/04 16:49:57","新北市蘆洲區中山二路45巷30號","121.474288333333","25.0812333333333"
"247016","500-BY","2016/11/04 16:49:58","新北市蘆洲區正和街3號","121.470451666667","25.0827583333333"
"247005","339-TH","2016/11/04 16:49:55","新北市蘆洲區永安南路二段132-1號","121.462618333333","25.0785516666667"
"247022","337-TH","2016/11/04 16:50:04","新北市蘆洲區三民路128巷166-1號","121.468411666667","25.09256"
"247024","336-TH","2016/11/04 16:49:50","新北市蘆洲區長興路255號","121.460425","25.0876083333333"
"247012","057-VK","2016/11/04 16:49:46","新北市蘆洲區復興路323巷158-1號","121.48009","25.0958633333333"
"247002","056-VK","2016/11/04 16:49:55","新北市蘆洲區三民路528號","121.462811666667","25.092615"
"247020","053-VK","2016/11/04 16:49:53","新北市蘆洲區民族路422巷9弄2號","121.474056666667","25.0920983333333"
"247010","007-UY","2016/11/04 16:50:04","新北市蘆洲區集賢路222-4號","121.482796666667","25.0867483333333"
"247014","001-UY","2016/11/04 16:50:01","新北市蘆洲區三民路97號","121.473766666667","25.0851283333333"
"223008","205-TH","2016/11/04 09:52:54","新北市石碇區小粗坑(潭邊里)9-2號","121.67848","24.9855683333333"
"228002","585-TW","2016/11/04 16:50:01","新北市貢寮區貢寮里朝陽街120巷25號","121.907883333333","25.0230516666667"
"228001","663-BX","2016/11/04 16:49:51","新北市貢寮區貢寮里朝陽街1-2號","121.912265","25.02127"
"228003","828-UM","2016/11/04 16:49:46","新北市貢寮區貢寮里朝陽街1-2號","121.912325","25.021255"
"224010","AGQ-8101","2016/11/04 09:33:18","新北市瑞芳區民權街3-1號","121.80936","25.1083866666667"
"224007","285-BY","2016/11/04 16:50:05","新北市瑞芳區瑞竹路80號","121.763141666667","25.103485"
"224009","275-VK","2016/11/04 16:49:58","新北市瑞芳區明燈路二段55號","121.811061666667","25.1081833333333"
"224008","273-VK","2016/11/04 16:50:03","新北市瑞芳區明燈路二段89號","121.809763333333","25.1083183333333"
"224005","271-BY","2016/11/04 16:43:46","新北市瑞芳區洞頂路155號","121.861603333333","25.1214683333333"
"227011","642-TC","2016/11/04 16:49:58","新北市雙溪區牡丹里石5號","121.865645","25.0530716666667"
"227003","400-TW","2016/11/04 16:50:04","新北市雙溪區外柑里外柑腳99號","121.806548333333","25.017935"
"251009","008-UM","2016/11/04 16:49:59","新北市淡水區中正路二段31號","121.419468333333","25.1815333333333"
"251013","180-VK","2016/11/04 16:50:04","新北市淡水區泉洲厝32號","121.489298333333","25.192535"
"251008","181-VK","2016/11/04 16:49:55","新北市淡水區樹梅坑10號","121.473305","25.1423483333333"
"251015","182-VK","2016/11/04 16:49:51","新北市淡水區忠愛街5-1號","121.46074","25.1716066666667"
"251007","577-R6","2016/11/04 16:49:56","新北市淡水區中正路一段87巷1號","121.421753333333","25.179335"
"252002","178-VK","2016/11/04 16:49:46","新北市三芝區埔坪里埔頭坑83號","121.509766666667","25.253915"
"252001","292-VK","2016/11/04 16:49:58","新北市三芝區埔坪里埔頭坑52號","121.507376666667","25.26539"
"237001","682-BX","2016/11/04 12:59:20","新北市三峽區中山路459巷135號","121.348788333333","24.9326966666667"
"237001","760-BX","2016/11/04 14:16:09","新北市三峽區中山路459巷135號","121.348903333333","24.933085"
"236041","107-UM","2016/11/04 16:50:04","新北市土城區城林路6巷80號","121.438353333333","24.9798066666667"
"236019","401-BY","2016/11/04 16:50:03","新北市土城區自強街25-1號","121.43085","24.9718716666667"
"242060","613-BX","2016/11/04 16:49:50","新北市新莊區新泰路357巷3弄57號","121.442175","25.0392066666667"
"242034","566-BX","2016/11/04 16:49:57","新北市新莊區新泰路357巷3弄57號","121.442318333333","25.0392316666667"
"242021","442-UM","2016/11/04 16:49:57","新北市新莊區新泰路357巷3弄57號","121.442033333333","25.0389683333333"
"242056","413-TV","2016/11/04 16:49:50","新北市新莊區新泰路357巷3弄57號","121.442276666667","25.039505"
"242058","362-BY","2016/11/04 16:49:48","新北市新莊區三和路12-21號","121.442283333333","25.0386133333333"
"242009","132-UY","2016/11/04 16:49:47","新北市新莊區新泰路255巷83號","121.442165","25.038915"
"242002","347-TH","2016/11/04 14:04:05","新北市新莊區三和路12-16號","121.441986666667","25.0374466666667"
"242015","348-TH","2016/11/04 16:49:48","新北市新莊區新泰路357巷3弄57號","121.44218","25.039595"
"238018","571-TV","2016/11/04 16:49:59","新北市樹林區中山路三段204號","121.387248333333","24.9681616666667"
"239007","AAC-297","2016/11/04 16:49:52","新北市鶯歌區二甲路13-16號","121.34523","24.9351916666667"
"239006","891-R6","2016/11/03 21:09:27","新北市鶯歌區二甲路13號","121.344176666667","24.935445"
"239008","527-UM","2016/11/04 16:50:03","新北市鶯歌區二甲路13-16號","121.345375","24.9352066666667"
"239005","526-UM","2016/11/04 16:50:05","新北市鶯歌區環河路169-1號","121.346265","24.936095"
"239001","417-VK","2016/11/04 16:49:50","新北市鶯歌區二甲路12-2號","121.34579","24.93482"
"239003","360-BY","2016/11/04 16:50:02","新北市鶯歌區二甲路9-2號","121.346553333333","24.9373566666667"
"239002","359-BY","2016/11/04 16:49:55","新北市鶯歌區二甲路9-2號","121.346725","24.9374833333333"
"220020","277-BY","2016/11/04 16:21:10","新北市板橋區華東街1-9號","121.448128333333","24.994955"
