"lineid","car","time","location","longitude","latitude"
"232016","076-UY","2016/11/05 06:38:35","新北市坪林區北宜路八段168號","121.707495","24.9345283333333"
"232009","290-BY","2016/11/05 04:41:52","新北市坪林區北宜路八段558號","121.717873333333","24.9091383333333"
"232004","291-BY","2016/11/05 06:38:35","新北市坪林區水柳腳29號","121.710725","24.9357966666667"
"222004","289-BY","2016/11/05 06:38:43","新北市深坑區文化街74號","121.618175","25.0018816666667"
"223003","205-TH","2016/11/05 06:38:33","新北市石碇區碇坪路一段196號","121.671235","24.9823466666667"
"223001","592-UM","2016/11/05 06:38:37","新北市石碇區碇坪路一段101號","121.662855","24.98959"
"223007","661-BX","2016/11/05 06:38:37","新北市石碇區小粗坑(潭邊里)9號","121.676091666667","24.983925"
"227006","282-VK","2016/11/05 06:38:32","新北市雙溪區牡丹里中正路93巷3號","121.86149","25.0482266666667"
"251001","155-BY","2016/11/05 06:38:37","新北市淡水區中正東路3號","121.445355","25.16891"
