"lineid","car","time","location","longitude","latitude"
"248005","653-BX","2016/12/22 10:39:01","新北市五股區中興路二段83巷26-6號","121.459886666667","25.0752216666667"
"244006","080-UY","2016/12/22 10:11:22","新北市林口區粉寮69號","121.405025","25.0908533333333"
"244003","248-BX","2016/12/22 10:29:59","新北市林口區粉寮路二段160巷28號","121.405141666667","25.0907466666667"
"222006","289-BY","2016/12/22 10:38:49","新北市深坑區文山路三段15號","121.61296","24.9979833333333"
"231008","188-VK","2016/12/22 10:38:43","新北市新店區小坑一路35巷1號","121.528393333333","24.908295"
"231069","189-VK","2016/12/22 10:38:55","新北市新店區新潭路三段15號","121.50853","24.9147583333333"
"253004","8270-PC","2016/12/22 10:38:51","新北市石門區小坑9號","121.594341666667","25.2890066666667"
"252003","249-BX","2016/12/22 10:28:29","新北市三芝區埔坪里埔頭坑41號","121.504441666667","25.2644366666667"
"220063","609-BX","2016/12/22 10:31:08","新北市板橋區民生路二段36-1號","121.472493333333","25.0166016666667"
