"lineid","car","time","location","longitude","latitude"
"248005","653-BX","2016/12/22 10:39:01","新北市五股區中興路二段83巷26-6號","121.459886666667","25.0752216666667"
"244006","080-UY","2016/12/22 10:11:22","新北市林口區粉寮69號","121.405025","25.0908533333333"
"244003","248-BX","2016/12/22 10:54:19","新北市林口區粉寮路二段160巷28號","121.405146666667","25.090735"
"222006","289-BY","2016/12/22 11:08:49","新北市深坑區昇高坑路15號","121.624801666667","25.0002316666667"
"231008","188-VK","2016/12/22 11:08:43","新北市新店區成功路43號","121.544256666667","24.9015766666667"
"231069","189-VK","2016/12/22 11:08:55","新北市新店區新潭路一段160巷17號","121.529606666667","24.932"
"252003","249-BX","2016/12/22 10:28:29","新北市三芝區埔坪里埔頭坑41號","121.504441666667","25.2644366666667"
"220063","609-BX","2016/12/22 10:31:08","新北市板橋區民生路二段36-1號","121.472493333333","25.0166016666667"
