"lineid","car","time","location","longitude","latitude"
"248005","653-BX","2016/12/22 10:39:01","新北市五股區中興路二段83巷26-6號","121.459886666667","25.0752216666667"
"244006","080-UY","2016/12/22 10:11:22","新北市林口區粉寮69號","121.405025","25.0908533333333"
"244003","248-BX","2016/12/22 10:54:19","新北市林口區粉寮路二段160巷28號","121.405146666667","25.090735"
"231008","188-VK","2016/12/22 11:29:43","新北市新店區成功路155號","121.532596666667","24.89091"
"231069","189-VK","2016/12/22 11:29:55","新北市新店區華潭街1巷49號","121.526306666667","24.946805"
"252003","249-BX","2016/12/22 10:28:29","新北市三芝區埔坪里埔頭坑41號","121.504441666667","25.2644366666667"
"220063","609-BX","2016/12/22 11:29:48","新北市板橋區民生路二段17號","121.472505","25.0164566666667"
