"lineid","car","time","location","longitude","latitude"
"249005","172-UM","2016/12/22 17:17:51","新北市五股區凌雲路三段130號","121.417176666667","25.12781"
"249001","173-UM","2016/12/22 17:17:54","新北市八里區中華路二段165巷3號","121.40766","25.1508583333333"
"249004","303-UY","2016/12/22 17:17:48","新北市八里區忠孝路133號","121.424203333333","25.16065"
"249002","305-UY","2016/12/22 17:17:58","新北市八里區龍米路二段117巷42號","121.444036666667","25.1419666666667"
"249003","593-UM","2016/12/22 17:17:42","新北市八里區中山路二段417號","121.397161666667","25.14622"
"248005","653-BX","2016/12/22 10:39:01","新北市五股區中興路二段83巷26-6號","121.459886666667","25.0752216666667"
"244007","080-UY","2016/12/22 17:17:57","新北市林口區文化北路二段556號","121.37789","25.0928516666667"
"244003","248-BX","2016/12/22 15:50:21","新北市林口區粉寮路二段160巷28號","121.405151666667","25.09076"
"244019","403-UM","2016/12/22 17:17:53","新北市林口區中山路23-2號","121.396033333333","25.0782633333333"
"244009","410-SL","2016/12/22 17:17:52","新北市林口區松柏路97號","121.378523333333","25.088915"
"244023","483-VK","2016/12/22 17:17:49","新北市林口區仁愛路一段264號","121.394111666667","25.0759333333333"
"244021","657-BX","2016/12/22 17:17:43","新北市林口區粉寮路二段128號","121.404521666667","25.0903783333333"
"244025","837-TS","2016/12/22 17:18:00","新北市林口區中山路152-1號","121.391031666667","25.07873"
"243013","646-TV","2016/12/22 15:52:12","新北市泰山區黎明路31號","121.421741666667","25.060755"
"243015","680-BX","2016/12/22 15:56:50","新北市泰山區黎明路25號","121.422123333333","25.060635"
"231007","189-VK","2016/12/22 12:12:58","新北市新店區安華路28-1號","121.519606666667","24.960995"
"241011","013-R5","2016/12/22 17:17:40","新北市三重區河邊北街100巷31號","121.502611666667","25.0701766666667"
"241008","059-VK","2016/12/22 17:17:50","新北市三重區永福街72巷11號","121.479436666667","25.076795"
"241009","060-VK","2016/12/22 17:17:48","新北市三重區仁愛街604號","121.483845","25.0807283333333"
"241031","061-VK","2016/12/22 17:16:38","新北市三重區新北大道一段50號","121.487751666667","25.0613616666667"
"241015","062-VK","2016/12/22 17:17:43","新北市三重區三和路二段13號","121.501395","25.0667083333333"
"241017","063-VK","2016/12/22 17:17:55","新北市三重區大同北路61號","121.495135","25.0633683333333"
"241024","065-VK","2016/12/22 17:17:43","新北市三重區中正北路191巷3弄3號","121.477636666667","25.069905"
"241026","066-VK","2016/12/22 17:17:43","新北市三重區重新路一段86號","121.501673333333","25.0635533333333"
"241002","090-VK","2016/12/22 17:17:52","新北市三重區自強路五段37號","121.49384","25.0811516666667"
"241003","091-VK","2016/12/22 17:17:59","新北市三重區富福街82號","121.492583333333","25.0849966666667"
"241005","262-UM","2016/12/22 17:17:47","新北市三重區仁愛街697號","121.483091666667","25.0807933333333"
"241016","266-UM","2016/12/22 17:17:58","新北市三重區中正北路43號","121.490968333333","25.0627283333333"
"241022","267-UM","2016/12/22 17:17:52","新北市三重區中正北路64巷20號","121.486191666667","25.063795"
"241018","268-UM","2016/12/22 17:17:50","新北市三重區安慶街123號","121.494853333333","25.0689566666667"
"241032","269-UM","2016/12/22 17:17:45","新北市三重區興華街97號","121.48416","25.05979"
"241025","271-UM","2016/12/22 17:17:57","新北市三重區中正北路550號","121.471356666667","25.0720633333333"
"241006","398-BY","2016/12/22 17:18:01","新北市三重區三和路四段264巷2弄7號","121.485371666667","25.0768966666667"
"241007","412-TH","2016/12/22 17:17:52","新北市三重區三和路四段155巷6號","121.48387","25.0785216666667"
"241020","413-TH","2016/12/22 17:17:54","新北市三重區自強路三段72號","121.486731666667","25.0735466666667"
"241004","475-VK","2016/12/22 16:21:34","新北市三重區五華街68號","121.493448333333","25.0817933333333"
"241019","478-VK","2016/12/22 17:17:43","新北市三重區力行路一段155-1號","121.485008333333","25.0690666666667"
"241030","480-VK","2016/12/22 17:17:50","新北市三重區集成路36號","121.488811666667","25.0525"
"241014","543-UM","2016/12/22 17:15:03","新北市三重區龍濱路126號","121.501783333333","25.07153"
"241023","545-UM","2016/12/22 17:17:57","新北市三重區三民街211號","121.48135","25.0660883333333"
"241001","547-UM","2016/12/22 17:17:42","新北市三重區仁愛街269巷52號","121.49444","25.07964"
"241013","593-RM","2016/12/22 17:17:45","新北市三重區仁愛街88號","121.495625","25.073865"
"241028","597-RM","2016/12/22 17:17:47","新北市三重區仁化街38-1號","121.493455","25.05973"
"241012","941-UM","2016/12/22 17:17:59","新北市三重區河邊北街254號","121.501695","25.076175"
"241029","942-UM","2016/12/22 17:17:59","新北市三重區重新路四段28號","121.488133333333","25.057405"
"241033","AAC-255","2016/12/22 17:17:53","新北市三重區中興北街136巷31號","121.467785","25.0559616666667"
"235072","301-VK","2016/12/22 17:17:53","新北市中和區員山路36巷16-3號","121.484933333333","24.991195"
"235034","558-UM","2016/12/22 16:31:32","新北市中和區員山路36巷16-2號","121.485171666667","24.99156"
"247018","893-R6","2016/12/22 17:17:56","新北市蘆洲區民權路82巷1弄12號","121.474448333333","25.0882066666667"
"247008","546-UM","2016/12/22 17:17:59","新北市蘆洲區信義路34巷188號","121.476135","25.07548"
"247016","500-BY","2016/12/22 17:17:52","新北市蘆洲區光華路22巷25號","121.468695","25.08434"
"247004","341-TH","2016/12/22 17:17:48","新北市蘆洲區中原路38號","121.459813333333","25.0826233333333"
"247006","339-TH","2016/12/22 17:17:47","新北市蘆洲區長安街72號","121.462581666667","25.0801833333333"
"247022","337-TH","2016/12/22 17:17:56","新北市蘆洲區三民路267號","121.468195","25.0896266666667"
"247024","336-TH","2016/12/22 17:17:56","新北市蘆洲區三民路581號","121.46184","25.0928933333333"
"247012","057-VK","2016/12/22 17:17:37","新北市蘆洲區信義路319巷13號","121.47791","25.0861016666667"
"247002","056-VK","2016/12/22 17:17:50","新北市蘆洲區永樂街38巷45弄19號","121.457405","25.0900766666667"
"247010","007-UY","2016/12/22 17:17:43","新北市蘆洲區中山一路120巷7弄1號","121.477386666667","25.081845"
"247014","001-UY","2016/12/22 17:17:55","新北市蘆洲區中正路81號","121.470095","25.0834733333333"
"223006","022-BY","2016/12/22 13:56:21","新北市石碇區小粗坑(潭邊里)9-2號","121.678903333333","24.9860516666667"
"228003","097-TW","2016/12/22 17:17:47","新北市貢寮區福隆里興隆街16號","121.945008333333","25.016755"
"228002","585-TW","2016/12/22 17:18:01","新北市貢寮區雙玉里下雙溪街19號","121.918095","25.0107416666667"
"228001","670-TC","2016/12/22 17:17:46","新北市貢寮區仁理村仁和路1號","121.924133333333","25.047815"
"224010","AGQ-8101","2016/12/22 16:40:56","新北市瑞芳區明燈路二段62號","121.809641666667","25.1078366666667"
"224006","676-BX","2016/12/22 17:17:52","新北市瑞芳區大寮路23號","121.782951666667","25.0989333333333"
"224007","285-BY","2016/12/22 17:17:40","新北市瑞芳區楓子瀨路76號","121.762448333333","25.0985183333333"
"224009","275-VK","2016/12/22 17:17:42","新北市瑞芳區石崁巷49號","121.837858333333","25.1096183333333"
"224008","273-VK","2016/12/22 17:17:52","新北市瑞芳區侯硐路146號","121.82626","25.0838266666667"
"224005","271-BY","2016/12/22 17:17:45","新北市瑞芳區鼻頭路247號","121.90885","25.12185"
"227004","642-TC","2016/12/22 17:17:51","新北市雙溪區上林里內平林90號","121.82753","25.0274683333333"
"227010","400-TW","2016/12/22 17:17:52","新北市雙溪區三貂里定福路1號","121.849603333333","25.0641033333333"
"251004","009-UM","2016/12/22 17:17:45","新北市淡水區中正東路二段88巷15號","121.459076666667","25.1504883333333"
"251007","179-VK","2016/12/22 17:17:47","新北市淡水區民生路60號","121.462086666667","25.1379016666667"
"251014","180-VK","2016/12/22 17:17:49","新北市淡水區八里堆12-1號","121.462236666667","25.2252716666667"
"251008","181-VK","2016/12/22 17:17:51","新北市淡水區大同路276號","121.467726666667","25.1410633333333"
"251016","182-VK","2016/12/22 17:17:53","新北市淡水區鄒厝崙14號","121.461643333333","25.1904666666667"
"251010","413-VK","2016/12/22 17:17:56","新北市淡水區中正路二段31號","121.419166666667","25.1817416666667"
"251012","441-VK","2016/12/22 17:17:39","新北市淡水區中山北路一段158號","121.444346666667","25.1779383333333"
"251005","443-VK","2016/12/22 17:18:00","新北市淡水區鄧公路8號","121.449216666667","25.1698833333333"
"251001","559-UM","2016/12/22 17:17:51","新北市淡水區中正路二段18號","121.419708333333","25.1811316666667"
"251006","561-UM","2016/12/22 17:17:47","新北市淡水區大智街22號","121.442003333333","25.174435"
"251009","575-R6","2016/12/22 17:17:47","新北市淡水區三民街20號","121.439025","25.1717983333333"
"251003","766-UM","2016/12/22 17:14:48","新北市淡水區中正路二段31號","121.419436666667","25.18148"
"207003","550-UM","2016/12/22 17:17:47","新北市萬里區萬里里瑪鋉路211號","121.690311666667","25.17947"
"207004","225-TW","2016/12/22 17:16:20","新北市萬里區萬里里景美路16號","121.68692","25.1735283333333"
"252002","178-VK","2016/12/22 17:18:00","新北市三芝區忠孝街1-14號","121.505473333333","25.253945"
"252003","249-BX","2016/12/22 16:23:28","新北市三芝區埔坪里埔頭坑41號","121.504541666667","25.2645883333333"
"252001","292-VK","2016/12/22 17:17:49","新北市三芝區埔頭里埔頭27-2號","121.497038333333","25.25975"
"237016","649-BX","2016/12/22 17:18:00","新北市三峽區中山路459巷135號","121.348658333333","24.93291"
"242019","AAC-296","2016/12/22 17:17:58","新北市新莊區中平路111號","121.444718333333","25.0464016666667"
"242027","986-R7","2016/12/22 17:17:58","新北市新莊區新泰路357巷1弄38號","121.442571666667","25.0403316666667"
"242023","615-BX","2016/12/22 09:31:10","新北市新莊區新泰路255巷83號","121.442175","25.038925"
"242061","613-BX","2016/12/22 17:17:50","新北市新莊區新泰路357巷3弄1號","121.442405","25.0414483333333"
"242025","612-BX","2016/12/22 17:17:47","新北市新莊區新泰路361巷23號","121.442548333333","25.04251"
"242034","566-BX","2016/12/22 17:17:55","新北市新莊區中正路400號","121.441835","25.0341833333333"
"242039","497-BY","2016/12/22 17:18:02","新北市新莊區新樹路69-34號","121.438353333333","25.0291716666667"
"242002","442-UM","2016/12/22 17:17:47","新北市新莊區新泰路361巷23號","121.442565","25.0428816666667"
"242044","441-UM","2016/12/22 17:17:43","新北市新莊區富國路101-1號","121.421291666667","25.025515"
"242048","440-UM","2016/12/22 17:17:47","新北市新莊區龍安路120-2號","121.41933","25.0201866666667"
"242021","415-TV","2016/12/22 17:17:49","新北市新莊區中港一街46號","121.450585","25.0455183333333"
"242036","400-BY","2016/12/22 17:17:56","新北市泰山區磚雅厝3號","121.442303333333","25.0417"
"242058","362-BY","2016/12/22 17:17:51","新北市新莊區新泰路255巷83號","121.442286666667","25.038905"
"242029","353-BY","2016/12/22 17:17:44","新北市新莊區中原路355號","121.444828333333","25.0543566666667"
"242009","132-UY","2016/12/22 17:17:58","新北市新莊區中原路335號","121.445571666667","25.0543033333333"
"242031","133-UY","2016/12/22 17:18:00","新北市新莊區新泰路440號","121.443285","25.04469"
"242017","135-UY","2016/12/22 17:17:40","新北市新莊區新泰路361巷21號","121.442598333333","25.04295"
"242042","172-VK","2016/12/22 17:17:52","新北市新莊區新樹路113巷25號","121.43948","25.0263866666667"
"242004","173-VK","2016/12/22 17:17:52","新北市新莊區公園一路75巷13號","121.44245","25.0379816666667"
"242011","175-VK","2016/12/22 17:17:52","新北市新莊區新泰路381巷41號","121.442451666667","25.0435733333333"
"242053","176-VK","2016/12/22 17:17:54","新北市新莊區瓊林路59-66號","121.441255","25.0225283333333"
"242056","346-TH","2016/12/22 17:17:56","新北市新莊區新莊路763巷11號","121.442576666667","25.032435"
"242046","347-TH","2016/12/22 17:18:00","新北市新莊區新樹路67巷2-11號","121.43969","25.0300533333333"
"242015","348-TH","2016/12/22 17:17:46","新北市新莊區新泰路357巷1弄57號","121.442613333333","25.0397816666667"
"242051","349-TH","2016/12/22 17:17:53","新北市新莊區瓊林路178號","121.440518333333","25.02235"
"242013","350-TH","2016/12/22 17:17:58","新北市新莊區新泰路421-7號","121.442545","25.0449683333333"
"242007","351-TH","2016/12/22 17:17:47","新北市新莊區新泰路381巷41號","121.442375","25.0435216666667"
"238015","755-BX","2016/12/22 17:18:00","新北市樹林區中山路三段125-10號","121.397355","24.9734816666667"
"238019","599-UM","2016/12/22 17:17:50","新北市樹林區八德街445-2號","121.404393333333","24.970315"
"238018","571-TV","2016/12/22 17:17:45","新北市樹林區水源街213號","121.42428","24.9870633333333"
"238024","5061-A6","2016/12/22 17:17:46","新北市樹林區鎮前街61號","121.424966666667","24.9911283333333"
"238022","312-TH","2016/12/22 17:17:44","新北市樹林區八德街225號","121.42161","24.9795"
"238021","311-TH","2016/12/22 17:17:38","新北市樹林區西圳街一段165巷20弄28號","121.395638333333","24.96015"
"238025","303-VK","2016/12/22 17:17:51","新北市樹林區中正路22-1號","121.427835","24.9993916666667"
"238017","283-BY","2016/12/22 17:17:57","新北市樹林區光武街2號","121.415295","25.0039"
"238014","282-BY","2016/12/22 17:17:58","新北市樹林區中正路22-1號","121.427815","24.99949"
"238020","268-VK","2016/12/22 17:12:44","新北市樹林區福德街3號","121.401746666667","24.975745"
"238016","169-UY","2016/12/22 17:18:00","新北市樹林區中山路二段10號","121.417528333333","24.9849883333333"
"239007","AAC-297","2016/12/22 17:18:01","新北市鶯歌區中正一路213號","121.353611666667","24.9570666666667"
"239006","891-R6","2016/12/22 17:17:53","新北市鶯歌區八德路31號","121.333865","24.9518583333333"
"239008","527-UM","2016/12/22 17:17:58","桃園市龜山區宏德司法新村5-5號","121.331298333333","24.9788166666667"
"239005","526-UM","2016/12/22 17:17:42","新北市鶯歌區鶯桃路570號","121.33065","24.9678083333333"
"239001","417-VK","2016/12/22 17:17:57","新北市鶯歌區尖山路296號","121.340571666667","24.944235"
"239003","360-BY","2016/12/22 17:13:10","新北市鶯歌區德昌街143號","121.332348333333","24.9601933333333"
"239002","359-BY","2016/12/22 17:17:56","新北市鶯歌區建國路216號","121.348973333333","24.9534883333333"
"239004","193-VK","2016/12/22 17:17:58","新北市鶯歌區文化路324巷1-35號","121.352768333333","24.94542"
"220054","741-BX","2016/12/22 16:46:10","新北市板橋區民生路二段22號","121.472723333333","25.0165366666667"
