"lineid","car","time","location","longitude","latitude"
"248005","653-BX","2016/12/22 10:39:01","新北市五股區中興路二段83巷26-6號","121.459886666667","25.0752216666667"
"244003","248-BX","2016/12/22 15:50:21","新北市林口區粉寮路二段160巷28號","121.405151666667","25.09076"
"231007","189-VK","2016/12/22 12:12:58","新北市新店區安華路28-1號","121.519606666667","24.960995"
"241030","480-VK","2016/12/22 22:47:50","新北市三重區重新路四段121號","121.48474","25.0524616666667"
"235070","558-UM","2016/12/22 21:50:57","新北市中和區員山路36巷16-2號","121.48517","24.991545"
"223006","022-BY","2016/12/22 13:56:21","新北市石碇區小粗坑(潭邊里)9-2號","121.678903333333","24.9860516666667"
"251010","413-VK","2016/12/22 22:16:56","新北市淡水區下圭柔山91-3號","121.430971666667","25.2100516666667"
"221038","297-VK","2016/12/22 21:08:02","新北市汐止區汐萬路一段256巷1號","121.65204","25.0748066666667"
"221002","753-BX","2016/12/22 21:05:19","新北市汐止區汐萬路一段256巷1號","121.651938333333","25.0748716666667"
