"lineid","car","time","location","longitude","latitude"
"248005","653-BX","2016/12/08 07:18:39","新北市五股區明德路12巷1號","121.433195","25.0715616666667"
"232007","290-BY","2016/12/08 07:47:33","新北市坪林區魚堀48-5號","121.703286666667","24.932515"
"232010","375-UM","2016/12/08 07:47:35","新北市坪林區厚德岡坑8-5號","121.733153333333","24.9408383333333"
"232014","705-BZ","2016/12/08 07:47:30","新北市坪林區金瓜寮13-2號","121.681328333333","24.9152383333333"
"232018","758-BX","2016/12/08 07:40:15","新北市坪林區坪雙路一段43號","121.711753333333","24.9424233333333"
"244006","080-UY","2016/12/08 07:47:35","新北市林口區粉寮69號","121.404956666667","25.0908416666667"
"244002","248-BX","2016/12/08 07:47:38","新北市林口區頂福里28號","121.354401666667","25.0977833333333"
"243004","267-VK","2016/12/08 07:47:43","新北市泰山區明志路一段98號","121.433458333333","25.0640066666667"
"222006","289-BY","2016/12/08 07:47:41","新北市深坑區文化街39巷13號","121.619028333333","25.0010383333333"
"231003","719-UM","2016/12/08 07:47:33","新北市新店區新和街33號","121.518898333333","24.9845983333333"
"226005","5620-A6","2016/12/08 07:47:35","新北市平溪區嶺腳里嶺腳寮74-1號","121.74769","25.03251"
"226002","7418-A5","2016/12/08 07:47:41","新北市平溪區平湖里大厝6號","121.778761666667","25.0311933333333"
"226003","AGD-0702","2016/12/08 07:47:12","新北市平溪區嶺腳里嶺腳寮94號","121.745775","25.03873"
"223006","022-BY","2016/12/08 07:47:40","新北市石碇區八分寮47-1號","121.643155","25.0137366666667"
"223002","198-BX","2016/12/08 07:47:04","新北市石碇區北宜路五段濕水子巷11號","121.636426666667","24.9442133333333"
"223002","205-TH","2016/12/08 07:47:46","新北市石碇區月扇湖3-1號","121.657753333333","24.95617"
"223008","406-TH","2016/12/08 07:38:06","新北市石碇區靜安路一段337號","121.698623333333","25.0143416666667"
"223001","592-UM","2016/12/08 07:47:44","新北市石碇區月扇湖1號","121.657311666667","24.9546383333333"
"223004","660-BX","2016/12/08 07:47:13","新北市深坑區文山路一段7號","121.644703333333","25.0086633333333"
"223007","661-BX","2016/12/08 07:47:48","新北市石碇區大溪墘9-1號","121.698156666667","25.0087316666667"
"223005","677-TV","2016/12/08 07:47:36","新北市石碇區新興坑31號","121.6491","25.0139533333333"
"227007","282-VK","2016/12/08 07:47:46","新北市雙溪區雙溪里太平路50號","121.86459","25.035285"
"252004","249-BX","2016/12/08 07:47:41","新北市三芝區店子里店子72-3號","121.508306666667","25.2030416666667"
"252007","AAC-283","2016/12/08 01:39:09","新北市三芝區埔坪里埔頭坑41號","121.504486666667","25.264445"
"237001","159-UY","2016/12/08 07:47:41","新北市三峽區三樹路100號","121.378205","24.9388666666667"
"236043","107-UM","2016/12/08 07:47:34","新北市鶯歌區鶯桃路38-1號","121.341946666667","24.9526833333333"
"236009","165-UM","2016/12/08 07:47:32","新北市土城區延吉街371號","121.463898333333","24.9839016666667"
"236003","339-SR","2016/12/08 07:47:34","新北市土城區承天路121號","121.449323333333","24.949675"
"242052","AAC-296","2016/12/08 07:47:36","新北市新莊區瓊泰路63巷16號","121.442191666667","25.0287766666667"
"242045","751-BX","2016/12/08 07:47:50","新北市新莊區中正路384號","121.441918333333","25.0347533333333"
"242026","705-TV","2016/12/08 07:47:45","新北市新莊區新泰路502巷54號","121.444343333333","25.0463416666667"
"242022","615-BX","2016/12/08 07:47:49","新北市新莊區新泰路486號","121.44246","25.0457233333333"
"242059","613-BX","2016/12/08 07:47:37","新北市新莊區新泰路401巷28-1號","121.442476666667","25.04408"
"242024","612-BX","2016/12/08 07:47:50","新北市新莊區中環路二段392-1號","121.442346666667","25.0455516666667"
"242033","566-BX","2016/12/08 07:47:44","新北市新莊區新泰路308號","121.445438333333","25.0413"
"242038","497-BY","2016/12/08 07:47:37","新北市新莊區中正路384號","121.441981666667","25.03484"
"242001","442-UM","2016/12/08 07:47:36","新北市新莊區新泰路401巷29-1號","121.44222","25.0437916666667"
"242043","441-UM","2016/12/08 07:47:50","新北市新莊區富國路108號","121.421921666667","25.0253183333333"
"242047","440-UM","2016/12/08 07:47:38","新北市新莊區龍安路249巷1號","121.419003333333","25.0204716666667"
"242020","415-TV","2016/12/08 07:47:46","新北市新莊區新泰路502巷52號","121.444243333333","25.0463516666667"
"242055","413-TV","2016/12/08 07:47:40","新北市新莊區新泰路401巷29-1號","121.442043333333","25.0439483333333"
"242035","400-BY","2016/12/08 07:47:48","新北市新莊區中正路384號","121.441898333333","25.0346816666667"
"242057","362-BY","2016/12/08 07:47:47","新北市新莊區三和路12-19號","121.442125","25.0376833333333"
"242028","353-BY","2016/12/08 07:47:51","新北市新莊區中平路377巷28號","121.44248","25.052945"
"242008","132-UY","2016/12/08 07:47:50","新北市新莊區中平路377巷28號","121.44254","25.0530716666667"
"242030","133-UY","2016/12/08 07:47:41","新北市新莊區新泰路421-1號","121.443165","25.0448016666667"
"242016","135-UY","2016/12/08 07:47:34","新北市新莊區新泰路417-11號","121.44245","25.0447016666667"
"242040","172-VK","2016/12/08 07:47:34","新北市新莊區新樹路115號","121.437381666667","25.026575"
"242003","173-VK","2016/12/08 07:47:38","新北市新莊區三和路12-21號","121.442025","25.0386233333333"
"242010","175-VK","2016/12/08 07:47:37","新北市新莊區新泰路502巷46號","121.444003333333","25.0462933333333"
"242018","347-TH","2016/12/08 07:47:45","新北市新莊區新泰路502巷56號","121.444461666667","25.0463283333333"
"242014","348-TH","2016/12/08 07:47:49","新北市新莊區新泰路421-7號","121.442548333333","25.0449183333333"
"242049","349-TH","2016/12/08 07:47:45","新北市新莊區瓊林路118-3號","121.442093333333","25.0253666666667"
"242012","350-TH","2016/12/08 07:47:38","新北市新莊區新泰路502巷49號","121.444186666667","25.046425"
"242006","351-TH","2016/12/08 07:47:34","新北市新莊區新泰路357巷3弄57號","121.442331666667","25.0393616666667"
