"lineid","car","time","location","longitude","latitude"
"234044","148-BY","2016/11/01 13:47:47","新北市永和區成功路一段76號","121.526326666667","25.003385"
"234012","149-BY","2016/11/01 13:47:38","新北市永和區保生路55號","121.504746666667","25.0106366666667"
"234006","207-UY","2016/11/01 13:47:42","新北市中和區中和路388號","121.510888333333","25.0022333333333"
"234082","208-UY","2016/11/01 13:47:37","新北市永和區福和路98號","121.522346666667","25.0079666666667"
"234078","298-R6","2016/11/01 13:47:47","新北市永和區永利路81巷2弄1號","121.521666666667","25.003625"
"234036","336-UY","2016/11/01 13:47:35","新北市永和區成功路二段177-1號","121.526583333333","24.9967033333333"
"234062","337-UY","2016/11/01 13:47:46","新北市永和區中正路368巷44號","121.519258333333","25.0006466666667"
"234008","338-UY","2016/11/01 13:47:33","新北市永和區福和路258號","121.51837","25.007555"
"234068","552-UM","2016/11/01 13:47:39","新北市永和區竹林路86號","121.51942","25.0126716666667"
"234052","553-UM","2016/11/01 13:47:38","新北市永和區竹林路39巷28弄1號","121.519413333333","25.0149233333333"
"234016","745-BX","2016/11/01 13:47:37","新北市永和區文化路123號","121.512191666667","25.015365"
"234028","746-BX","2016/11/01 13:47:24","新北市永和區四維街73號","121.525301666667","24.9978533333333"
"234060","839-RS","2016/11/01 13:47:39","新北市永和區中正路388號","121.517588333333","25.0013866666667"
"234072","840-RS","2016/11/01 13:47:45","新北市永和區豫溪街207巷20號","121.523396666667","25.0102033333333"
"234040","862-TW","2016/11/01 13:47:42","新北市永和區中和路335巷18弄7號","121.507671666667","25.00033"
"234048","863-TW","2016/11/01 13:47:46","新北市永和區保安路81號","121.508573333333","25.0147866666667"
"234010","9373-KE","2016/11/01 13:47:40","新北市永和區保安路292號","121.50512","25.0118566666667"
"248017","225-UY","2016/11/01 13:47:43","新北市五股區民義路二段22巷33-2號","121.423886666667","25.0994783333333"
"234022","9380-KE","2016/11/01 13:47:38","新北市永和區永和路二段116號","121.515123333333","25.0121366666667"
"234076","969-R7","2016/11/01 13:47:40","新北市永和區民治街29號","121.519628333333","24.9977466666667"
"234066","AAC-212","2016/11/01 13:47:44","新北市永和區永貞路361巷2號","121.508845","25.0078866666667"
"234001","AAC-295","2016/11/01 13:47:37","新北市永和區永和路一段122號","121.513883333333","25.0078183333333"
"231029","001-UM","2016/11/01 13:47:47","新北市新店區安康路二段125-1號","121.512353333333","24.9609616666667"
"231006","002-UM","2016/11/01 13:47:45","新北市新店區北宜路一段190-8號","121.542386666667","24.952895"
"231025","0291-UT","2016/11/01 13:47:34","新北市新店區中央五街13號","121.52969","24.974285"
"231004","046-UY","2016/11/01 13:47:43","新北市新店區寶橋路75號","121.545666666667","24.97515"
"231001","106-UY","2016/11/01 13:47:40","新北市新店區三民路110號","121.534266666667","24.9741166666667"
"231035","107-UY","2016/11/01 13:47:44","新北市新店區安忠路99號","121.509151666667","24.9533616666667"
"231023","108-UY","2016/11/01 13:47:47","新北市新店區國校路47號","121.53803","24.9549366666667"
"231010","110-UY","2016/11/01 13:47:33","新北市新店區平等街56號","121.535978333333","24.9726333333333"
"231013","187-VK","2016/11/01 13:47:42","新北市新店區二十張路35號","121.538171666667","24.9815233333333"
"231009","188-VK","2016/11/01 13:47:30","新北市新店區溪洲路69號","121.533071666667","24.9605016666667"
"231036","192-VK","2016/11/01 13:47:47","新北市新店區安祥路112號","121.474941666667","24.9567083333333"
"231003","268-BY","2016/11/01 13:47:45","新北市新店區中興路一段160號","121.542621666667","24.9639866666667"
"231012","278-BY","2016/11/01 13:47:39","新北市新店區德正街27巷29弄41號","121.544958333333","24.9719183333333"
"231002","355-BY","2016/11/01 13:47:47","新北市新店區溪園路245-6號","121.525313333333","24.983285"
"231038","3712-VJ","2016/11/01 13:47:43","新北市新店區安華路30巷1號","121.519558333333","24.9593116666667"
"231027","3713-VJ","2016/11/01 13:47:48","新北市新店區北宜路一段121-9號","121.540965","24.9539383333333"
"231037","4715-K9","2016/11/01 13:47:45","新北市新店區安康路三段359巷12弄27號","121.483938333333","24.9493033333333"
"231018","513-UM","2016/11/01 13:47:46","新北市新店區中正路388號","121.534953333333","24.9772783333333"
"231026","515-UM","2016/11/01 13:47:43","新北市新店區三民路84巷12號","121.534898333333","24.9731483333333"
"231028","617-UM","2016/11/01 13:47:47","新北市新店區安和路三段22-4號","121.517956666667","24.981545"
"231005","619-UM","2016/11/01 13:47:41","新北市新店區寶中路110號","121.550051666667","24.9789083333333"
"231034","641-BX","2016/11/01 13:47:46","新北市新店區達觀路16號","121.502978333333","24.94098"
"231015","718-UY","2016/11/01 13:47:42","新北市新店區竹林路94號","121.553823333333","24.9501916666667"
"231032","719-UY","2016/11/01 13:47:42","新北市新店區莒光路44巷21弄11-6號","121.518478333333","24.95223"
"231020","720-UM","2016/11/01 13:47:45","新北市新店區新烏路二段50巷3號","121.548248333333","24.9281533333333"
"231030","899-TW","2016/11/01 13:47:48","新北市新店區安康路一段88號","121.528066666667","24.9620283333333"
"231024","AKT-0513","2016/11/01 13:47:28","新北市新店區新生街57號","121.538831666667","24.9671033333333"
"235030","003-UY","2016/11/01 13:47:40","新北市中和區光華街10號","121.504306666667","25.0042333333333"
"235028","005-UY","2016/11/01 13:47:38","新北市中和區連城路139巷41號","121.496623333333","24.9976816666667"
"235027","006-UY","2016/11/01 13:47:46","新北市中和區連城路347巷1弄1號","121.488243333333","24.9957083333333"
"235020","096-UM","2016/11/01 13:47:43","新北市中和區員山路466巷17弄18號","121.480508333333","25.0074516666667"
"235003","097-UM","2016/11/01 13:47:43","新北市中和區大勇街25巷46號","121.51539","24.9941016666667"
"235029","098-UM","2016/11/01 13:47:41","新北市中和區莊敬路33巷19號","121.500435","25.0070833333333"
"235002","150-BY","2016/11/01 13:47:33","新北市中和區保健路48巷3號","121.51003","24.9969483333333"
"235022","151-BY","2016/11/01 13:47:42","新北市中和區圓通路369巷36弄10號","121.49","24.98431"
"235002","185-VK","2016/11/01 13:47:47","新北市中和區自強路2號","121.520163333333","24.9960466666667"
"235013","186-VK","2016/11/01 13:47:39","新北市中和區景安路117號","121.505761666667","24.996365"
"235031","255-BX","2016/11/01 13:47:36","新北市中和區新生街186巷1弄28號","121.483308333333","24.99852"
"235008","293-VK","2016/11/01 13:47:25","新北市中和區中興街107號","121.499876666667","24.9922933333333"
"235036","301-VK","2016/11/01 13:47:43","新北市中和區連城路171巷41弄1號","121.496196666667","24.9965766666667"
"235032","377-QA","2016/11/01 13:47:33","新北市中和區中正路167巷29號","121.499095","24.9925116666667"
"235025","378-QA","2016/11/01 13:47:33","新北市中和區民享街91號","121.474325","25.00146"
"235014","4979-A6","2016/11/01 13:47:41","新北市中和區忠孝街62巷9弄12號","121.513115","24.98402"
"235033","4980-A6","2016/11/01 13:47:39","新北市中和區南山路52巷2號","121.50172","24.9974383333333"
"235006","551-UM","2016/11/01 13:47:32","新北市中和區成功路97巷18弄15號","121.52704","24.9911816666667"
"235034","558-UM","2016/11/01 13:47:47","新北市中和區明禮街37號","121.503761666667","24.9962266666667"
"235009","565-BX","2016/11/01 13:47:31","新北市中和區復興路2號","121.506335","24.9898033333333"
"235007","611-BX","2016/11/01 13:47:43","新北市中和區景平路255號","121.508696666667","24.9929333333333"
"235018","640-BX","2016/11/01 13:47:39","新北市中和區莒光路93-4號","121.472511666667","25.0031983333333"
"235024","647-TV","2016/11/01 13:47:34","新北市中和區員山路473號","121.48028","25.00482"
"235010","733-UM","2016/11/01 13:47:32","新北市中和區板南路146號","121.502093333333","24.9926233333333"
"235035","783-BX","2016/11/01 13:47:30","新北市中和區中原街92號","121.488351666667","25.0103583333333"
"235026","800-TS","2016/11/01 13:47:39","新北市中和區中山路二段284號","121.496276666667","25.0024033333333"
"235021","801-TS","2016/11/01 13:47:35","新北市中和區員山路327巷20號","121.480816666667","25.001475"
"235005","802-TS","2016/11/01 13:47:45","新北市永和區中和路517號","121.510923333333","25.002745"
"235016","805-TS","2016/11/01 13:47:25","新北市中和區興南路二段94號","121.505266666667","24.9842233333333"
"235012","896-TW","2016/11/01 13:47:47","新北市中和區中正路81號","121.500718333333","24.9934216666667"
"235017","900-TW","2016/11/01 13:47:47","新北市中和區莒光路211-37號","121.47032","24.993215"
"235001","AAC-213","2016/11/01 13:47:35","新北市中和區景平路111巷9弄2號","121.51665","24.9911333333333"
"235023","AAC-215","2016/11/01 13:47:47","新北市中和區圓通路369巷2號","121.491015","24.9895083333333"
"220016","013-TV","2016/11/01 13:47:47","新北市板橋區民生路二段16號","121.472858333333","25.016495"
"220013","072-UY","2016/11/01 13:47:47","新北市板橋區民生路二段36-1號","121.472581666667","25.01655"
"220034","073-UY","2016/11/01 13:47:39","新北市板橋區南雅西路二段180巷8號","121.452046666667","25.014"
"220105","075-UY","2016/11/01 02:32:13","新北市板橋區民生路二段161巷9號","121.470285","25.0195733333333"
"247017","893-R6","2016/11/01 13:47:42","新北市蘆洲區民族路408巷10號","121.474831666667","25.0919016666667"
"247007","546-UM","2016/11/01 13:47:47","新北市蘆洲區重陽一街38號","121.481056666667","25.0818116666667"
"247015","500-BY","2016/11/01 13:47:45","新北市蘆洲區三民路96號","121.473483333333","25.0857966666667"
"247003","341-TH","2016/11/01 13:47:29","新北市蘆洲區中原路34號","121.459926666667","25.0827083333333"
"247005","339-TH","2016/11/01 13:47:48","新北市蘆洲區和平路77號","121.46928","25.0791216666667"
"247021","337-TH","2016/11/01 13:47:43","新北市蘆洲區三民路341-7號","121.464031666667","25.0912566666667"
"247011","057-VK","2016/11/01 13:47:42","新北市蘆洲區復興路355巷11-5號","121.480298333333","25.0956483333333"
"247001","056-VK","2016/11/01 13:47:32","新北市蘆洲區民族路422巷114弄69號","121.471151666667","25.09521"
"247019","053-VK","2016/11/01 13:47:41","新北市蘆洲區民族路422巷48弄24號","121.474735","25.0931833333333"
"247009","007-UY","2016/11/01 13:47:43","新北市蘆洲區復興路323巷12-20號","121.48306","25.0920683333333"
"247013","001-UY","2016/11/01 13:47:29","新北市蘆洲區民權路98號","121.47406","25.08803"
"223008","406-TH","2016/11/01 08:04:53","新北市石碇區靜安路一段320號","121.69393","25.00687"
"223007","661-BX","2016/11/01 08:46:18","新北市石碇區光明路17-2號","121.685453333333","25.031955"
"228004","212-TW","2016/11/01 13:47:33","新北市貢寮區龍崗里嵩陽街40號","121.905451666667","25.0150333333333"
"228005","663-BX","2016/11/01 13:47:37","新北市貢寮區美豐里土地公嶺9-1號","121.894731666667","25.05783"
"208004","761-BX","2016/11/01 13:47:18","新北市金山區重和里三重橋27號","121.587053333333","25.190005"
"207001","291-VK","2016/11/01 13:47:46","新北市萬里區磺潭里公館崙24號","121.634596666667","25.21357"
"252005","AAC-283","2016/11/01 01:16:02","新北市三芝區埔坪里埔頭坑41號","121.504453333333","25.2643733333333"
"208005","170-UY","2016/11/01 13:47:48","新北市金山區海興路35-2號","121.62945","25.236595"
"236065","105-UM","2016/11/01 13:47:40","新北市土城區城林路6巷80號","121.438438333333","24.9797783333333"
"236041","107-UM","2016/11/01 13:47:45","新北市土城區城林路6巷80號","121.438368333333","24.9798466666667"
"236075","166-UM","2016/11/01 13:47:38","新北市土城區中央路二段278巷2號","121.440771666667","24.97444"
"236029","253-BX","2016/11/01 13:47:45","新北市土城區城林路6巷80號","121.438465","24.9798333333333"
"236025","269-VK","2016/11/01 13:47:30","新北市土城區中華路二段115號","121.439111666667","24.97694"
"236013","270-VK","2016/11/01 13:47:37","新北市土城區城林路6巷80號","121.438526666667","24.979755"
"236001","339-SR","2016/11/01 10:26:12","新北市土城區永平街51號","121.427636666667","24.9591816666667"
"236057","912-UM","2016/11/01 13:47:47","新北市土城區城林路6巷80號","121.438365","24.9798483333333"
"236045","913-UM","2016/11/01 13:47:40","新北市土城區城林路6巷80號","121.438326666667","24.9798383333333"
"220027","145-BY","2016/11/01 13:47:35","新北市板橋區民權路202巷1弄2-3號","121.459461666667","25.0142033333333"
"220037","145-RM","2016/11/01 13:47:32","新北市板橋區民生路二段120號","121.470516666667","25.019605"
"220028","200-UY","2016/11/01 13:47:45","新北市板橋區大觀路二段265巷128號","121.442301666667","24.9963266666667"
"220050","245-BX","2016/10/31 21:06:08","新北市板橋區民生路二段161巷1號","121.470238333333","25.019985"
"220031","256-TC","2016/11/01 13:47:43","新北市板橋區大觀路二段22巷6號","121.446231666667","25.0034516666667"
"220011","257-TC","2016/11/01 13:47:40","新北市板橋區民生路二段120號","121.470435","25.0196366666667"
"220017","258-TC","2016/11/01 13:47:41","新北市板橋區民生路二段36-1號","121.47252","25.01671"
"220004","276-BY","2016/11/01 13:47:46","新北市板橋區四川路二段61號","121.453485","24.9951616666667"
"220020","277-BY","2016/11/01 13:47:45","新北市板橋區金門街31巷38號","121.433761666667","24.9934366666667"
"220043","283-UM","2016/11/01 13:47:40","新北市板橋區民生路二段120號","121.470606666667","25.0195166666667"
"220019","283-VK","2016/11/01 13:47:40","新北市板橋區民生路二段36-1號","121.472616666667","25.0165916666667"
"220001","285-VK","2016/11/01 13:47:40","新北市板橋區民生路二段36-1號","121.47243","25.01669"
"220029","287-VK","2016/11/01 13:47:42","新北市板橋區南雅西路二段108-1號","121.452216666667","25.012035"
"220039","288-VK","2016/11/01 13:47:44","新北市板橋區民生路二段161巷9號","121.470271666667","25.0196266666667"
"220009","293-UM","2016/11/01 04:49:50","新北市板橋區民生路二段56-1號","121.472466666667","25.0170816666667"
"220032","296-UM","2016/11/01 13:47:38","新北市板橋區大觀路二段148巷70號","121.441881666667","25.000755"
"220023","297-UM","2016/11/01 13:47:32","新北市板橋區大觀路一段28巷104號","121.450145","25.011085"
"220010","305-R5","2016/11/01 03:35:58","新北市板橋區民生路二段15-1號","121.472736666667","25.0164233333333"
"220041","307-R5","2016/11/01 13:47:27","新北市板橋區民生路二段120號","121.470501666667","25.01948"
"220047","317-R6","2016/11/01 01:58:16","新北市板橋區民生路二段161巷5號","121.470191666667","25.0197333333333"
"220012","486-VK","2016/11/01 13:47:48","新北市板橋區觀光街8號","121.472315","25.0164933333333"
"220038","487-VK","2016/11/01 13:47:46","新北市板橋區民生路二段120號","121.470626666667","25.01962"
"220104","560-BX","2016/11/01 13:47:43","新北市板橋區南雅西路二段319巷24號","121.451855","25.0164233333333"
"220052","561-BX","2016/11/01 13:47:31","新北市板橋區民生路二段120號","121.470316666667","25.0198766666667"
"220011","609-BX","2016/11/01 13:47:39","新北市板橋區民生路二段36-1號","121.472641666667","25.016545"
"220040","637-BX","2016/11/01 13:47:41","新北市板橋區民生路二段161巷1號","121.470205","25.02015"
"220005","686-BX","2016/11/01 13:47:41","新北市板橋區觀光街8號","121.472181666667","25.0163466666667"
"220025","687-BX","2016/11/01 13:47:48","新北市板橋區龍興街71巷53號","121.441541666667","25.00273"
"220042","689-BX","2016/11/01 13:47:47","新北市板橋區民生路二段120號","121.470713333333","25.0195966666667"
"220002","741-BX","2016/11/01 13:47:24","新北市板橋區民生路二段36-1號","121.472586666667","25.0167116666667"
"220030","806-UM","2016/11/01 13:47:44","新北市板橋區篤行路二段92-3號","121.431521666667","24.991465"
"220003","827-TW","2016/11/01 13:47:47","新北市板橋區民生路二段36-1號","121.472525","25.0165866666667"
"220014","829-TW","2016/11/01 13:47:45","新北市板橋區民生路二段15-1號","121.472748333333","25.0162833333333"
"220051","830-TW","2016/10/31 21:11:19","新北市板橋區民生路二段120號","121.470326666667","25.0197366666667"
"220045","831-TW","2016/11/01 13:47:48","新北市板橋區民生路二段161巷7號","121.470148333333","25.0196583333333"
"220022","895-R6","2016/11/01 13:47:38","新北市板橋區南門街47號","121.457226666667","25.0085533333333"
"220021","985-R7","2016/11/01 13:47:44","新北市板橋區華興街91巷4號","121.456473333333","25.0051966666667"
"220018","AAC-253","2016/11/01 13:47:32","新北市板橋區民生路二段36-1號","121.472548333333","25.0165733333333"
