"lineid","car","time","location","longitude","latitude"
"234028","746-BX","2016/10/28 14:45:01","新北市板橋區文化路二段641-21號","121.478423333333","25.03791"
"234060","839-RS","2016/10/28 18:07:43","新北市永和區福和路1號","121.526513333333","25.01007"
"234072","840-RS","2016/10/28 13:57:20","新北市永和區豫溪街183號","121.522435","25.0103933333333"
"249005","172-UM","2016/10/28 18:07:42","新北市八里區荖阡坑路17-10號","121.401816666667","25.1392833333333"
"249001","173-UM","2016/10/28 18:07:26","新北市八里區龍米路二段35號","121.448446666667","25.1400733333333"
"249004","303-UY","2016/10/28 18:07:54","新北市八里區龍米路二段159-2號","121.43921","25.1539683333333"
"249002","305-UY","2016/10/28 18:07:33","新北市八里區龍米路一段356巷46號","121.45218","25.13023"
"249003","593-UM","2016/10/28 18:07:33","新北市八里區中山路二段179號","121.40474","25.1502466666667"
"248006","077-UY","2016/10/28 18:07:51","新北市五股區中興路二段114號","121.459938333333","25.077805"
"248008","095-VK","2016/10/28 18:07:37","新北市蘆洲區永安南路二段294號","121.457238333333","25.0817983333333"
"248018","225-UY","2016/10/28 18:07:49","新北市五股區中興路三段190號","121.444228333333","25.08133"
"248014","261-SL","2016/10/28 18:07:37","新北市五股區成泰路二段106號","121.437871666667","25.0829566666667"
"234076","969-R7","2016/10/28 16:01:38","新北市永和區福和路1號","121.526556666667","25.0098033333333"
"232011","375-UM","2016/10/28 18:07:55","新北市坪林區國中路4號","121.713456666667","24.93879"
"244013","069-UM","2016/10/28 18:07:47","新北市林口區中山路144-1號","121.391418333333","25.0786066666667"
"244007","080-UY","2016/10/28 18:07:48","新北市林口區林口路80號","121.38906","25.0806266666667"
"244017","402-UM","2016/10/28 18:07:44","新北市林口區忠孝路468號","121.36998","25.0707216666667"
"244019","403-UM","2016/10/28 18:07:46","新北市林口區忠孝路542巷5弄9號","121.373981666667","25.06765"
"244009","410-SL","2016/10/28 18:07:49","新北市林口區竹林路582巷19號","121.385975","25.083355"
"244023","483-VK","2016/10/28 18:07:53","新北市林口區仁愛路二段82號","121.384211666667","25.0752516666667"
"244021","657-BX","2016/10/28 18:07:45","新北市林口區自強三街21號","121.397715","25.0773283333333"
"244011","701-TV","2016/10/28 18:07:50","新北市林口區中正路198號","121.39123","25.0776483333333"
"244025","837-TS","2016/10/28 18:07:55","新北市林口區文化北路一段60巷12-1號","121.357016666667","25.0685516666667"
"243011","297-R6","2016/10/28 18:07:10","新北市泰山區黎明路47號","121.422028333333","25.0573733333333"
"222003","436-BY","2016/10/28 18:07:43","新北市深坑區阿柔洋49-6號","121.611721666667","24.9968566666667"
"222001","628-TS","2016/10/28 18:07:54","新北市深坑區北深路二段186號","121.614045","25.0022433333333"
"222002","659-BX","2016/10/28 18:07:42","新北市深坑區文化街37號","121.61911","25.0015383333333"
"231056","0293-UT","2016/10/28 18:07:44","新北市新店區安華路28-1號","121.519211666667","24.9606383333333"
"231004","046-UY","2016/10/28 17:36:05","新北市新店區安華路28-1號","121.519606666667","24.9608733333333"
"231064","107-UY","2016/10/28 18:07:48","新北市新店區安華路28-1號","121.51974","24.9611483333333"
"231046","110-UY","2016/10/28 18:07:35","新北市新店區康雅崙路12號","121.536343333333","24.9265333333333"
"231065","192-VK","2016/10/28 18:07:51","新北市新店區安華路28-1號","121.520076666667","24.9612"
"231002","355-BY","2016/10/28 15:34:04","新北市新店區安華路28-1號","121.519053333333","24.9607366666667"
"231058","3713-VJ","2016/10/28 18:07:53","新北市新店區安華路28-1號","121.519071666667","24.960685"
"231062","719-UY","2016/10/28 18:07:46","新北市新店區安華路28-1號","121.519131666667","24.9613316666667"
"231053","720-UM","2016/10/28 18:07:49","新北市新店區安華路28-1號","121.519351666667","24.9611783333333"
"241004","475-VK","2016/10/28 18:07:36","新北市三重區仁義街91號","121.49845","25.078335"
"241033","AAC-255","2016/10/28 18:07:39","新北市三重區光復路一段68巷40號","121.470471666667","25.049255"
"235064","005-UY","2016/10/28 18:07:47","新北市中和區員山路36巷12號","121.483891666667","24.9909316666667"
"235056","096-UM","2016/10/28 15:29:03","新北市中和區員山路36巷16-3號","121.484573333333","24.9912716666667"
"235065","098-UM","2016/10/28 18:07:48","新北市中和區中山路二段546號","121.485005","25.0050083333333"
"235038","185-VK","2016/10/28 18:07:46","新北市中和區錦和路350-1號","121.490231666667","24.9935966666667"
"235072","301-VK","2016/10/28 18:07:51","新北市中和區員山路36巷16-3號","121.485103333333","24.9913483333333"
"235061","378-QA","2016/10/28 18:07:41","新北市中和區員山路36巷16-2號","121.485313333333","24.9916316666667"
"235050","4979-A6","2016/10/28 18:07:51","新北市中和區錦和路350-1號","121.490201666667","24.9936066666667"
"235069","4980-A6","2016/10/28 18:07:46","新北市中和區中正路305號","121.492366666667","24.9937483333333"
"235042","551-UM","2016/10/28 18:07:50","新北市中和區中正路59號","121.501533333333","24.9934333333333"
"235024","647-TV","2016/10/28 18:07:42","新北市中和區員山路36巷16-3號","121.485133333333","24.9914683333333"
"235011","732-UM","2016/10/28 13:57:22","新北市中和區興南路二段34巷75號","121.505106666667","24.98495"
"235026","800-TS","2016/10/28 18:07:47","新北市中和區員山路36巷16-2號","121.485156666667","24.9916666666667"
"235052","805-TS","2016/10/28 18:07:35","新北市中和區員山路36巷16-3號","121.484556666667","24.991205"
"220068","013-TV","2016/10/28 18:07:55","新北市板橋區民生路二段22號","121.472681666667","25.0166"
"247004","341-TH","2016/10/28 17:29:38","新北市蘆洲區長安街172巷16號","121.459923333333","25.0837116666667"
"247005","339-TH","2016/10/28 18:07:47","新北市五股區中直路21號","121.421785","25.1117066666667"
"247012","057-VK","2016/10/28 18:07:50","新北市五股區中興路二段182巷15弄13-3號","121.457433333333","25.081105"
"226004","205-ST","2016/10/28 18:07:54","新北市平溪區薯榔里薯榔寮29號","121.713875","25.01953"
"223006","022-BY","2016/10/28 10:05:41","新北市石碇區小粗坑(潭邊里)9-2號","121.678183333333","24.9856216666667"
"223008","406-TH","2016/10/28 08:45:31","新北市石碇區十八重溪68號","121.673871666667","25.0149766666667"
"223007","661-BX","2016/10/28 09:03:49","新北市石碇區光明路耳空龜巷10號","121.690955","25.0382416666667"
"228002","585-TW","2016/10/28 18:07:46","新北市貢寮區福連里香蘭街34號","121.988091666667","25.0184216666667"
"228001","663-BX","2016/10/28 18:07:46","新北市貢寮區真理里新港街26巷55弄2-1號","121.927353333333","25.0528983333333"
"228003","828-UM","2016/10/28 18:07:38","新北市貢寮區真理里美艷山街8-3號","121.929625","25.0626983333333"
"224006","676-BX","2016/10/28 18:07:45","新北市瑞芳區中正路2號","121.809221666667","25.10679"
"224002","639-TC","2016/10/28 18:07:50","新北市瑞芳區三爪子坑路64-40號","121.808816666667","25.1055366666667"
"224009","275-VK","2016/10/28 18:07:49","新北市瑞芳區金光路117號","121.853376666667","25.106175"
"224008","273-VK","2016/10/28 18:07:39","新北市瑞芳區逢甲路76-1號","121.810488333333","25.10836"
"224007","272-VK","2016/10/28 18:07:43","新北市瑞芳區大寮路105-1號","121.779701666667","25.101165"
"224005","271-BY","2016/10/28 18:07:51","新北市瑞芳區深澳路10-4號","121.818583333333","25.13039"
"227003","642-TC","2016/10/28 18:07:55","新北市雙溪區共和里東榮街31號","121.866296666667","25.033485"
"253006","032-BX","2016/10/28 18:07:51","新北市石門區老梅路52巷25弄2-1號","121.546883333333","25.286575"
"253005","295-VK","2016/10/28 18:07:36","新北市石門區福安街43號","121.56851","25.2919533333333"
"208003","665-BX","2016/10/28 18:07:49","新北市金山區民生路31號","121.643416666667","25.2212683333333"
"208001","761-BX","2016/10/28 18:07:54","新北市金山區磺港里磺港路114號","121.646146666667","25.22659"
"251009","008-UM","2016/10/28 18:03:59","新北市淡水區大仁街6巷1號","121.442465","25.17466"
"251004","009-UM","2016/10/28 18:07:46","新北市淡水區民族路98號","121.462636666667","25.1354283333333"
"251002","012-UM","2016/10/28 18:07:50","新北市淡水區中正東路一段22號","121.452425","25.1625666666667"
"251013","180-VK","2016/10/28 18:07:48","新北市淡水區竹圍子9-1號","121.476868333333","25.1922866666667"
"251008","181-VK","2016/10/28 18:07:54","新北市淡水區中正東路二段5巷1號","121.458593333333","25.1590533333333"
"251012","441-VK","2016/10/28 18:07:54","新北市淡水區北新路三段162號","121.492443333333","25.191885"
"251015","442-VK","2016/10/28 18:07:50","新北市淡水區興福寮88巷1號","121.485338333333","25.1649433333333"
"251005","443-VK","2016/10/28 18:07:38","新北市淡水區水源街一段141號","121.44723","25.1719483333333"
"251001","559-UM","2016/10/28 18:07:43","新北市淡水區自立路1巷19號","121.462666666667","25.129685"
"251006","561-UM","2016/10/28 18:07:52","新北市淡水區新民街76巷36弄1號","121.439473333333","25.1780616666667"
"251011","650-BX","2016/10/28 18:07:50","新北市淡水區三空泉9-2號","121.474155","25.163545"
"251010","672-BX","2016/10/28 18:07:51","新北市淡水區中正路二段50巷8號","121.419838333333","25.183275"
"251003","673-BX","2016/10/28 18:07:48","新北市淡水區北新路182巷24號","121.44894","25.1779933333333"
"207002","749-BX","2016/10/28 12:47:59","新北市萬里區雙興里太和路17-1號","121.655641666667","25.1750983333333"
"207003","550-UM","2016/10/28 18:07:53","新北市萬里區野柳里港西路8-2號","121.685033333333","25.2036633333333"
"207004","225-TW","2016/10/28 18:07:34","新北市萬里區中幅里中福路84號","121.676068333333","25.1707283333333"
"252006","050-UM","2016/10/28 15:31:12","新北市三芝區埔坪里埔頭坑41號","121.504538333333","25.264475"
"252002","178-VK","2016/10/28 18:07:47","新北市三芝區中山路二段43號","121.502986666667","25.2550666666667"
"252001","292-VK","2016/10/28 18:07:37","新北市三芝區中興街二段2號","121.498435","25.2566966666667"
"208002","170-UY","2016/10/28 18:07:47","新北市金山區三界壇路99巷25號","121.617315","25.2271083333333"
"237004","078-UY","2016/10/28 18:07:52","新北市三峽區大埔路136號","121.368161666667","24.90345"
"237007","153-BY","2016/10/28 18:07:46","新北市三峽區中正路二段206-1號","121.36587","24.9142666666667"
"237009","210-TH","2016/10/28 18:07:54","新北市三峽區大仁路52號","121.365398333333","24.93766"
"237013","252-BX","2016/10/28 18:07:37","新北市三峽區長泰街70-2號","121.376666666667","24.9334983333333"
"237012","275-BY","2016/10/28 18:07:48","新北市三峽區民生街1巷1-40號","121.377253333333","24.935695"
"237008","302-VK","2016/10/28 18:07:55","新北市三峽區白雞42-3號","121.378786666667","24.9114216666667"
"237014","433-BY","2016/10/28 18:07:48","新北市三峽區復興路80巷1號","121.373365","24.93754"
"237006","5529-G3","2016/10/28 18:07:55","新北市三峽區介壽路二段138巷1弄130-1號","121.399086666667","24.931245"
"237011","572-TV","2016/10/28 18:07:54","新北市三峽區橫溪路33號","121.396586666667","24.9355683333333"
"237016","649-BX","2016/10/28 18:07:49","新北市三峽區紫微路23號","121.423133333333","24.9199866666667"
"237010","706-TV","2016/10/28 18:07:55","新北市三峽區民族街57號","121.369633333333","24.9297816666667"
"237005","AKY-6261","2016/10/28 18:07:49","新北市三峽區和平街79巷13號","121.36972","24.9370933333333"
"236072","105-UM","2016/10/28 18:07:51","新北市土城區青雲路318號","121.458751666667","24.977095"
"236043","107-UM","2016/10/28 18:07:54","新北市土城區裕生路61號","121.447603333333","24.985975"
"236079","166-UM","2016/10/28 18:07:46","新北市土城區永寧路29號","121.430443333333","24.9629733333333"
"236031","253-BX","2016/10/28 18:07:52","新北市土城區城林路6巷80號","121.438428333333","24.9797916666667"
"236027","269-VK","2016/10/28 18:07:37","新北市土城區承天路67號","121.439538333333","24.9635483333333"
"236015","270-VK","2016/10/28 18:07:36","新北市土城區員林街8-1號","121.442871666667","24.9780166666667"
"236039","271-VK","2016/10/28 18:04:35","新北市土城區員林街63號","121.444051666667","24.9774983333333"
"236001","339-SR","2016/10/28 10:21:45","新北市土城區永平街51號","121.427635","24.9592116666667"
"236022","401-BY","2016/10/28 18:07:44","新北市土城區明德路一段95號","121.465543333333","24.9830666666667"
"236059","912-UM","2016/10/28 18:07:54","新北市土城區中央路四段25-9號","121.424546666667","24.9625316666667"
"236050","913-UM","2016/10/28 18:07:49","新北市土城區學士路123號","121.446306666667","24.97584"
"236063","915-UM","2016/10/28 18:07:50","新北市土城區學士路121號","121.446165","24.9758583333333"
"236055","AAC-216","2016/10/28 18:07:47","新北市土城區中華路二段117號","121.43928","24.976745"
"242019","AAC-296","2016/10/28 18:07:42","新北市新莊區中港路132巷12號","121.455838333333","25.040675"
"242027","986-R7","2016/10/28 18:07:49","新北市新莊區思源路347號","121.459811666667","25.050225"
"242046","751-BX","2016/10/28 18:07:48","新北市新莊區福營路300號","121.422473333333","25.02751"
"242060","613-BX","2016/10/28 18:07:41","新北市新莊區新樹路295號","121.433715","25.0200016666667"
"242025","612-BX","2016/10/28 18:07:47","新北市新莊區五權一路3-9號","121.457678333333","25.0657833333333"
"242034","566-BX","2016/10/28 18:07:49","新北市新莊區中正路377巷18號","121.44629","25.0336433333333"
"242039","497-BY","2016/10/28 18:07:52","新北市新莊區新樹路222號","121.43378","25.0202"
"242002","442-UM","2016/10/28 18:07:52","新北市新莊區新莊路54號","121.457868333333","25.0368833333333"
"242044","441-UM","2016/10/28 18:07:50","新北市新莊區中正路881-13號","121.41709","25.0250866666667"
"242048","440-UM","2016/10/28 18:07:53","新北市新莊區民安路56號","121.423175","25.0274466666667"
"242021","415-TV","2016/10/28 18:07:47","新北市新莊區建興街89巷2號","121.449938333333","25.0390266666667"
"242037","400-BY","2016/10/28 18:07:40","新北市新莊區後港一路49巷1弄1號","121.425883333333","25.0265916666667"
"242058","362-BY","2016/10/28 18:07:47","新北市新莊區新北大道七段852號","121.41384","25.023475"
"242029","353-BY","2016/10/28 18:07:44","新北市新莊區中平路110巷13號","121.445711666667","25.0460866666667"
"242009","132-UY","2016/10/28 18:07:42","新北市新莊區昌盛街2巷1弄2號","121.45302","25.04955"
"242032","133-UY","2016/10/28 18:07:32","新北市新莊區新泰路257號","121.445901666667","25.0398166666667"
"242017","135-UY","2016/10/28 18:07:55","新北市新莊區永樂街1號","121.452198333333","25.0451233333333"
"242041","172-VK","2016/10/28 18:07:47","新北市新莊區天祥街121巷12號","121.414213333333","25.0293066666667"
"242011","175-VK","2016/10/28 18:07:48","新北市新莊區中信街88號","121.447856666667","25.0533433333333"
"242054","176-VK","2016/10/28 18:07:41","新北市新莊區西盛街429巷25號","121.42802","25.0115916666667"
"242007","346-TH","2016/10/28 18:07:40","新北市新莊區自立街79巷7號","121.45437","25.0457683333333"
"242015","348-TH","2016/10/28 18:07:41","新北市新莊區中和街59巷10弄9號","121.446691666667","25.0472483333333"
"242050","349-TH","2016/10/28 18:07:54","新北市新莊區民本街11巷24號","121.428866666667","25.0202283333333"
"238015","755-BX","2016/10/28 18:07:54","新北市樹林區啟智街172號","121.414631666667","24.9871816666667"
"238023","601-UM","2016/10/28 18:07:49","新北市樹林區福興街36號","121.403861666667","25.0153216666667"
"238019","599-UM","2016/10/28 18:07:51","新北市樹林區水源街32巷52號","121.425281666667","24.9806333333333"
"238018","571-TV","2016/10/28 18:07:44","新北市樹林區中正路7-1號","121.430241666667","24.9975766666667"
"238021","311-TH","2016/10/28 18:07:49","新北市樹林區柑園街一段33巷27-8號","121.405421666667","24.95685"
"238022","308-TH","2016/10/28 18:07:36","新北市樹林區太平路150巷68號","121.417385","24.9775"
"238025","303-VK","2016/10/28 18:07:39","新北市樹林區三俊街6號","121.410941666667","25.015345"
"238014","282-BY","2016/10/28 18:07:50","新北市樹林區中正路45巷2號","121.426795","24.9994716666667"
"238020","268-VK","2016/10/28 18:07:40","新北市樹林區俊興街286號","121.418655","25.017045"
"238026","172-UY","2016/10/28 18:07:52","新北市樹林區佳園路一段27號","121.392931666667","24.9711733333333"
"238016","169-UY","2016/10/28 18:07:55","新北市樹林區復興路293號","121.418686666667","24.988865"
"239007","AAC-297","2016/10/28 18:07:42","新北市鶯歌區重慶街98號","121.348123333333","24.9522983333333"
"239006","891-R6","2016/10/28 18:07:40","新北市鶯歌區鶯桃路365巷70號","121.331463333333","24.9622766666667"
"239005","526-UM","2016/10/28 18:07:52","新北市鶯歌區鶯桃路668巷73號","121.329881666667","24.97176"
"239001","417-VK","2016/10/28 18:07:39","新北市鶯歌區中正三路福德巷2弄2號","121.339498333333","24.9414466666667"
"239002","359-BY","2016/10/28 18:07:42","新北市鶯歌區中正一路81號","121.352215","24.9546383333333"
"239008","292-BY","2016/10/28 18:07:36","新北市鶯歌區朝陽街53巷22號","121.338723333333","24.9777066666667"
"239004","193-VK","2016/10/28 18:07:50","新北市鶯歌區尖山路166巷38號","121.344928333333","24.949185"
"221008","129-UY","2016/10/28 18:07:40","新北市汐止區明峰街179-1號","121.628566666667","25.0700066666667"
"221036","130-UY","2016/10/28 18:07:53","新北市汐止區大同路三段243-1號","121.672941666667","25.0763083333333"
"221015","131-UY","2016/10/28 18:07:46","新北市汐止區鄉長路二段63號","121.666906666667","25.0841983333333"
"221010","269-BY","2016/10/28 18:07:40","新北市汐止區汐萬路二段248號","121.646226666667","25.0890016666667"
"221012","278-VK","2016/10/28 18:07:41","新北市汐止區保一街81-1號","121.674665","25.0802916666667"
"221032","280-BY","2016/10/28 15:31:20","新北市汐止區新台五路一段94-1號","121.648741666667","25.0612283333333"
"221027","281-BY","2016/10/28 18:07:39","新北市汐止區和平街8號","121.66336","25.07079"
"221038","297-VK","2016/10/28 18:07:54","新北市汐止區連興街128巷7弄10號","121.653496666667","25.061265"
"221029","298-VK","2016/10/28 18:07:38","新北市汐止區樟樹二路105號","121.639543333333","25.06448"
"221021","299-VK","2016/10/28 18:07:48","新北市汐止區龍安路16號","121.655795","25.064315"
"221031","353-TW","2016/10/28 18:07:50","新北市汐止區中興路226-5號","121.630605","25.06685"
"221035","622-UM","2016/10/28 18:07:51","新北市汐止區汐萬路一段167-1號","121.652731666667","25.070975"
"221025","623-UM","2016/10/28 18:07:42","新北市汐止區秀峰路145號","121.660488333333","25.0621933333333"
"221033","647-BX","2016/10/28 18:07:48","新北市汐止區林森街21號","121.621708333333","25.0404683333333"
"221002","707-TV","2016/10/28 18:07:49","新北市汐止區福德一路214號","121.634446666667","25.0651833333333"
"221018","753-BX","2016/10/28 18:07:36","新北市汐止區忠孝東路384號","121.665545","25.0701983333333"
"220029","287-VK","2016/10/28 15:20:48","新北市板橋區華東街1-10號","121.448253333333","24.9950683333333"
"220072","461-BY","2016/10/28 18:07:54","新北市板橋區華東街1-9號","121.448148333333","24.994945"
"220005","686-BX","2016/10/28 18:07:49","新北市板橋區民生路二段16號","121.472873333333","25.0164933333333"
"220054","741-BX","2016/10/28 18:07:32","新北市板橋區民生路二段15-1號","121.472675","25.0164183333333"
"220030","806-UM","2016/10/28 13:43:52","新北市板橋區大觀路二段265巷7-6號","121.442955","24.9946566666667"
"220021","985-R7","2016/10/28 13:45:25","新北市板橋區南雅南路二段11-5號","121.453995","25.002375"
"234001","TL-1","2016/10/28 18:07:40","新北市永和區豫溪街123號","121.519381666667","25.0101233333333"
"249001","3G-TL5","2016/10/28 18:07:45","桃園市楊梅區電研路100-24號","121.166071666667","24.953645"
